~VERSION INFORMATION
VERS.           2.0   :CWLS Log ASCII Standard - VERSION 2.0
WRAP.           NO    :One Line per depth step
PROD.  Schlumberger   :LAS Producer
PROG.  DLIS to ASCII 2.2                               :LAS Program name and version
CREA.        2020/10/30 12:18                          :LAS Creation date {YYYY/MM/DD hh:mm}
SOURCE.     XPT_HRLA_TLD_MCFL_037LTP.DLIS              :DLIS File Name
FILE-ID.     XPT_HRLA_TLD_MCFL_037LTP                  :File Identification Number
#--------------------------------------------------
~WELL INFORMATION
#MNEM.UNIT      DATA             DESCRIPTION
#---- ------ --------------   -----------------------------
STRT .S        35745.0       :START TIME      
STOP .S        36558.0       :STOP TIME      
STEP .S            1.0       :STEP     
NULL .          -999.25      :NULL VALUE
COMP .        Nexus Energy                             :COMPANY
WELL .        Crux-3                                   :WELL
FLD  .        Crux                                     :FIELD
LOC  .        Easting: 656981.7mE                      :LOCATION
CNTY .        Sedco-703                                :COUNTY
STAT .        Northern Territory                       :STATE
CTRY .        Australia                                :COUNTRY
API  .                                                 :API NUMBER
UWI  .                                                 :UNIQUE WELL ID
DATE .        31-Dec-2007                              :LOG DATE {DD-MMM-YYYY}
SRVC .        Schlumberger                             :SERVICE COMPANY
LATI .DEG     12*57'32.63" S                           :LATITUDE
LONG .DEG     124*26'50.07" E                          :LONGITUDE
GDAT .                                                 :GeoDetic Datum
#-----------------------------------------------------------------------------
~PARAMETER INFORMATION
#MNEM.UNIT    VALUE                      DESCRIPTION
#---- -----   --------------------       ------------------------
RUN  .          1                        :RUN NUMBER
PDAT .        LAT                        :Permanent Datum
EPD  .M           0.000000               :Elevation of Permanent Datum above Mean Sea Level
EPD  .M           0.000000               :Elevation of tool zero above Mean Sea Level
LMF  .          DF                       :Logging Measured From (Name of Logging Elevation Reference)
APD  .M          26.400000               :Elevation of Depth Reference (LMF) above Permanent Datum
#-----------------------------------------------------------------------------
~CURVE INFORMATION
#MNEM.UNIT   API CODE                                  DESCRIPTION
#---- -----  --------                                  -----------------------
TIME .S                                                :TIME {F10.1}
TENS_SL.LBF                                            :Cable Tension {F13.4}
DEPT_SL..1IN                                           :Station logging depth {F13.4}
PDEP_XPT.M                                             :XPT Probe Depth {F13.4}
MTEP_SAP.DEGC                                          :Sapphire Gauge Manometer Temperature {F13.4}
MTEP_HYD.DEGC                                          :Hydrostatic Sapphire Gauge Manometer Temperature {F13.4}
PCO_HYD.PSI                                            :Hydrostatic Sapphire Dynamic Compensation {F13.4}
PND_HYD.PSI                                            :Hydrostatic Sapphire Pressure Without Dynamic Compensation {F13.4}
CP_HYD.PSI                                             :Hydrostatic Sapphire Pressure With Dynamic Compensation {F13.4}
MTEP_QG.DEGC                                           :CQG Manometer Temperature {F13.4}
PTNO_XPT.                                              :XPT Pretest Number {I11}
ETIM_XPT.S                                             :Elapsed Logging Time {F13.4}
PCO_SAP.PSI                                            :Sapphire Dynamic Compensation {F13.4}
PND_SAP.PSI                                            :Sapphire Pressure Without Dynamic Compensation {F13.4}
CP_SAP.PSI                                             :Sapphire Pressure With Dynamic Compensation {F13.4}
QNDP .PSI                                              :CQG Pressure Without Dynamic Compensation {F13.4}
QCP  .PSI                                              :CQG Pressure With Dynamic Compensation {F13.4}
QPCO .PSI                                              :CQG Dynamic Compensation {F13.4}
#-----------------------------------------------------------------------------
# 
#     TIME      TENS_SL      DEPT_SL      PDEP_XPT     MTEP_SAP     MTEP_HYD     PCO_HYD      PND_HYD       CP_HYD      MTEP_QG       PTNO_XPT       ETIM_XPT     PCO_SAP      PND_SAP       CP_SAP        QNDP         QCP          QPCO
#
~A  
# ...
   35885.0    4664.5520 1417595.0000    3599.0823     118.7183     119.2606       0.0067    5862.4122    5862.4188     118.8434          0     139.7480      -0.0005    5860.9025    5860.9020    5857.8215    5858.0749       0.2534
   35886.0    4631.8200 1417595.0000    3599.0823     118.7189     119.2612       0.0099    5862.4512    5862.4611     118.8443          0     140.7480      -0.0005    5861.0042    5861.0037    5857.8531    5858.1064       0.2533
   35887.0    4662.6440 1417595.0000    3599.0823     118.7182     119.2594       0.0114    5862.4914    5862.5026     118.8453          0     141.7480       0.0003    5861.0709    5861.0711    5857.9809    5858.2333       0.2525
   35888.0    4672.2600 1417595.0000    3599.0823     118.7169     119.2609       0.0103    5862.6590    5862.6693     118.8460          0     142.7480       0.0011    5861.1098    5861.1108    5858.0629    5858.3144       0.2513
   35889.0    4635.0960 1417595.0000    3599.0823     118.7174     119.2609       0.0077    5862.6019    5862.6096     118.8468          0     143.7480       0.0022    5861.0483    5861.0503    5857.9578    5858.2077       0.2501
   35890.0    4607.2920 1417595.0000    3599.0823     118.7185     119.2615       0.0055    5862.5438    5862.5494     118.8478          0     144.7480       0.0043    5861.0442    5861.0484    5857.9583    5858.2070       0.2489
   35891.0    4594.5200 1417595.0000    3599.0823     118.7194     119.2617       0.0042    5862.5752    5862.5792     118.8484          0     145.7480       0.0060    5861.1519    5861.1578    5858.0104    5858.2581       0.2478
   35892.0    4599.4800 1417595.0000    3599.0823     118.7174     119.2608       0.0029    5862.5912    5862.5941     118.8492          0     146.7480       0.0062    5860.9306    5860.9369    5857.9351    5858.1821       0.2469
   35893.0    4673.0600 1417595.0000    3599.0823     118.7189     119.2611       0.0023    5862.3766    5862.3790     118.8502          0     147.7480       0.0057    5860.8557    5860.8613    5857.8237    5858.0703       0.2466
   35894.0    4720.9360 1417595.0000    3599.0823     118.7187     119.2609       0.0027    5862.4491    5862.4520     118.8510          0     148.7480       0.0055    5860.9616    5860.9669    5857.9031    5858.1497       0.2467
   35895.0    4729.0000 1417595.0000    3599.0823     118.7186     119.2617       0.0037    5862.5156    5862.5191     118.8518          0     149.7480       0.0054    5860.8431    5860.8485    5857.8685    5858.1150       0.2467
   35896.0    4729.7480 1417595.0000    3599.0823     118.7176     119.2617       0.0036    5862.3970    5862.4006     118.8524          0     150.7480       0.0047    5860.7104    5860.7153    5857.6927    5857.9388       0.2462
   35897.0    4715.7880 1417595.0000    3599.0823     118.7189     119.2615       0.0023    5862.2765    5862.2790     118.8534          0     151.7480       0.0042    5860.8061    5860.8105    5857.7613    5858.0070       0.2457
   35898.0    4690.8040 1417595.0000    3599.0823     118.7179     119.2625       0.0014    5862.4697    5862.4712     118.8544          0     152.7480       0.0040    5860.8643    5860.8682    5857.8884    5858.1335       0.2453
   35899.0    4627.1520 1417595.0000    3599.0823     118.7177     119.2626       0.0010    5862.5252    5862.5261     118.8550          0     153.7480       0.0039    5860.9130    5860.9169    5857.8725    5858.1174       0.2448
   35900.0    4607.2520 1417595.0000    3599.0823     118.7194     119.2595       0.0002    5862.4333    5862.4334     118.8558          0     154.7480       0.0038    5860.9190    5860.9230    5857.8465    5858.0907       0.2441
   35901.0    4632.4320 1417595.0000    3599.0823     118.7168     119.2618      -0.0008    5862.5312    5862.5302     118.8567          0     155.7480       0.0039    5860.9978    5861.0017    5858.0030    5858.2462       0.2433
   35902.0    4638.0080 1417595.0000    3599.0823     118.7187     119.2616      -0.0003    5862.6438    5862.6435     118.8574          0     156.7480       0.0038    5861.0562    5861.0601    5858.0551    5858.2983       0.2430
   35903.0    4616.8040 1417595.0000    3599.0823     118.7184     119.2623       0.0014    5862.6950    5862.6963     118.8580          0     157.7480       0.0032    5861.0089    5861.0119    5857.9541    5858.1968       0.2429
   35904.0    4687.7920 1417595.0000    3599.0823     118.7178     119.2623       0.0020    5862.4625    5862.4644     118.8589          0     158.7480       0.0026    5860.9483    5860.9508    5857.8967    5858.1394       0.2429
   35905.0    4711.0080 1417595.0000    3599.0823     118.7188     119.2621       0.0004    5862.4607    5862.4612     118.8599          0     159.7480       0.0017    5860.9534    5860.9551    5857.8582    5858.1009       0.2426
   35906.0    4707.7560 1417595.0000    3599.0823     118.7195     119.2609      -0.0016    5862.5078    5862.5064     118.8606          0     160.7480      -0.0002    5860.8811    5860.8807    5857.8097    5858.0523       0.2424
   35907.0    4695.0320 1417595.0000    3599.0823     118.7189     119.2631      -0.0018    5862.3518    5862.3499     118.8613          0     161.7480      -0.0034    5860.9052    5860.9016    5857.7777    5858.0214       0.2436
   35908.0    4724.6600 1417595.0000    3599.0823     118.7190     119.2617      -0.0008    5862.3666    5862.3659     118.8623          0     162.7480      -0.0063    5860.8909    5860.8846    5857.8668    5858.1129       0.2463
   35909.0    4694.8600 1417595.0000    3599.0823     118.7195     119.2617      -0.0003    5862.3970    5862.3965     118.8630          0     163.7480      -0.0070    5860.9015    5860.8946    5857.9057    5858.1547       0.2491
   35910.0    4647.3400 1417595.0000    3599.0823     118.7189     119.2609      -0.0002    5862.4582    5862.4582     118.8640          0     164.7480      -0.0043    5860.9103    5860.9060    5857.8174    5858.0674       0.2501
   35911.0    4604.5840 1417595.0000    3599.0823     118.7187     119.2617       0.0010    5862.4865    5862.4874     118.8648          0     165.7480       0.0012    5860.9808    5860.9818    5857.9627    5858.2119       0.2494
   35912.0    4614.1960 1417595.0000    3599.0823     118.7171     119.2617       0.0034    5862.4565    5862.4598     118.8657          0     166.7480       0.0081    5861.0156    5861.0236    5858.0249    5858.2730       0.2482
   35913.0    4631.4720 1417595.0000    3599.0823     118.7186     119.2617       0.0069    5862.6348    5862.6418     118.8665          0     167.7480       0.0159    5861.0298    5861.0458    5858.0122    5858.2581       0.2461
   35914.0    4604.3320 1417595.0000    3599.0823     118.7186     119.2617       0.0141    5862.5752    5862.5893     118.8672          0     168.7480       0.0233    5861.0298    5861.0532    5857.9804    5858.2216       0.2413
   35915.0    4641.1240 1417595.0000    3599.0823     118.7208     119.2617       0.0263    5862.4565    5862.4827     118.8677          0     169.7480       0.0285    5860.9917    5861.0203    5857.9531    5858.1882       0.2351
   35916.0    4650.2680 1417595.0000    3599.0823     118.7200     119.2624       0.0395    5862.5239    5862.5635     118.8687          0     170.7480       0.0294    5860.9253    5860.9546    5857.9246    5858.1571       0.2326
   35917.0    4680.1640 1417595.0000    3599.0823     118.7208     119.2609       0.0468    5862.3892    5862.4360     118.8696          0     171.7480       0.0303    5860.9326    5860.9629    5857.8882    5858.1286       0.2405
   35918.0    4671.5520 1417595.0000    3599.0823     118.7220     119.2659       0.0479    5862.6160    5862.6639     118.8703          0     172.7480       0.0383    5860.9661    5861.0046    5857.9049    5858.1653       0.2605
   35919.0    4672.4800 1417595.0000    3599.0823     118.7227     119.2669       0.0451    5862.6040    5862.6492     118.8708          0     173.7480       0.0461    5860.9365    5860.9828    5857.8332    5858.1117       0.2787
