~VERSION INFORMATION
VERS.           2.0   :CWLS Log ASCII Standard - VERSION 2.0
WRAP.           NO    :One Line per depth step
PROD.  Schlumberger   :LAS Producer
PROG.  DLIS to ASCII 2.2                               :LAS Program name and version
CREA.        2020/10/30 12:18                          :LAS Creation date {YYYY/MM/DD hh:mm}
SOURCE.     XPT_HRLA_TLD_MCFL_057LTP.DLIS              :DLIS File Name
FILE-ID.     XPT_HRLA_TLD_MCFL_057LTP                  :File Identification Number
#--------------------------------------------------
~WELL INFORMATION
#MNEM.UNIT      DATA             DESCRIPTION
#---- ------ --------------   -----------------------------
STRT .S         6912.0       :START TIME      
STOP .S         7441.0       :STOP TIME      
STEP .S            1.0       :STEP     
NULL .          -999.25      :NULL VALUE
COMP .        Nexus Energy                             :COMPANY
WELL .        Crux-3                                   :WELL
FLD  .        Crux                                     :FIELD
LOC  .        Easting: 656981.7mE                      :LOCATION
CNTY .        Sedco-703                                :COUNTY
STAT .        Northern Territory                       :STATE
CTRY .        Australia                                :COUNTRY
API  .                                                 :API NUMBER
UWI  .                                                 :UNIQUE WELL ID
DATE .        31-Dec-2007                              :LOG DATE {DD-MMM-YYYY}
SRVC .        Schlumberger                             :SERVICE COMPANY
LATI .DEG     12*57'32.63" S                           :LATITUDE
LONG .DEG     124*26'50.07" E                          :LONGITUDE
GDAT .                                                 :GeoDetic Datum
#-----------------------------------------------------------------------------
~PARAMETER INFORMATION
#MNEM.UNIT    VALUE                      DESCRIPTION
#---- -----   --------------------       ------------------------
RUN  .          1                        :RUN NUMBER
PDAT .        LAT                        :Permanent Datum
EPD  .M           0.000000               :Elevation of Permanent Datum above Mean Sea Level
EPD  .M           0.000000               :Elevation of tool zero above Mean Sea Level
LMF  .          DF                       :Logging Measured From (Name of Logging Elevation Reference)
APD  .M          26.400000               :Elevation of Depth Reference (LMF) above Permanent Datum
#-----------------------------------------------------------------------------
~CURVE INFORMATION
#MNEM.UNIT   API CODE                                  DESCRIPTION
#---- -----  --------                                  -----------------------
TIME .S                                                :TIME {F10.1}
TENS_SL.LBF                                            :Cable Tension {F13.4}
DEPT_SL..1IN                                           :Station logging depth {F13.4}
PDEP_XPT.M                                             :XPT Probe Depth {F13.4}
MTEP_SAP.DEGC                                          :Sapphire Gauge Manometer Temperature {F13.4}
MTEP_HYD.DEGC                                          :Hydrostatic Sapphire Gauge Manometer Temperature {F13.4}
PCO_HYD.PSI                                            :Hydrostatic Sapphire Dynamic Compensation {F13.4}
PND_HYD.PSI                                            :Hydrostatic Sapphire Pressure Without Dynamic Compensation {F13.4}
CP_HYD.PSI                                             :Hydrostatic Sapphire Pressure With Dynamic Compensation {F13.4}
MTEP_QG.DEGC                                           :CQG Manometer Temperature {F13.4}
PTNO_XPT.                                              :XPT Pretest Number {I11}
ETIM_XPT.S                                             :Elapsed Logging Time {F13.4}
PCO_SAP.PSI                                            :Sapphire Dynamic Compensation {F13.4}
PND_SAP.PSI                                            :Sapphire Pressure Without Dynamic Compensation {F13.4}
CP_SAP.PSI                                             :Sapphire Pressure With Dynamic Compensation {F13.4}
QNDP .PSI                                              :CQG Pressure Without Dynamic Compensation {F13.4}
QCP  .PSI                                              :CQG Pressure With Dynamic Compensation {F13.4}
QPCO .PSI                                              :CQG Dynamic Compensation {F13.4}
#-----------------------------------------------------------------------------
# 
#     TIME      TENS_SL      DEPT_SL      PDEP_XPT     MTEP_SAP     MTEP_HYD     PCO_HYD      PND_HYD       CP_HYD      MTEP_QG       PTNO_XPT       ETIM_XPT     PCO_SAP      PND_SAP       CP_SAP        QNDP         QCP          QPCO
#
~A  
# ...
    7227.0    4867.9160 1526236.0000    3875.0305     129.1323     129.6305      -0.0431    6300.8904    6300.8475     129.9052         20     315.0105      -0.0494    5600.6983    5600.6490    5598.6865    5598.4912      -0.1952
    7228.0    4859.8845 1526236.0000    3875.0305     129.1313     129.6291      -0.0416    6301.0232    6300.9817     129.9045         20     316.0105      -0.0507    5600.6909    5600.6401    5598.7059    5598.5104      -0.1955
    7229.0    4849.4410 1526236.0000    3875.0305     129.1288     129.6288      -0.0418    6301.0612    6301.0193     129.9040         20     317.0105      -0.0510    5600.6764    5600.6253    5598.7213    5598.5251      -0.1964
    7230.0    4892.0815 1526236.0000    3875.0305     129.1278     129.6289      -0.0428    6300.9880    6300.9450     129.9031         20     318.0105      -0.0501    5600.5969    5600.5467    5598.7264    5598.5296      -0.1968
    7231.0    4994.0630 1526236.0000    3875.0305     129.1290     129.6280      -0.0425    6300.8570    6300.8145     129.9029         20     319.0105      -0.0471    5600.7187    5600.6717    5598.7396    5598.5429      -0.1968
    7232.0    4999.8110 1526236.0000    3875.0305     129.1267     129.6286      -0.0419    6300.9236    6300.8816     129.9022         20     320.0105      -0.0442    5600.6617    5600.6175    5598.7510    5598.5539      -0.1971
    7233.0    4981.8320 1526236.0000    3875.0305     129.1270     129.6244      -0.0434    6300.6417    6300.5982     129.9020         20     321.0105      -0.0441    5600.6512    5600.6072    5598.7556    5598.5574      -0.1984
    7234.0    4966.0525 1526236.0000    3875.0305     129.1250     129.6251      -0.0462    6300.6294    6300.5833     129.9009         20     322.0105      -0.0463    5600.7596    5600.7134    5598.7707    5598.5715      -0.1992
    7235.0    4969.9185 1526236.0000    3875.0305     129.1250     129.6251      -0.0468    6300.7938    6300.7469     129.9005         20     323.0105      -0.0487    5600.7216    5600.6729    5598.7839    5598.5847      -0.1991
    7236.0    4868.5880 1526236.0000    3875.0305     129.1247     129.6240      -0.0451    6300.8167    6300.7718     129.8997         20     324.0105      -0.0510    5600.7712    5600.7204    5598.7889    5598.5906      -0.1984
    7237.0    4923.2650 1526236.0000    3875.0305     129.1224     129.6223      -0.0432    6300.9170    6300.8737     129.8990         20     325.0105      -0.0537    5600.6761    5600.6226    5598.8035    5598.6053      -0.1983
    7238.0    4854.3150 1526236.0000    3875.0305     129.1222     129.6222      -0.0427    6301.0046    6300.9617     129.8985         20     326.0105      -0.0557    5600.7957    5600.7400    5598.8187    5598.6199      -0.1989
    7239.0    4883.3700 1526236.0000    3875.0305     129.1222     129.6213      -0.0436    6301.0895    6301.0460     129.8975         20     327.0105      -0.0546    5600.7600    5600.7053    5598.8280    5598.6288      -0.1992
    7240.0    4824.2100 1526236.0000    3875.0305     129.1180     129.6203      -0.0446    6300.9560    6300.9114     129.8974         20     328.0105      -0.0506    5600.7576    5600.7069    5598.8368    5598.6383      -0.1986
    7241.0    4845.0500 1526236.0000    3875.0305     129.1193     129.6195      -0.0449    6300.9897    6300.9448     129.8968         20     329.0105      -0.0462    5600.7919    5600.7457    5598.8431    5598.6454      -0.1979
    7242.0    4944.5880 1526236.0000    3875.0305     129.1166     129.6198      -0.0439    6300.8901    6300.8462     129.8959         20     330.0105      -0.0428    5600.7719    5600.7290    5598.8523    5598.6546      -0.1975
    7243.0    5000.0735 1526236.0000    3875.0305     129.1171     129.6178      -0.0426    6300.9479    6300.9054     129.8953         20     331.0105      -0.0405    5600.7580    5600.7177    5598.8580    5598.6603      -0.1976
    7244.0    5006.6745 1526236.0000    3875.0305     129.1175     129.6175      -0.0422    6300.7988    6300.7567     129.8948         20     332.0105      -0.0387    5600.8126    5600.7739    5598.8632    5598.6654      -0.1976
    7245.0    4975.6535 1526236.0000    3875.0305     129.1169     129.6167      -0.0423    6300.6763    6300.6338     129.8942         20     333.0105      -0.0380    5600.7455    5600.7074    5598.8742    5598.6765      -0.1977
    7246.0    4943.1260 1526236.0000    3875.0305     129.1155     129.6160      -0.0421    6300.7635    6300.7215     129.8936         20     334.0105      -0.0392    5600.8208    5600.7816    5598.8763    5598.6781      -0.1981
    7247.0    4954.9475 1526236.0000    3875.0305     129.1142     129.6155      -0.0423    6300.8257    6300.7834     129.8929         20     335.0105      -0.0408    5600.8099    5600.7691    5598.8870    5598.6879      -0.1991
    7248.0    4949.9055 1526236.0000    3875.0305     129.1133     129.6130      -0.0427    6300.8168    6300.7744     129.8925         20     336.0105      -0.0414    5600.8617    5600.8201    5598.8893    5598.6891      -0.2001
    7249.0    4940.7585 1526236.0000    3875.0305     129.1136     129.6139      -0.0421    6300.8381    6300.7958     129.8916         20     337.0105      -0.0412    5600.8473    5600.8063    5598.8973    5598.6961      -0.2010
    7250.0    4917.8320 1526236.0000    3875.0305     129.1112     129.6130      -0.0395    6300.9285    6300.8891     129.8909         20     338.0105      -0.0419    5600.8229    5600.7810    5598.8997    5598.6986      -0.2013
    7251.0    4901.7375 1526236.0000    3875.0305     129.1128     129.6107      -0.0358    6300.7923    6300.7567     129.8904         20     339.0105      -0.0439    5600.9138    5600.8698    5598.9106    5598.7099      -0.2007
    7252.0    4876.7270 1526236.0000    3875.0305     129.1110     129.6113      -0.0323    6300.8702    6300.8379     129.8899         20     340.0105      -0.0461    5600.8490    5600.8030    5598.9112    5598.7112      -0.1999
    7253.0    4850.8320 1526236.0000    3875.0305     129.1111     129.6113      -0.0313    6300.9197    6300.8885     129.8892         20     341.0105      -0.0478    5600.8995    5600.8518    5598.9204    5598.7212      -0.1993
    7254.0    4834.9265 1526236.0000    3875.0305     129.1094     129.6114      -0.0345    6300.8645    6300.8302     129.8887         20     342.0105      -0.0490    5600.9440    5600.8952    5598.9195    5598.7203      -0.1992
    7255.0    4828.2100 1526236.0000    3875.0305     129.1088     129.6094      -0.0411    6300.9601    6300.9188     129.8880         20     343.0105      -0.0498    5600.8564    5600.8066    5598.9254    5598.7260      -0.1994
    7256.0    4848.6300 1526236.0000    3875.0305     129.1080     129.6107      -0.0479    6300.9731    6300.9252     129.8874         20     344.0105      -0.0501    5600.8818    5600.8315    5598.9280    5598.7283      -0.1996
    7257.0    4908.5880 1526236.0000    3875.0305     129.1071     129.6091      -0.0516    6301.0167    6300.9649     129.8869         20     345.0105      -0.0506    5600.8036    5600.7528    5598.9334    5598.7337      -0.1999
    7258.0    4964.2730 1526236.0000    3875.0305     129.1052     129.6071      -0.0513    6300.9345    6300.8834     129.8861         20     346.0105      -0.0509    5600.8780    5600.8272    5598.9346    5598.7340      -0.2005
    7259.0    4990.0000 1526236.0000    3875.0305     129.1062     129.6051      -0.0481    6300.8322    6300.7841     129.8854         20     347.0105      -0.0498    5600.8744    5600.8244    5598.9384    5598.7373      -0.2013
    7260.0    4989.3070 1526236.0000    3875.0305     129.1031     129.6053      -0.0437    6300.9115    6300.8676     129.8848         20     348.0105      -0.0472    5600.8282    5600.7808    5598.9346    5598.7329      -0.2016
    7261.0    4923.2545 1526236.0000    3875.0305     129.1040     129.6039      -0.0403    6300.8018    6300.7615     129.8843         20     349.0105      -0.0445    5600.9095    5600.8650    5598.9464    5598.7452      -0.2012
