~VERSION INFORMATION
VERS.           2.0   :CWLS Log ASCII Standard - VERSION 2.0
WRAP.           NO    :One Line per depth step
PROD.  Schlumberger   :LAS Producer
PROG.  DLIS to ASCII 2.2                               :LAS Program name and version
CREA.        2020/10/30 12:18                          :LAS Creation date {YYYY/MM/DD hh:mm}
SOURCE.     XPT_HRLA_TLD_MCFL_049LTP.DLIS              :DLIS File Name
FILE-ID.     XPT_HRLA_TLD_MCFL_049LTP                  :File Identification Number
#--------------------------------------------------
~WELL INFORMATION
#MNEM.UNIT      DATA             DESCRIPTION
#---- ------ --------------   -----------------------------
STRT .S          815.0       :START TIME      
STOP .S         1341.0       :STOP TIME      
STEP .S            1.0       :STEP     
NULL .          -999.25      :NULL VALUE
COMP .        Nexus Energy                             :COMPANY
WELL .        Crux-3                                   :WELL
FLD  .        Crux                                     :FIELD
LOC  .        Easting: 656981.7mE                      :LOCATION
CNTY .        Sedco-703                                :COUNTY
STAT .        Northern Territory                       :STATE
CTRY .        Australia                                :COUNTRY
API  .                                                 :API NUMBER
UWI  .                                                 :UNIQUE WELL ID
DATE .        31-Dec-2007                              :LOG DATE {DD-MMM-YYYY}
SRVC .        Schlumberger                             :SERVICE COMPANY
LATI .DEG     12*57'32.63" S                           :LATITUDE
LONG .DEG     124*26'50.07" E                          :LONGITUDE
GDAT .                                                 :GeoDetic Datum
#-----------------------------------------------------------------------------
~PARAMETER INFORMATION
#MNEM.UNIT    VALUE                      DESCRIPTION
#---- -----   --------------------       ------------------------
RUN  .          1                        :RUN NUMBER
PDAT .        LAT                        :Permanent Datum
EPD  .M           0.000000               :Elevation of Permanent Datum above Mean Sea Level
EPD  .M           0.000000               :Elevation of tool zero above Mean Sea Level
LMF  .          DF                       :Logging Measured From (Name of Logging Elevation Reference)
APD  .M          26.400000               :Elevation of Depth Reference (LMF) above Permanent Datum
#-----------------------------------------------------------------------------
~CURVE INFORMATION
#MNEM.UNIT   API CODE                                  DESCRIPTION
#---- -----  --------                                  -----------------------
TIME .S                                                :TIME {F10.1}
TENS_SL.LBF                                            :Cable Tension {F13.4}
DEPT_SL..1IN                                           :Station logging depth {F13.4}
PDEP_XPT.M                                             :XPT Probe Depth {F13.4}
MTEP_SAP.DEGC                                          :Sapphire Gauge Manometer Temperature {F13.4}
MTEP_HYD.DEGC                                          :Hydrostatic Sapphire Gauge Manometer Temperature {F13.4}
PCO_HYD.PSI                                            :Hydrostatic Sapphire Dynamic Compensation {F13.4}
PND_HYD.PSI                                            :Hydrostatic Sapphire Pressure Without Dynamic Compensation {F13.4}
CP_HYD.PSI                                             :Hydrostatic Sapphire Pressure With Dynamic Compensation {F13.4}
MTEP_QG.DEGC                                           :CQG Manometer Temperature {F13.4}
PTNO_XPT.                                              :XPT Pretest Number {I11}
ETIM_XPT.S                                             :Elapsed Logging Time {F13.4}
PCO_SAP.PSI                                            :Sapphire Dynamic Compensation {F13.4}
PND_SAP.PSI                                            :Sapphire Pressure Without Dynamic Compensation {F13.4}
CP_SAP.PSI                                             :Sapphire Pressure With Dynamic Compensation {F13.4}
QNDP .PSI                                              :CQG Pressure Without Dynamic Compensation {F13.4}
QCP  .PSI                                              :CQG Pressure With Dynamic Compensation {F13.4}
QPCO .PSI                                              :CQG Dynamic Compensation {F13.4}
#-----------------------------------------------------------------------------
# 
#     TIME      TENS_SL      DEPT_SL      PDEP_XPT     MTEP_SAP     MTEP_HYD     PCO_HYD      PND_HYD       CP_HYD      MTEP_QG       PTNO_XPT       ETIM_XPT     PCO_SAP      PND_SAP       CP_SAP        QNDP         QCP          QPCO
#
~A  
# ...
    1235.0    4643.6994 1451040.0000    3684.0325     122.3515     122.9245       0.0202    5998.4014    5998.4217     122.8986         14     420.4819       0.0163    5534.2760    5534.2923    5531.5784    5531.6699       0.0916
    1236.0    4637.0363 1451040.0000    3684.0325     122.3523     122.9260       0.0206    5998.5366    5998.5571     122.8985         14     421.4819       0.0128    5534.3011    5534.3138    5531.5785    5531.6702       0.0917
    1237.0    4623.9531 1451040.0000    3684.0325     122.3520     122.9268       0.0211    5998.5605    5998.5816     122.8990         14     422.4819       0.0096    5534.2520    5534.2617    5531.5791    5531.6711       0.0920
    1238.0    4613.4094 1451040.0000    3684.0325     122.3533     122.9290       0.0213    5998.5503    5998.5715     122.8994         14     423.4819       0.0082    5534.3759    5534.3842    5531.5777    5531.6700       0.0923
    1239.0    4640.5756 1451040.0000    3684.0325     122.3523     122.9264       0.0197    5998.3932    5998.4128     122.8997         14     424.4819       0.0085    5534.1544    5534.1626    5531.5731    5531.6658       0.0926
    1240.0    4705.0681 1451040.0000    3684.0325     122.3524     122.9281       0.0168    5998.5420    5998.5588     122.9001         14     425.4819       0.0098    5534.3444    5534.3543    5531.5803    5531.6731       0.0927
    1241.0    4736.3625 1451040.0000    3684.0325     122.3534     122.9280       0.0150    5998.4385    5998.4537     122.9003         14     426.4819       0.0121    5534.3296    5534.3416    5531.5804    5531.6732       0.0929
    1242.0    4714.4350 1451040.0000    3684.0325     122.3537     122.9283       0.0155    5998.3849    5998.4005     122.9006         14     427.4819       0.0138    5534.3079    5534.3215    5531.5791    5531.6718       0.0928
    1243.0    4727.0575 1451040.0000    3684.0325     122.3536     122.9294       0.0175    5998.3335    5998.3512     122.9011         14     428.4819       0.0137    5534.2435    5534.2572    5531.5780    5531.6708       0.0926
    1244.0    4754.0000 1451040.0000    3684.0325     122.3543     122.9293       0.0189    5998.3795    5998.3983     122.9011         14     429.4819       0.0129    5534.2661    5534.2790    5531.5792    5531.6715       0.0922
    1245.0    4725.0875 1451040.0000    3684.0325     122.3568     122.9287       0.0193    5998.3819    5998.4014     122.9018         14     430.4819       0.0120    5534.3937    5534.4054    5531.5866    5531.6784       0.0919
    1246.0    4656.4137 1451040.0000    3684.0325     122.3537     122.9290       0.0202    5998.4183    5998.4384     122.9019         14     431.4819       0.0112    5534.2903    5534.3015    5531.5836    5531.6759       0.0922
    1247.0    4616.4819 1451040.0000    3684.0325     122.3535     122.9310       0.0227    5998.4825    5998.5051     122.9021         14     432.4819       0.0109    5534.2825    5534.2935    5531.5837    5531.6764       0.0927
    1248.0    4630.4925 1451040.0000    3684.0325     122.3555     122.9291       0.0248    5998.4533    5998.4782     122.9025         14     433.4819       0.0126    5534.2405    5534.2532    5531.5858    5531.6785       0.0928
    1249.0    4642.5906 1451040.0000    3684.0325     122.3547     122.9319       0.0246    5998.5983    5998.6231     122.9029         14     434.4819       0.0159    5534.2879    5534.3038    5531.5834    5531.6756       0.0922
    1250.0    4652.0469 1451040.0000    3684.0325     122.3560     122.9319       0.0225    5998.5389    5998.5616     122.9031         14     435.4819       0.0177    5534.2910    5534.3086    5531.5843    5531.6761       0.0918
    1251.0    4696.8038 1451040.0000    3684.0325     122.3553     122.9320       0.0202    5998.5888    5998.6089     122.9034         14     436.4819       0.0168    5534.2905    5534.3071    5531.5861    5531.6779       0.0917
    1252.0    4742.5650 1451040.0000    3684.0325     122.3560     122.9323       0.0182    5998.5055    5998.5237     122.9035         14     437.4819       0.0154    5534.2634    5534.2790    5531.5836    5531.6754       0.0918
    1253.0    4748.2537 1451040.0000    3684.0325     122.3579     122.9316       0.0156    5998.4759    5998.4914     122.9039         14     438.4819       0.0158    5534.2977    5534.3133    5531.5827    5531.6742       0.0916
    1254.0    4739.0725 1451040.0000    3684.0325     122.3578     122.9328       0.0136    5998.3142    5998.3279     122.9043         14     439.4819       0.0159    5534.3103    5534.3264    5531.5812    5531.6730       0.0916
    1255.0    4739.4094 1451040.0000    3684.0325     122.3553     122.9330       0.0134    5998.2900    5998.3033     122.9046         14     440.4819       0.0132    5534.2307    5534.2440    5531.5821    5531.6739       0.0919
    1256.0    4739.1088 1451040.0000    3684.0325     122.3579     122.9339       0.0150    5998.4402    5998.4552     122.9049         14     441.4819       0.0091    5534.3883    5534.3974    5531.5855    5531.6778       0.0922
    1257.0    4723.9531 1451040.0000    3684.0325     122.3582     122.9336       0.0168    5998.4322    5998.4488     122.9051         14     442.4819       0.0071    5534.3928    5534.3997    5531.5809    5531.6727       0.0920
    1258.0    4677.2688 1451040.0000    3684.0325     122.3570     122.9335       0.0181    5998.3871    5998.4051     122.9054         14     443.4819       0.0079    5534.3052    5534.3132    5531.5863    5531.6780       0.0916
    1259.0    4643.8912 1451040.0000    3684.0325     122.3580     122.9343       0.0193    5998.5044    5998.5237     122.9057         14     444.4819       0.0087    5534.3354    5534.3442    5531.5869    5531.6782       0.0913
    1260.0    4644.5906 1451040.0000    3684.0325     122.3547     122.9351       0.0204    5998.4551    5998.4755     122.9063         14     445.4819       0.0085    5534.2299    5534.2382    5531.5854    5531.6768       0.0912
    1261.0    4636.2175 1451040.0000    3684.0325     122.3585     122.9356       0.0206    5998.5771    5998.5977     122.9060         14     446.4819       0.0097    5534.4098    5534.4193    5531.5858    5531.6767       0.0908
    1262.0    4630.0000 1451040.0000    3684.0325     122.3582     122.9351       0.0196    5998.4526    5998.4724     122.9067         14     447.4819       0.0130    5534.3004    5534.3135    5531.5854    5531.6759       0.0906
    1263.0    4630.9637 1451040.0000    3684.0325     122.3604     122.9351       0.0185    5998.5726    5998.5912     122.9067         14     448.4819       0.0158    5534.2509    5534.2666    5531.5888    5531.6800       0.0912
    1264.0    4671.9956 1451040.0000    3684.0325     122.3579     122.9354       0.0184    5998.4556    5998.4741     122.9072         14     449.4819       0.0160    5534.3613    5534.3773    5531.5886    5531.6804       0.0918
    1265.0    4705.8444 1451040.0000    3684.0325     122.3578     122.9358       0.0191    5998.5017    5998.5208     122.9073         14     450.4819       0.0146    5534.1889    5534.2036    5531.5862    5531.6785       0.0921
    1266.0    4710.9381 1451040.0000    3684.0325     122.3604     122.9366       0.0192    5998.4409    5998.4600     122.9075         14     451.4819       0.0147    5534.3359    5534.3506    5531.5855    5531.6773       0.0918
    1267.0    4741.4563 1451040.0000    3684.0325     122.3587     122.9367       0.0181    5998.3774    5998.3953     122.9081         14     452.4819       0.0156    5534.3635    5534.3791    5531.5828    5531.6748       0.0920
    1268.0    4749.7719 1451040.0000    3684.0325     122.3604     122.9371       0.0162    5998.2941    5998.3104     122.9084         14     453.4819       0.0159    5534.3388    5534.3546    5531.5877    5531.6799       0.0925
    1269.0    4742.9637 1451040.0000    3684.0325     122.3591     122.9385       0.0140    5998.4890    5998.5032     122.9088         14     454.4819       0.0153    5534.2195    5534.2347    5531.5925    5531.6848       0.0921
