~VERSION INFORMATION
VERS.           2.0   :CWLS Log ASCII Standard - VERSION 2.0
WRAP.           NO    :One Line per depth step
PROD.  Schlumberger   :LAS Producer
PROG.  DLIS to ASCII 2.2                               :LAS Program name and version
CREA.        2020/10/30 12:18                          :LAS Creation date {YYYY/MM/DD hh:mm}
SOURCE.     XPT_HRLA_TLD_MCFL_049LTP.DLIS              :DLIS File Name
FILE-ID.     XPT_HRLA_TLD_MCFL_049LTP                  :File Identification Number
#--------------------------------------------------
~WELL INFORMATION
#MNEM.UNIT      DATA             DESCRIPTION
#---- ------ --------------   -----------------------------
STRT .S          815.0       :START TIME      
STOP .S         1341.0       :STOP TIME      
STEP .S            1.0       :STEP     
NULL .          -999.25      :NULL VALUE
COMP .        Nexus Energy                             :COMPANY
WELL .        Crux-3                                   :WELL
FLD  .        Crux                                     :FIELD
LOC  .        Easting: 656981.7mE                      :LOCATION
CNTY .        Sedco-703                                :COUNTY
STAT .        Northern Territory                       :STATE
CTRY .        Australia                                :COUNTRY
API  .                                                 :API NUMBER
UWI  .                                                 :UNIQUE WELL ID
DATE .        31-Dec-2007                              :LOG DATE {DD-MMM-YYYY}
SRVC .        Schlumberger                             :SERVICE COMPANY
LATI .DEG     12*57'32.63" S                           :LATITUDE
LONG .DEG     124*26'50.07" E                          :LONGITUDE
GDAT .                                                 :GeoDetic Datum
#-----------------------------------------------------------------------------
~PARAMETER INFORMATION
#MNEM.UNIT    VALUE                      DESCRIPTION
#---- -----   --------------------       ------------------------
RUN  .          1                        :RUN NUMBER
PDAT .        LAT                        :Permanent Datum
EPD  .M           0.000000               :Elevation of Permanent Datum above Mean Sea Level
EPD  .M           0.000000               :Elevation of tool zero above Mean Sea Level
LMF  .          DF                       :Logging Measured From (Name of Logging Elevation Reference)
APD  .M          26.400000               :Elevation of Depth Reference (LMF) above Permanent Datum
#-----------------------------------------------------------------------------
~CURVE INFORMATION
#MNEM.UNIT   API CODE                                  DESCRIPTION
#---- -----  --------                                  -----------------------
TIME .S                                                :TIME {F10.1}
TENS_SL.LBF                                            :Cable Tension {F13.4}
DEPT_SL..1IN                                           :Station logging depth {F13.4}
PDEP_XPT.M                                             :XPT Probe Depth {F13.4}
MTEP_SAP.DEGC                                          :Sapphire Gauge Manometer Temperature {F13.4}
MTEP_HYD.DEGC                                          :Hydrostatic Sapphire Gauge Manometer Temperature {F13.4}
PCO_HYD.PSI                                            :Hydrostatic Sapphire Dynamic Compensation {F13.4}
PND_HYD.PSI                                            :Hydrostatic Sapphire Pressure Without Dynamic Compensation {F13.4}
CP_HYD.PSI                                             :Hydrostatic Sapphire Pressure With Dynamic Compensation {F13.4}
MTEP_QG.DEGC                                           :CQG Manometer Temperature {F13.4}
PTNO_XPT.                                              :XPT Pretest Number {I11}
ETIM_XPT.S                                             :Elapsed Logging Time {F13.4}
PCO_SAP.PSI                                            :Sapphire Dynamic Compensation {F13.4}
PND_SAP.PSI                                            :Sapphire Pressure Without Dynamic Compensation {F13.4}
CP_SAP.PSI                                             :Sapphire Pressure With Dynamic Compensation {F13.4}
QNDP .PSI                                              :CQG Pressure Without Dynamic Compensation {F13.4}
QCP  .PSI                                              :CQG Pressure With Dynamic Compensation {F13.4}
QPCO .PSI                                              :CQG Dynamic Compensation {F13.4}
#-----------------------------------------------------------------------------
# 
#     TIME      TENS_SL      DEPT_SL      PDEP_XPT     MTEP_SAP     MTEP_HYD     PCO_HYD      PND_HYD       CP_HYD      MTEP_QG       PTNO_XPT       ETIM_XPT     PCO_SAP      PND_SAP       CP_SAP        QNDP         QCP          QPCO
#
~A  
# ...
    1025.0    4747.2025 1451040.0000    3684.0325     122.2808     122.8652       0.0122    5998.4367    5998.4491     122.8178         14     210.4819      -0.1584    5427.7246    5427.5661    5426.2369    5426.0152      -0.2217
    1026.0    4746.8700 1451040.0000    3684.0325     122.2767     122.8647       0.0154    5998.3163    5998.3319     122.8178         14     211.4819      -0.1274    5422.7388    5422.6116    5421.2372    5421.0081      -0.2292
    1027.0    4729.7100 1451040.0000    3684.0325     122.2773     122.8646       0.0192    5998.4254    5998.4447     122.8174         14     212.4819      -0.0699    5421.0288    5420.9590    5419.3462    5419.1440      -0.2024
    1028.0    4728.3625 1451040.0000    3684.0325     122.2787     122.8661       0.0222    5998.3267    5998.3489     122.8168         14     213.4819      -0.0039    5419.2413    5419.2372    5417.4359    5417.2787      -0.1570
    1029.0    4701.6163 1451040.0000    3684.0325     122.2808     122.8660       0.0241    5998.3263    5998.3503     122.8162         14     214.4819       0.0525    5419.4638    5419.5161    5417.4310    5417.3241      -0.1070
    1030.0    4672.9169 1451040.0000    3684.0325     122.2827     122.8675       0.0242    5998.4117    5998.4360     122.8160         14     215.4819       0.0996    5419.7107    5419.8103    5417.4457    5417.4007      -0.0452
    1031.0    4651.3625 1451040.0000    3684.0325     122.2842     122.8684       0.0221    5998.5298    5998.5518     122.8155         14     216.4819       0.1489    5419.0385    5419.1876    5416.7397    5416.7817       0.0422
    1032.0    4653.5288 1451040.0000    3684.0325     122.2850     122.8676       0.0181    5998.4612    5998.4793     122.8158         14     217.4819       0.1993    5418.9652    5419.1646    5416.5832    5416.7307       0.1473
    1033.0    4660.2537 1451040.0000    3684.0325     122.2870     122.8681       0.0140    5998.3586    5998.3725     122.8154         14     218.4819       0.2350    5419.6458    5419.8809    5417.1541    5417.4007       0.2464
    1034.0    4644.8081 1451040.0000    3684.0325     122.2915     122.8689       0.0119    5998.5354    5998.5473     122.8165         14     219.4819       0.2478    5450.1885    5450.4364    5446.8723    5447.1996       0.3274
    1035.0    4636.0000 1451040.0000    3684.0325     122.3067     122.8684       0.0108    5998.4744    5998.4852     122.8200         14     220.4819       0.2393    5522.3313    5522.5704    5518.2604    5518.6476       0.3872
    1036.0    4646.1194 1451040.0000    3684.0325     122.3106     122.8684       0.0109    5998.3724    5998.3833     122.8211         14     221.4819       0.2088    5529.5465    5529.7554    5525.5249    5525.9427       0.4177
    1037.0    4679.1663 1451040.0000    3684.0325     122.3127     122.8691       0.0120    5998.4419    5998.4539     122.8221         14     222.4819       0.1555    5531.8507    5532.0060    5528.0163    5528.4300       0.4136
    1038.0    4725.6481 1451040.0000    3684.0325     122.3121     122.8695       0.0140    5998.4537    5998.4678     122.8231         14     223.4819       0.0905    5532.8236    5532.9142    5529.1075    5529.4961       0.3886
    1039.0    4755.3006 1451040.0000    3684.0325     122.3135     122.8678       0.0154    5998.3612    5998.3764     122.8243         14     224.4819       0.0342    5533.2648    5533.2991    5529.6558    5530.0207       0.3650
    1040.0    4752.3263 1451040.0000    3684.0325     122.3124     122.8694       0.0149    5998.3617    5998.3765     122.8256         14     225.4819      -0.0009    5533.4365    5533.4356    5530.0385    5530.3912       0.3527
    1041.0    4736.2537 1451040.0000    3684.0325     122.3125     122.8706       0.0135    5998.4025    5998.4162     122.8269         14     226.4819      -0.0173    5533.7026    5533.6853    5530.2789    5530.6238       0.3449
    1042.0    4715.0256 1451040.0000    3684.0325     122.3114     122.8699       0.0118    5998.3341    5998.3456     122.8278         14     227.4819      -0.0230    5533.6243    5533.6012    5530.4325    5530.7653       0.3327
    1043.0    4686.9894 1451040.0000    3684.0325     122.3116     122.8710       0.0108    5998.4141    5998.4248     122.8289         14     228.4819      -0.0228    5533.7447    5533.7220    5530.5683    5530.8844       0.3161
    1044.0    4661.4350 1451040.0000    3684.0325     122.3080     122.8713       0.0100    5998.3855    5998.3957     122.8304         14     229.4819      -0.0192    5533.7472    5533.7280    5530.6757    5530.9734       0.2975
    1045.0    4648.5181 1451040.0000    3684.0325     122.3095     122.8686       0.0093    5998.3152    5998.3245     122.8309         14     230.4819      -0.0139    5533.7816    5533.7679    5530.7417    5531.0206       0.2788
    1046.0    4655.7100 1451040.0000    3684.0325     122.3093     122.8716       0.0094    5998.4565    5998.4661     122.8319         14     231.4819      -0.0087    5533.8556    5533.8467    5530.8070    5531.0679       0.2608
    1047.0    4686.6481 1451040.0000    3684.0325     122.3098     122.8708       0.0116    5998.4359    5998.4476     122.8326         14     232.4819      -0.0047    5533.8635    5533.8590    5530.8576    5531.1016       0.2441
    1048.0    4731.7206 1451040.0000    3684.0325     122.3112     122.8714       0.0148    5998.4424    5998.4573     122.8332         14     233.4819      -0.0034    5533.8831    5533.8795    5530.8900    5531.1184       0.2285
    1049.0    4759.7825 1451040.0000    3684.0325     122.3101     122.8714       0.0166    5998.3823    5998.3989     122.8341         14     234.4819      -0.0054    5533.9516    5533.9461    5530.9196    5531.1346       0.2147
    1050.0    4769.8550 1451040.0000    3684.0325     122.3096     122.8707       0.0169    5998.3186    5998.3356     122.8347         14     235.4819      -0.0076    5533.8843    5533.8765    5530.9555    5531.1579       0.2024
    1051.0    4767.7356 1451040.0000    3684.0325     122.3105     122.8721       0.0169    5998.4285    5998.4456     122.8355         14     236.4819      -0.0073    5533.9984    5533.9912    5530.9846    5531.1760       0.1914
    1052.0    4722.9319 1451040.0000    3684.0325     122.3099     122.8723       0.0161    5998.3440    5998.3603     122.8360         14     237.4819      -0.0037    5533.9143    5533.9108    5531.0057    5531.1874       0.1816
    1053.0    4669.9531 1451040.0000    3684.0325     122.3100     122.8729       0.0132    5998.3984    5998.4117     122.8367         14     238.4819       0.0000    5533.9492    5533.9492    5531.0274    5531.1999       0.1726
    1054.0    4641.5800 1451040.0000    3684.0325     122.3094     122.8721       0.0102    5998.3901    5998.4003     122.8370         14     239.4819       0.0020    5533.8751    5533.8772    5531.0482    5531.2131       0.1648
    1055.0    4637.0469 1451040.0000    3684.0325     122.3091     122.8744       0.0109    5998.4741    5998.4850     122.8377         14     240.4819       0.0035    5533.9961    5533.9996    5531.0738    5531.2323       0.1585
    1056.0    4644.2175 1451040.0000    3684.0325     122.3107     122.8730       0.0138    5998.4071    5998.4208     122.8381         14     241.4819       0.0055    5533.9899    5533.9952    5531.0882    5531.2411       0.1531
    1057.0    4658.2388 1451040.0000    3684.0325     122.3106     122.8721       0.0152    5998.3468    5998.3620     122.8384         14     242.4819       0.0078    5533.9184    5533.9264    5531.0854    5531.2334       0.1479
    1058.0    4713.7312 1451040.0000    3684.0325     122.3104     122.8737       0.0156    5998.4063    5998.4219     122.8389         14     243.4819       0.0092    5533.9672    5533.9765    5531.1023    5531.2454       0.1432
    1059.0    4751.9275 1451040.0000    3684.0325     122.3083     122.8751       0.0176    5998.4219    5998.4394     122.8395         14     244.4819       0.0104    5533.9273    5533.9376    5531.1109    5531.2501       0.1392
