~VERSION INFORMATION
VERS.           2.0   :CWLS Log ASCII Standard - VERSION 2.0
WRAP.           NO    :One Line per depth step
PROD.  Schlumberger   :LAS Producer
PROG.  DLIS to ASCII 2.2                               :LAS Program name and version
CREA.        2020/10/30 12:18                          :LAS Creation date {YYYY/MM/DD hh:mm}
SOURCE.     XPT_HRLA_TLD_MCFL_049LTP.DLIS              :DLIS File Name
FILE-ID.     XPT_HRLA_TLD_MCFL_049LTP                  :File Identification Number
#--------------------------------------------------
~WELL INFORMATION
#MNEM.UNIT      DATA             DESCRIPTION
#---- ------ --------------   -----------------------------
STRT .S          815.0       :START TIME      
STOP .S         1341.0       :STOP TIME      
STEP .S            1.0       :STEP     
NULL .          -999.25      :NULL VALUE
COMP .        Nexus Energy                             :COMPANY
WELL .        Crux-3                                   :WELL
FLD  .        Crux                                     :FIELD
LOC  .        Easting: 656981.7mE                      :LOCATION
CNTY .        Sedco-703                                :COUNTY
STAT .        Northern Territory                       :STATE
CTRY .        Australia                                :COUNTRY
API  .                                                 :API NUMBER
UWI  .                                                 :UNIQUE WELL ID
DATE .        31-Dec-2007                              :LOG DATE {DD-MMM-YYYY}
SRVC .        Schlumberger                             :SERVICE COMPANY
LATI .DEG     12*57'32.63" S                           :LATITUDE
LONG .DEG     124*26'50.07" E                          :LONGITUDE
GDAT .                                                 :GeoDetic Datum
#-----------------------------------------------------------------------------
~PARAMETER INFORMATION
#MNEM.UNIT    VALUE                      DESCRIPTION
#---- -----   --------------------       ------------------------
RUN  .          1                        :RUN NUMBER
PDAT .        LAT                        :Permanent Datum
EPD  .M           0.000000               :Elevation of Permanent Datum above Mean Sea Level
EPD  .M           0.000000               :Elevation of tool zero above Mean Sea Level
LMF  .          DF                       :Logging Measured From (Name of Logging Elevation Reference)
APD  .M          26.400000               :Elevation of Depth Reference (LMF) above Permanent Datum
#-----------------------------------------------------------------------------
~CURVE INFORMATION
#MNEM.UNIT   API CODE                                  DESCRIPTION
#---- -----  --------                                  -----------------------
TIME .S                                                :TIME {F10.1}
TENS_SL.LBF                                            :Cable Tension {F13.4}
DEPT_SL..1IN                                           :Station logging depth {F13.4}
PDEP_XPT.M                                             :XPT Probe Depth {F13.4}
MTEP_SAP.DEGC                                          :Sapphire Gauge Manometer Temperature {F13.4}
MTEP_HYD.DEGC                                          :Hydrostatic Sapphire Gauge Manometer Temperature {F13.4}
PCO_HYD.PSI                                            :Hydrostatic Sapphire Dynamic Compensation {F13.4}
PND_HYD.PSI                                            :Hydrostatic Sapphire Pressure Without Dynamic Compensation {F13.4}
CP_HYD.PSI                                             :Hydrostatic Sapphire Pressure With Dynamic Compensation {F13.4}
MTEP_QG.DEGC                                           :CQG Manometer Temperature {F13.4}
PTNO_XPT.                                              :XPT Pretest Number {I11}
ETIM_XPT.S                                             :Elapsed Logging Time {F13.4}
PCO_SAP.PSI                                            :Sapphire Dynamic Compensation {F13.4}
PND_SAP.PSI                                            :Sapphire Pressure Without Dynamic Compensation {F13.4}
CP_SAP.PSI                                             :Sapphire Pressure With Dynamic Compensation {F13.4}
QNDP .PSI                                              :CQG Pressure Without Dynamic Compensation {F13.4}
QCP  .PSI                                              :CQG Pressure With Dynamic Compensation {F13.4}
QPCO .PSI                                              :CQG Dynamic Compensation {F13.4}
#-----------------------------------------------------------------------------
# 
#     TIME      TENS_SL      DEPT_SL      PDEP_XPT     MTEP_SAP     MTEP_HYD     PCO_HYD      PND_HYD       CP_HYD      MTEP_QG       PTNO_XPT       ETIM_XPT     PCO_SAP      PND_SAP       CP_SAP        QNDP         QCP          QPCO
#
~A  
# ...
    1305.0    4652.8038 1451040.0000    3684.0325     122.4241     122.9499       0.0227    5998.4244    5998.4469     122.9660         14     490.4819      -0.2257    5997.3136    5997.0877    5993.4406    5994.1945       0.7539
    1306.0    4696.1556 1451040.0000    3684.0325     122.4182     122.9507       0.0222    5998.4976    5998.5200     122.9683         14     491.4819      -0.2065    5997.0794    5996.8731    5993.5674    5994.2201       0.6527
    1307.0    4701.1812 1451040.0000    3684.0325     122.4143     122.9499       0.0206    5998.5925    5998.6132     122.9704         14     492.4819      -0.1858    5997.2518    5997.0659    5993.8438    5994.4004       0.5566
    1308.0    4673.8337 1451040.0000    3684.0325     122.4118     122.9509       0.0181    5998.6751    5998.6932     122.9719         14     493.4819      -0.1658    5997.0646    5996.8987    5993.7867    5994.2546       0.4677
    1309.0    4652.4094 1451040.0000    3684.0325     122.4089     122.9512       0.0163    5998.5026    5998.5187     122.9731         14     494.4819      -0.1456    5996.8168    5996.6711    5993.7750    5994.1624       0.3873
    1310.0    4694.9956 1451040.0000    3684.0325     122.4077     122.9510       0.0167    5998.4562    5998.4728     122.9743         14     495.4819      -0.1253    5996.8162    5996.6909    5993.8072    5994.1237       0.3164
    1311.0    4715.3519 1451040.0000    3684.0325     122.4065     122.9518       0.0175    5998.6243    5998.6419     122.9750         14     496.4819      -0.1079    5996.8457    5996.7380    5993.9455    5994.2000       0.2543
    1312.0    4707.8656 1451040.0000    3684.0325     122.4026     122.9510       0.0169    5998.4404    5998.4574     122.9756         14     497.4819      -0.0954    5996.6976    5996.6022    5993.8640    5994.0645       0.2003
    1313.0    4743.8294 1451040.0000    3684.0325     122.4022     122.9518       0.0153    5998.2692    5998.2846     122.9762         14     498.4819      -0.0850    5996.6031    5996.5179    5993.8490    5994.0029       0.1538
    1314.0    4764.4456 1451040.0000    3684.0325     122.4003     122.9526       0.0142    5998.4011    5998.4152     122.9765         14     499.4819      -0.0735    5996.6358    5996.5623    5994.0097    5994.1242       0.1145
    1315.0    4740.9425 1451040.0000    3684.0325     122.4001     122.9527       0.0145    5998.5020    5998.5166     122.9770         14     500.4819      -0.0618    5996.6249    5996.5632    5994.0008    5994.0824       0.0816
    1316.0    4689.4244 1451040.0000    3684.0325     122.3978     122.9534       0.0148    5998.4055    5998.4201     122.9773         14     501.4819      -0.0528    5996.6288    5996.5760    5994.0208    5994.0747       0.0538
    1317.0    4655.2900 1451040.0000    3684.0325     122.3961     122.9525       0.0148    5998.5143    5998.5290     122.9775         14     502.4819      -0.0465    5996.7355    5996.6890    5994.0952    5994.1254       0.0300
    1318.0    4652.3006 1451040.0000    3684.0325     122.3968     122.9527       0.0150    5998.5783    5998.5934     122.9773         14     503.4819      -0.0415    5996.7693    5996.7277    5994.2127    5994.2223       0.0096
    1319.0    4656.5544 1451040.0000    3684.0325     122.3960     122.9541       0.0169    5998.6438    5998.6607     122.9773         14     504.4819      -0.0375    5996.7354    5996.6979    5994.1999    5994.1924      -0.0075
    1320.0    4635.7250 1451040.0000    3684.0325     122.3946     122.9548       0.0192    5998.6012    5998.6202     122.9774         14     505.4819      -0.0347    5996.7202    5996.6855    5994.1680    5994.1467      -0.0215
    1321.0    4649.6950 1451040.0000    3684.0325     122.3943     122.9540       0.0197    5998.5310    5998.5506     122.9773         14     506.4819      -0.0318    5996.6501    5996.6183    5994.1532    5994.1207      -0.0326
    1322.0    4700.0106 1451040.0000    3684.0325     122.3940     122.9553       0.0186    5998.5925    5998.6113     122.9769         14     507.4819      -0.0280    5996.5834    5996.5555    5994.1029    5994.0602      -0.0427
    1323.0    4733.2750 1451040.0000    3684.0325     122.3927     122.9556       0.0183    5998.4883    5998.5063     122.9769         14     508.4819      -0.0257    5996.5033    5996.4779    5994.1136    5994.0653      -0.0483
    1324.0    4762.1919 1451040.0000    3684.0325     122.3932     122.9567       0.0192    5998.4833    5998.5024     122.9765         14     509.4819      -0.0228    5996.5505    5996.5278    5994.0272    5993.9743      -0.0528
    1325.0    4756.5437 1451040.0000    3684.0325     122.3940     122.9556       0.0198    5998.4282    5998.4479     122.9763         14     510.4819      -0.0169    5996.5125    5996.4955    5994.0235    5993.9680      -0.0555
    1326.0    4709.1963 1451040.0000    3684.0325     122.3937     122.9556       0.0195    5998.4282    5998.4478     122.9763         14     511.4819      -0.0119    5996.5040    5996.4922    5994.0255    5993.9689      -0.0565
    1327.0    4649.4606 1451040.0000    3684.0325     122.3920     122.9561       0.0198    5998.4506    5998.4703     122.9760         14     512.4819      -0.0068    5996.5820    5996.5751    5994.0585    5994.0012      -0.0573
    1328.0    4613.8081 1451040.0000    3684.0325     122.3918     122.9574       0.0218    5998.4961    5998.5179     122.9758         14     513.4819      -0.0036    5996.5031    5996.4995    5994.0918    5994.0336      -0.0582
    1329.0    4636.3219 1451040.0000    3684.0325     122.3935     122.9571       0.0239    5998.5355    5998.5594     122.9758         14     514.4819      -0.0002    5996.5738    5996.5738    5994.1448    5994.0857      -0.0589
    1330.0    4660.8444 1451040.0000    3684.0325     122.3917     122.9578       0.0237    5998.5718    5998.5956     122.9756         14     515.4819       0.0033    5996.5629    5996.5661    5994.1576    5994.0987      -0.0588
    1331.0    4683.2856 1451040.0000    3684.0325     122.3930     122.9580       0.0211    5998.5977    5998.6186     122.9752         14     516.4819       0.0043    5996.5496    5996.5540    5994.1253    5994.0674      -0.0578
    1332.0    4729.5650 1451040.0000    3684.0325     122.3917     122.9589       0.0179    5998.4916    5998.5097     122.9753         14     517.4819       0.0023    5996.2696    5996.2721    5994.0384    5993.9817      -0.0565
    1333.0    4722.7250 1451040.0000    3684.0325     122.3924     122.9596       0.0158    5998.5084    5998.5244     122.9748         14     518.4819      -0.0012    5996.4918    5996.4907    5994.0427    5993.9872      -0.0556
    1334.0    4705.3731 1451040.0000    3684.0325     122.3933     122.9594       0.0151    5998.4686    5998.4837     122.9748         14     519.4819      -0.0033    5996.4454    5996.4421    5993.9613    5993.9069      -0.0542
    1335.0    4725.8656 1451040.0000    3684.0325     122.3931     122.9599       0.0157    5998.4182    5998.4338     122.9748         14     520.4819      -0.0039    5996.3549    5996.3510    5993.9337    5993.8814      -0.0523
    1336.0    4720.8700 1451040.0000    3684.0325     122.3929     122.9591       0.0163    5998.4277    5998.4927     122.9745         14     521.4819      -0.0037    5996.5524    5996.4653    5994.0030    5993.9116      -0.0511
    1337.0    4664.1963 1451040.0000    3684.0325     122.3927     122.9595       0.0163    5998.4700    5998.4927     122.9742         14     522.4819      -0.0037    5996.5707    5996.4653    5994.0259    5993.9116      -0.0511
    1338.0    4630.0000 1451040.0000    3684.0325     122.3920     122.9608       0.0163    5998.5398    5998.4927     122.9741         14     523.4819      -0.0037    5996.4962    5996.4653    5993.9910    5993.9116      -0.0511
    1339.0    4633.3731 1451040.0000    3684.0325     122.3917     122.9609       0.0163    5998.5439    5998.4927     122.9739         14     524.4819      -0.0037    5996.5006    5996.4653    5994.0507    5993.9116      -0.0511
