~VERSION INFORMATION
VERS.           2.0   :CWLS Log ASCII Standard - VERSION 2.0
WRAP.           NO    :One Line per depth step
PROD.  Schlumberger   :LAS Producer
PROG.  DLIS to ASCII 2.2                               :LAS Program name and version
CREA.        2020/10/30 12:18                          :LAS Creation date {YYYY/MM/DD hh:mm}
SOURCE.     XPT_HRLA_TLD_MCFL_057LTP.DLIS              :DLIS File Name
FILE-ID.     XPT_HRLA_TLD_MCFL_057LTP                  :File Identification Number
#--------------------------------------------------
~WELL INFORMATION
#MNEM.UNIT      DATA             DESCRIPTION
#---- ------ --------------   -----------------------------
STRT .S         6912.0       :START TIME      
STOP .S         7441.0       :STOP TIME      
STEP .S            1.0       :STEP     
NULL .          -999.25      :NULL VALUE
COMP .        Nexus Energy                             :COMPANY
WELL .        Crux-3                                   :WELL
FLD  .        Crux                                     :FIELD
LOC  .        Easting: 656981.7mE                      :LOCATION
CNTY .        Sedco-703                                :COUNTY
STAT .        Northern Territory                       :STATE
CTRY .        Australia                                :COUNTRY
API  .                                                 :API NUMBER
UWI  .                                                 :UNIQUE WELL ID
DATE .        31-Dec-2007                              :LOG DATE {DD-MMM-YYYY}
SRVC .        Schlumberger                             :SERVICE COMPANY
LATI .DEG     12*57'32.63" S                           :LATITUDE
LONG .DEG     124*26'50.07" E                          :LONGITUDE
GDAT .                                                 :GeoDetic Datum
#-----------------------------------------------------------------------------
~PARAMETER INFORMATION
#MNEM.UNIT    VALUE                      DESCRIPTION
#---- -----   --------------------       ------------------------
RUN  .          1                        :RUN NUMBER
PDAT .        LAT                        :Permanent Datum
EPD  .M           0.000000               :Elevation of Permanent Datum above Mean Sea Level
EPD  .M           0.000000               :Elevation of tool zero above Mean Sea Level
LMF  .          DF                       :Logging Measured From (Name of Logging Elevation Reference)
APD  .M          26.400000               :Elevation of Depth Reference (LMF) above Permanent Datum
#-----------------------------------------------------------------------------
~CURVE INFORMATION
#MNEM.UNIT   API CODE                                  DESCRIPTION
#---- -----  --------                                  -----------------------
TIME .S                                                :TIME {F10.1}
TENS_SL.LBF                                            :Cable Tension {F13.4}
DEPT_SL..1IN                                           :Station logging depth {F13.4}
PDEP_XPT.M                                             :XPT Probe Depth {F13.4}
MTEP_SAP.DEGC                                          :Sapphire Gauge Manometer Temperature {F13.4}
MTEP_HYD.DEGC                                          :Hydrostatic Sapphire Gauge Manometer Temperature {F13.4}
PCO_HYD.PSI                                            :Hydrostatic Sapphire Dynamic Compensation {F13.4}
PND_HYD.PSI                                            :Hydrostatic Sapphire Pressure Without Dynamic Compensation {F13.4}
CP_HYD.PSI                                             :Hydrostatic Sapphire Pressure With Dynamic Compensation {F13.4}
MTEP_QG.DEGC                                           :CQG Manometer Temperature {F13.4}
PTNO_XPT.                                              :XPT Pretest Number {I11}
ETIM_XPT.S                                             :Elapsed Logging Time {F13.4}
PCO_SAP.PSI                                            :Sapphire Dynamic Compensation {F13.4}
PND_SAP.PSI                                            :Sapphire Pressure Without Dynamic Compensation {F13.4}
CP_SAP.PSI                                             :Sapphire Pressure With Dynamic Compensation {F13.4}
QNDP .PSI                                              :CQG Pressure Without Dynamic Compensation {F13.4}
QCP  .PSI                                              :CQG Pressure With Dynamic Compensation {F13.4}
QPCO .PSI                                              :CQG Dynamic Compensation {F13.4}
#-----------------------------------------------------------------------------
# 
#     TIME      TENS_SL      DEPT_SL      PDEP_XPT     MTEP_SAP     MTEP_HYD     PCO_HYD      PND_HYD       CP_HYD      MTEP_QG       PTNO_XPT       ETIM_XPT     PCO_SAP      PND_SAP       CP_SAP        QNDP         QCP          QPCO
#
~A  
# ...
    7297.0    5010.8425 1526236.0000    3875.0305     129.0758     129.5797      -0.0404    6300.8376    6300.7971     129.8618         20     385.0105      -0.0465    5600.9924    5600.9461    5599.0256    5598.8244      -0.2010
    7298.0    4995.0130 1526236.0000    3875.0305     129.0723     129.5787      -0.0387    6300.8115    6300.7727     129.8611         20     386.0105      -0.0461    5600.8801    5600.8340    5599.0285    5598.8277      -0.2008
    7299.0    4901.4330 1526236.0000    3875.0305     129.0720     129.5779      -0.0345    6300.9050    6300.8704     129.8606         20     387.0105      -0.0469    5600.9344    5600.8876    5599.0290    5598.8288      -0.2003
    7300.0    4848.5355 1526236.0000    3875.0305     129.0714     129.5761      -0.0311    6300.8437    6300.8126     129.8600         20     388.0105      -0.0472    5600.9718    5600.9244    5599.0310    5598.8313      -0.1999
    7301.0    4898.4435 1526236.0000    3875.0305     129.0714     129.5772      -0.0308    6301.0186    6300.9878     129.8590         20     389.0105      -0.0460    5601.0048    5600.9588    5599.0353    5598.8351      -0.2003
    7302.0    4846.5985 1526236.0000    3875.0305     129.0700     129.5767      -0.0327    6301.0125    6300.9797     129.8586         20     390.0105      -0.0442    5600.9196    5600.8752    5599.0344    5598.8337      -0.2008
    7303.0    4903.9135 1526236.0000    3875.0305     129.0694     129.5770      -0.0337    6301.0342    6301.0005     129.8581         20     391.0105      -0.0432    5600.9236    5600.8804    5599.0361    5598.8354      -0.2008
    7304.0    4990.0000 1526236.0000    3875.0305     129.0693     129.5758      -0.0344    6300.9186    6300.8841     129.8576         20     392.0105      -0.0435    5600.9285    5600.8850    5599.0379    5598.8372      -0.2008
    7305.0    4990.2520 1526236.0000    3875.0305     129.0685     129.5741      -0.0372    6301.0002    6300.9630     129.8567         20     393.0105      -0.0436    5600.9445    5600.9010    5599.0379    5598.8367      -0.2013
    7306.0    5013.8530 1526236.0000    3875.0305     129.0666     129.5734      -0.0411    6300.9351    6300.8942     129.8562         20     394.0105      -0.0430    5600.8930    5600.8502    5599.0366    5598.8348      -0.2020
    7307.0    4999.4645 1526236.0000    3875.0305     129.0656     129.5746      -0.0420    6300.7669    6300.7249     129.8554         20     395.0105      -0.0416    5600.9839    5600.9423    5599.0398    5598.8377      -0.2022
    7308.0    4948.1495 1526236.0000    3875.0305     129.0656     129.5734      -0.0395    6300.8768    6300.8373     129.8547         20     396.0105      -0.0402    5600.9053    5600.8653    5599.0402    5598.8385      -0.2019
    7309.0    4867.7690 1526236.0000    3875.0305     129.0651     129.5719      -0.0381    6300.9795    6300.9414     129.8543         20     397.0105      -0.0389    5600.9649    5600.9260    5599.0400    5598.8390      -0.2009
    7310.0    4846.0210 1526236.0000    3875.0305     129.0648     129.5696      -0.0390    6300.8945    6300.8556     129.8537         20     398.0105      -0.0375    5600.9736    5600.9360    5599.0467    5598.8465      -0.2001
    7311.0    4847.9055 1526236.0000    3875.0305     129.0640     129.5703      -0.0389    6300.9089    6300.8699     129.8530         20     399.0105      -0.0368    5601.0030    5600.9664    5599.0488    5598.8491      -0.1998
    7312.0    4839.4200 1526236.0000    3875.0305     129.0625     129.5708      -0.0352    6301.1493    6301.1142     129.8524         20     400.0105      -0.0367    5600.9564    5600.9198    5599.0537    5598.8540      -0.1997
    7313.0    4879.9345 1526236.0000    3875.0305     129.0623     129.5681      -0.0302    6300.9990    6300.9688     129.8517         20     401.0105      -0.0370    5600.9823    5600.9452    5599.0507    5598.8515      -0.1991
    7314.0    4968.3150 1526236.0000    3875.0305     129.0619     129.5673      -0.0268    6300.9306    6300.9037     129.8512         20     402.0105      -0.0371    5600.9481    5600.9110    5599.0554    5598.8567      -0.1987
    7315.0    4997.8950 1526236.0000    3875.0305     129.0606     129.5681      -0.0255    6300.9112    6300.8858     129.8504         20     403.0105      -0.0377    5600.9559    5600.9181    5599.0519    5598.8525      -0.1994
    7316.0    4988.0000 1526236.0000    3875.0305     129.0605     129.5673      -0.0263    6300.8730    6300.8467     129.8497         20     404.0105      -0.0388    5600.9572    5600.9183    5599.0538    5598.8537      -0.2003
    7317.0    4987.7585 1526236.0000    3875.0305     129.0589     129.5665      -0.0290    6300.8013    6300.7724     129.8496         20     405.0105      -0.0396    5601.0070    5600.9674    5599.0531    5598.8529      -0.2004
    7318.0    4964.2230 1526236.0000    3875.0305     129.0584     129.5673      -0.0321    6300.8922    6300.8601     129.8486         20     406.0105      -0.0397    5601.0979    5601.0583    5599.0574    5598.8572      -0.2001
    7319.0    4890.9475 1526236.0000    3875.0305     129.0574     129.5665      -0.0352    6300.9861    6300.9507     129.8480         20     407.0105      -0.0399    5600.9625    5600.9224    5599.0585    5598.8580      -0.2004
    7320.0    4885.6010 1526236.0000    3875.0305     129.0574     129.5643      -0.0390    6300.9002    6300.8611     129.8474         20     408.0105      -0.0407    5600.9718    5600.9313    5599.0582    5598.8575      -0.2008
    7321.0    4847.7270 1526236.0000    3875.0305     129.0558     129.5633      -0.0423    6300.9096    6300.8674     129.8469         20     409.0105      -0.0406    5601.0015    5600.9610    5599.0592    5598.8582      -0.2009
    7322.0    4821.9265 1526236.0000    3875.0305     129.0553     129.5643      -0.0420    6301.0607    6301.0186     129.8462         20     410.0105      -0.0395    5600.9831    5600.9434    5599.0619    5598.8616      -0.2005
    7323.0    4815.1470 1526236.0000    3875.0305     129.0551     129.5631      -0.0388    6300.9746    6300.9356     129.8453         20     411.0105      -0.0383    5600.9501    5600.9120    5599.0583    5598.8581      -0.2004
    7324.0    4829.3570 1526236.0000    3875.0305     129.0543     129.5617      -0.0365    6300.9751    6300.9387     129.8450         20     412.0105      -0.0389    5600.9413    5600.9025    5599.0629    5598.8622      -0.2005
    7325.0    4863.5985 1526236.0000    3875.0305     129.0545     129.5610      -0.0361    6301.0258    6300.9897     129.8442         20     413.0105      -0.0398    5601.0000    5600.9601    5599.0647    5598.8644      -0.2004
    7326.0    4920.6090 1526236.0000    3875.0305     129.0540     129.5616      -0.0358    6301.0212    6300.9856     129.8437         20     414.0105      -0.0396    5601.1168    5601.0772    5599.0602    5598.8605      -0.1999
    7327.0    4978.4200 1526236.0000    3875.0305     129.0529     129.5599      -0.0351    6300.9717    6300.9365     129.8429         20     415.0105      -0.0395    5600.9784    5600.9389    5599.0630    5598.8638      -0.1994
    7328.0    5017.8425 1526236.0000    3875.0305     129.0510     129.5598      -0.0358    6300.8987    6300.8627     129.8424         20     416.0105      -0.0414    5600.9840    5600.9428    5599.0639    5598.8651      -0.1989
    7329.0    5002.8110 1526236.0000    3875.0305     129.0503     129.5593      -0.0375    6300.9040    6300.8664     129.8420         20     417.0105      -0.0450    5600.9966    5600.9517    5599.0640    5598.8652      -0.1989
    7330.0    4985.0210 1526236.0000    3875.0305     129.0520     129.5582      -0.0377    6300.7911    6300.7535     129.8413         20     418.0105      -0.0476    5601.0493    5601.0018    5599.0640    5598.8651      -0.1990
    7331.0    4986.0340 1526236.0000    3875.0305     129.0499     129.5574      -0.0359    6300.7398    6300.7040     129.8403         20     419.0105      -0.0482    5600.9681    5600.9198    5599.0507    5598.8515      -0.1991
