~VERSION INFORMATION
VERS.           2.0   :CWLS Log ASCII Standard - VERSION 2.0
WRAP.           NO    :One Line per depth step
PROD.  Schlumberger   :LAS Producer
PROG.  DLIS to ASCII 2.2                               :LAS Program name and version
CREA.        2020/10/30 12:18                          :LAS Creation date {YYYY/MM/DD hh:mm}
SOURCE.     XPT_HRLA_TLD_MCFL_045LTP.DLIS              :DLIS File Name
FILE-ID.     XPT_HRLA_TLD_MCFL_045LTP                  :File Identification Number
#--------------------------------------------------
~WELL INFORMATION
#MNEM.UNIT      DATA             DESCRIPTION
#---- ------ --------------   -----------------------------
STRT .S         3688.0       :START TIME      
STOP .S         4251.0       :STOP TIME      
STEP .S            1.0       :STEP     
NULL .          -999.25      :NULL VALUE
COMP .        Nexus Energy                             :COMPANY
WELL .        Crux-3                                   :WELL
FLD  .        Crux                                     :FIELD
LOC  .        Easting: 656981.7mE                      :LOCATION
CNTY .        Sedco-703                                :COUNTY
STAT .        Northern Territory                       :STATE
CTRY .        Australia                                :COUNTRY
API  .                                                 :API NUMBER
UWI  .                                                 :UNIQUE WELL ID
DATE .        31-Dec-2007                              :LOG DATE {DD-MMM-YYYY}
SRVC .        Schlumberger                             :SERVICE COMPANY
LATI .DEG     12*57'32.63" S                           :LATITUDE
LONG .DEG     124*26'50.07" E                          :LONGITUDE
GDAT .                                                 :GeoDetic Datum
#-----------------------------------------------------------------------------
~PARAMETER INFORMATION
#MNEM.UNIT    VALUE                      DESCRIPTION
#---- -----   --------------------       ------------------------
RUN  .          1                        :RUN NUMBER
PDAT .        LAT                        :Permanent Datum
EPD  .M           0.000000               :Elevation of Permanent Datum above Mean Sea Level
EPD  .M           0.000000               :Elevation of tool zero above Mean Sea Level
LMF  .          DF                       :Logging Measured From (Name of Logging Elevation Reference)
APD  .M          26.400000               :Elevation of Depth Reference (LMF) above Permanent Datum
#-----------------------------------------------------------------------------
~CURVE INFORMATION
#MNEM.UNIT   API CODE                                  DESCRIPTION
#---- -----  --------                                  -----------------------
TIME .S                                                :TIME {F10.1}
TENS_SL.LBF                                            :Cable Tension {F13.4}
DEPT_SL..1IN                                           :Station logging depth {F13.4}
PDEP_XPT.M                                             :XPT Probe Depth {F13.4}
MTEP_SAP.DEGC                                          :Sapphire Gauge Manometer Temperature {F13.4}
MTEP_HYD.DEGC                                          :Hydrostatic Sapphire Gauge Manometer Temperature {F13.4}
PCO_HYD.PSI                                            :Hydrostatic Sapphire Dynamic Compensation {F13.4}
PND_HYD.PSI                                            :Hydrostatic Sapphire Pressure Without Dynamic Compensation {F13.4}
CP_HYD.PSI                                             :Hydrostatic Sapphire Pressure With Dynamic Compensation {F13.4}
MTEP_QG.DEGC                                           :CQG Manometer Temperature {F13.4}
PTNO_XPT.                                              :XPT Pretest Number {I11}
ETIM_XPT.S                                             :Elapsed Logging Time {F13.4}
PCO_SAP.PSI                                            :Sapphire Dynamic Compensation {F13.4}
PND_SAP.PSI                                            :Sapphire Pressure Without Dynamic Compensation {F13.4}
CP_SAP.PSI                                             :Sapphire Pressure With Dynamic Compensation {F13.4}
QNDP .PSI                                              :CQG Pressure Without Dynamic Compensation {F13.4}
QCP  .PSI                                              :CQG Pressure With Dynamic Compensation {F13.4}
QPCO .PSI                                              :CQG Dynamic Compensation {F13.4}
#-----------------------------------------------------------------------------
# 
#     TIME      TENS_SL      DEPT_SL      PDEP_XPT     MTEP_SAP     MTEP_HYD     PCO_HYD      PND_HYD       CP_HYD      MTEP_QG       PTNO_XPT       ETIM_XPT     PCO_SAP      PND_SAP       CP_SAP        QNDP         QCP          QPCO
#
~A  
# ...
    3863.0    4934.1125 1440603.0000    3657.5227     121.8773     122.4214      -0.0183    5955.3091    5955.2910     122.4574          7     175.0725       0.2224    5523.7544    5523.9767    5520.7902    5520.6302      -0.1602
    3864.0    4838.6050 1440603.0000    3657.5227     121.8786     122.4202      -0.0196    5955.2125    5955.1930     122.4573          7     176.0725       0.1563    5523.9887    5524.1451    5521.1622    5521.0549      -0.1074
    3865.0    4739.1425 1440603.0000    3657.5227     121.8776     122.4216      -0.0188    5955.3060    5955.2871     122.4569          7     177.0725       0.1041    5524.2486    5524.3526    5521.3916    5521.3326      -0.0591
    3866.0    4675.8400 1440603.0000    3657.5227     121.8803     122.4202      -0.0180    5955.4341    5955.4161     122.4569          7     178.0725       0.0715    5524.4313    5524.5028    5521.6099    5521.5988      -0.0110
    3867.0    4664.9875 1440603.0000    3657.5227     121.8809     122.4205      -0.0187    5955.5424    5955.5238     122.4570          7     179.0725       0.0542    5524.6080    5524.6620    5521.8434    5521.8741       0.0309
    3868.0    4724.5550 1440603.0000    3657.5227     121.8820     122.4206      -0.0203    5955.5850    5955.5648     122.4571          7     180.0725       0.0446    5524.7945    5524.8389    5522.0200    5522.0818       0.0617
    3869.0    4839.7275 1440603.0000    3657.5227     121.8804     122.4188      -0.0215    5955.5299    5955.5084     122.4576          7     181.0725       0.0369    5524.9242    5524.9612    5522.1805    5522.2644       0.0839
    3870.0    4915.9725 1440603.0000    3657.5227     121.8846     122.4198      -0.0220    5955.5407    5955.5188     122.4576          7     182.0725       0.0286    5525.0644    5525.0930    5522.2857    5522.3854       0.0996
    3871.0    4953.6375 1440603.0000    3657.5227     121.8845     122.4182      -0.0220    5955.3443    5955.3223     122.4583          7     183.0725       0.0213    5525.1297    5525.1511    5522.3039    5522.4143       0.1104
    3872.0    4941.0975 1440603.0000    3657.5227     121.8844     122.4178      -0.0228    5955.1864    5955.1636     122.4584          7     184.0725       0.0153    5525.1009    5525.1161    5522.3387    5522.4560       0.1175
    3873.0    4833.1850 1440603.0000    3657.5227     121.8845     122.4177      -0.0237    5955.1599    5955.1360     122.4589          7     185.0725       0.0102    5525.1143    5525.1247    5522.3723    5522.4943       0.1222
    3874.0    4741.4325 1440603.0000    3657.5227     121.8833     122.4173      -0.0220    5955.2307    5955.2086     122.4593          7     186.0725       0.0051    5525.1938    5525.1988    5522.4014    5522.5267       0.1253
    3875.0    4680.9700 1440603.0000    3657.5227     121.8840     122.4176      -0.0172    5955.4200    5955.4028     122.4597          7     187.0725       0.0014    5525.1900    5525.1914    5522.3953    5522.5217       0.1266
    3876.0    4658.1175 1440603.0000    3657.5227     121.8835     122.4161      -0.0110    5955.4964    5955.4855     122.4603          7     188.0725       0.0001    5525.2423    5525.2423    5522.3954    5522.5213       0.1260
    3877.0    4706.1925 1440603.0000    3657.5227     121.8846     122.4138      -0.0070    5955.4780    5955.4709     122.4606          7     189.0725       0.0000    5525.2419    5525.2419    5522.3982    5522.5225       0.1244
    3878.0    4818.3950 1440603.0000    3657.5227     121.8837     122.4169      -0.0049    5955.5098    5955.5049     122.4611          7     190.0725      -0.0007    5525.1712    5525.1705    5522.4052    5522.5277       0.1225
    3879.0    4917.6400 1440603.0000    3657.5227     121.8843     122.4155      -0.0039    5955.5497    5955.5458     122.4615          7     191.0725      -0.0024    5525.1604    5525.1580    5522.4049    5522.5255       0.1206
    3880.0    4978.2325 1440603.0000    3657.5227     121.8832     122.4168      -0.0049    5955.3819    5955.3769     122.4616          7     192.0725      -0.0039    5525.1845    5525.1804    5522.4090    5522.5270       0.1181
    3881.0    4990.2300 1440603.0000    3657.5227     121.8830     122.4169      -0.0089    5955.3306    5955.3216     122.4623          7     193.0725      -0.0051    5525.1646    5525.1594    5522.4158    5522.5310       0.1153
    3882.0    4932.6475 1440603.0000    3657.5227     121.8847     122.4147      -0.0149    5955.1917    5955.1767     122.4626          7     194.0725      -0.0069    5525.2435    5525.2367    5522.4214    5522.5338       0.1125
    3883.0    4804.4450 1440603.0000    3657.5227     121.8849     122.4161      -0.0183    5955.3007    5955.2825     122.4632          7     195.0725      -0.0096    5525.2369    5525.2273    5522.4338    5522.5436       0.1098
    3884.0    4689.2000 1440603.0000    3657.5227     121.8827     122.4150      -0.0171    5955.2861    5955.2691     122.4633          7     196.0725      -0.0117    5525.1872    5525.1755    5522.4423    5522.5496       0.1073
    3885.0    4613.3325 1440603.0000    3657.5227     121.8835     122.4142      -0.0135    5955.4163    5955.4030     122.4637          7     197.0725      -0.0115    5525.2217    5525.2105    5522.4395    5522.5441       0.1046
    3886.0    4593.5950 1440603.0000    3657.5227     121.8836     122.4145      -0.0118    5955.6189    5955.6072     122.4640          7     198.0725      -0.0099    5525.1134    5525.1036    5522.4385    5522.5402       0.1016
    3887.0    4623.6425 1440603.0000    3657.5227     121.8818     122.4139      -0.0125    5955.7769    5955.7644     122.4643          7     199.0725      -0.0103    5525.1671    5525.1568    5522.4336    5522.5317       0.0979
    3888.0    4755.7000 1440603.0000    3657.5227     121.8818     122.4154      -0.0133    5955.7561    5955.7429     122.4647          7     200.0725      -0.0133    5525.1247    5525.1116    5522.4320    5522.5268       0.0946
    3889.0    4872.9450 1440603.0000    3657.5227     121.8828     122.4150      -0.0140    5955.5950    5955.5808     122.4650          7     201.0725      -0.0166    5525.2258    5525.2091    5522.4327    5522.5247       0.0920
    3890.0    4950.8850 1440603.0000    3657.5227     121.8827     122.4140      -0.0161    5955.4284    5955.4122     122.4653          7     202.0725      -0.0183    5525.2982    5525.2798    5522.4271    5522.5166       0.0896
    3891.0    4974.4200 1440603.0000    3657.5227     121.8815     122.4128      -0.0194    5955.2749    5955.2555     122.4655          7     203.0725      -0.0188    5525.1218    5525.1028    5522.4239    5522.5108       0.0869
    3892.0    4958.8075 1440603.0000    3657.5227     121.8805     122.4123      -0.0214    5955.0729    5955.0514     122.4658          7     204.0725      -0.0187    5525.1905    5525.1719    5522.4302    5522.5141       0.0839
    3893.0    4846.3875 1440603.0000    3657.5227     121.8814     122.4137      -0.0207    5955.2036    5955.1828     122.4660          7     205.0725      -0.0168    5525.1036    5525.0866    5522.4265    5522.5085       0.0819
    3894.0    4744.2875 1440603.0000    3657.5227     121.8805     122.4119      -0.0193    5955.1804    5955.1613     122.4663          7     206.0725      -0.0131    5525.2492    5525.2359    5522.4236    5522.5042       0.0805
    3895.0    4682.0425 1440603.0000    3657.5227     121.8804     122.4120      -0.0190    5955.3768    5955.3578     122.4665          7     207.0725      -0.0101    5525.1683    5525.1582    5522.4309    5522.5094       0.0787
    3896.0    4657.8700 1440603.0000    3657.5227     121.8817     122.4116      -0.0192    5955.3603    5955.3412     122.4669          7     208.0725      -0.0100    5525.2682    5525.2581    5522.4383    5522.5144       0.0762
    3897.0    4675.3800 1440603.0000    3657.5227     121.8806     122.4112      -0.0187    5955.5972    5955.5786     122.4673          7     209.0725      -0.0123    5525.2227    5525.2106    5522.4421    5522.5159       0.0738
