~VERSION INFORMATION
VERS.           2.0   :CWLS Log ASCII Standard - VERSION 2.0
WRAP.           NO    :One Line per depth step
PROD.  Schlumberger   :LAS Producer
PROG.  DLIS to ASCII 2.2                               :LAS Program name and version
CREA.        2020/10/30 12:18                          :LAS Creation date {YYYY/MM/DD hh:mm}
SOURCE.     XPT_HRLA_TLD_MCFL_037LTP.DLIS              :DLIS File Name
FILE-ID.     XPT_HRLA_TLD_MCFL_037LTP                  :File Identification Number
#--------------------------------------------------
~WELL INFORMATION
#MNEM.UNIT      DATA             DESCRIPTION
#---- ------ --------------   -----------------------------
STRT .S        35745.0       :START TIME      
STOP .S        36558.0       :STOP TIME      
STEP .S            1.0       :STEP     
NULL .          -999.25      :NULL VALUE
COMP .        Nexus Energy                             :COMPANY
WELL .        Crux-3                                   :WELL
FLD  .        Crux                                     :FIELD
LOC  .        Easting: 656981.7mE                      :LOCATION
CNTY .        Sedco-703                                :COUNTY
STAT .        Northern Territory                       :STATE
CTRY .        Australia                                :COUNTRY
API  .                                                 :API NUMBER
UWI  .                                                 :UNIQUE WELL ID
DATE .        31-Dec-2007                              :LOG DATE {DD-MMM-YYYY}
SRVC .        Schlumberger                             :SERVICE COMPANY
LATI .DEG     12*57'32.63" S                           :LATITUDE
LONG .DEG     124*26'50.07" E                          :LONGITUDE
GDAT .                                                 :GeoDetic Datum
#-----------------------------------------------------------------------------
~PARAMETER INFORMATION
#MNEM.UNIT    VALUE                      DESCRIPTION
#---- -----   --------------------       ------------------------
RUN  .          1                        :RUN NUMBER
PDAT .        LAT                        :Permanent Datum
EPD  .M           0.000000               :Elevation of Permanent Datum above Mean Sea Level
EPD  .M           0.000000               :Elevation of tool zero above Mean Sea Level
LMF  .          DF                       :Logging Measured From (Name of Logging Elevation Reference)
APD  .M          26.400000               :Elevation of Depth Reference (LMF) above Permanent Datum
#-----------------------------------------------------------------------------
~CURVE INFORMATION
#MNEM.UNIT   API CODE                                  DESCRIPTION
#---- -----  --------                                  -----------------------
TIME .S                                                :TIME {F10.1}
TENS_SL.LBF                                            :Cable Tension {F13.4}
DEPT_SL..1IN                                           :Station logging depth {F13.4}
PDEP_XPT.M                                             :XPT Probe Depth {F13.4}
MTEP_SAP.DEGC                                          :Sapphire Gauge Manometer Temperature {F13.4}
MTEP_HYD.DEGC                                          :Hydrostatic Sapphire Gauge Manometer Temperature {F13.4}
PCO_HYD.PSI                                            :Hydrostatic Sapphire Dynamic Compensation {F13.4}
PND_HYD.PSI                                            :Hydrostatic Sapphire Pressure Without Dynamic Compensation {F13.4}
CP_HYD.PSI                                             :Hydrostatic Sapphire Pressure With Dynamic Compensation {F13.4}
MTEP_QG.DEGC                                           :CQG Manometer Temperature {F13.4}
PTNO_XPT.                                              :XPT Pretest Number {I11}
ETIM_XPT.S                                             :Elapsed Logging Time {F13.4}
PCO_SAP.PSI                                            :Sapphire Dynamic Compensation {F13.4}
PND_SAP.PSI                                            :Sapphire Pressure Without Dynamic Compensation {F13.4}
CP_SAP.PSI                                             :Sapphire Pressure With Dynamic Compensation {F13.4}
QNDP .PSI                                              :CQG Pressure Without Dynamic Compensation {F13.4}
QCP  .PSI                                              :CQG Pressure With Dynamic Compensation {F13.4}
QPCO .PSI                                              :CQG Dynamic Compensation {F13.4}
#-----------------------------------------------------------------------------
# 
#     TIME      TENS_SL      DEPT_SL      PDEP_XPT     MTEP_SAP     MTEP_HYD     PCO_HYD      PND_HYD       CP_HYD      MTEP_QG       PTNO_XPT       ETIM_XPT     PCO_SAP      PND_SAP       CP_SAP        QNDP         QCP          QPCO
#
~A  
# ...
   36270.0    4606.2280 1417595.0000    3599.0823     118.7353     119.2902       0.0007    5862.6210    5862.6215     119.0561          2     524.7480       0.1919    5504.5271    5504.7190    5500.7242    5500.9496       0.2255
   36271.0    4600.7720 1417595.0000    3599.0823     118.7396     119.2909       0.0031    5862.6715    5862.6746     119.0564          2     525.7480       0.1643    5504.6419    5504.8063    5500.9285    5501.1916       0.2631
   36272.0    4577.0560 1417595.0000    3599.0823     118.7415     119.2900       0.0060    5862.7318    5862.7380     119.0568          2     526.7480       0.1239    5504.6839    5504.8078    5501.0585    5501.3356       0.2770
   36273.0    4596.1800 1417595.0000    3599.0823     118.7422     119.2909       0.0084    5862.6865    5862.6949     119.0579          2     527.7480       0.0768    5504.7134    5504.7903    5501.1297    5501.4022       0.2725
   36274.0    4661.1000 1417595.0000    3599.0823     118.7415     119.2907       0.0097    5862.6255    5862.6353     119.0587          2     528.7480       0.0359    5504.6440    5504.6799    5501.1766    5501.4415       0.2648
   36275.0    4672.5200 1417595.0000    3599.0823     118.7420     119.2915       0.0092    5862.6884    5862.6977     119.0597          2     529.7480       0.0100    5504.5930    5504.6028    5501.2072    5501.4713       0.2642
   36276.0    4669.2520 1417595.0000    3599.0823     118.7414     119.2915       0.0078    5862.5659    5862.5736     119.0606          2     530.7480      -0.0013    5504.5478    5504.5466    5501.2223    5501.4890       0.2666
   36277.0    4693.6840 1417595.0000    3599.0823     118.7415     119.2914       0.0069    5862.5737    5862.5806     119.0616          2     531.7480      -0.0051    5504.5240    5504.5188    5501.2210    5501.4866       0.2655
   36278.0    4716.2120 1417595.0000    3599.0823     118.7415     119.2922       0.0074    5862.4629    5862.4702     119.0623          2     532.7480      -0.0068    5504.4702    5504.4635    5501.2361    5501.4962       0.2603
   36279.0    4720.2520 1417595.0000    3599.0823     118.7414     119.2907       0.0086    5862.5668    5862.5752     119.0631          2     533.7480      -0.0078    5504.3036    5504.2958    5501.2526    5501.5056       0.2529
   36280.0    4667.6400 1417595.0000    3599.0823     118.7409     119.2918       0.0106    5862.5474    5862.5579     119.0639          2     534.7480      -0.0081    5504.3861    5504.3778    5501.2646    5501.5095       0.2449
   36281.0    4644.0160 1417595.0000    3599.0823     118.7404     119.2924       0.0130    5862.6055    5862.6185     119.0650          2     535.7480      -0.0078    5504.3930    5504.3852    5501.2769    5501.5131       0.2364
   36282.0    4611.3320 1417595.0000    3599.0823     118.7410     119.2922       0.0141    5862.6411    5862.6553     119.0654          2     536.7480      -0.0068    5504.3875    5504.3808    5501.2866    5501.5147       0.2281
   36283.0    4583.0480 1417595.0000    3599.0823     118.7407     119.2927       0.0129    5862.6470    5862.6599     119.0665          2     537.7480      -0.0054    5504.3556    5504.3503    5501.3008    5501.5215       0.2207
   36284.0    4580.7400 1417595.0000    3599.0823     118.7402     119.2934       0.0102    5862.6781    5862.6885     119.0672          2     538.7480      -0.0038    5504.3744    5504.3704    5501.3177    5501.5314       0.2138
   36285.0    4601.4480 1417595.0000    3599.0823     118.7400     119.2943       0.0079    5862.6824    5862.6901     119.0677          2     539.7480      -0.0017    5504.4807    5504.4789    5501.3294    5501.5366       0.2071
   36286.0    4643.1560 1417595.0000    3599.0823     118.7396     119.2929       0.0064    5862.6792    5862.6856     119.0686          2     540.7480       0.0011    5504.3901    5504.3910    5501.3293    5501.5300       0.2008
   36287.0    4671.4560 1417595.0000    3599.0823     118.7416     119.2938       0.0058    5862.6335    5862.6393     119.0694          2     541.7480       0.0047    5504.4740    5504.4787    5501.3382    5501.5334       0.1951
   36288.0    4669.5200 1417595.0000    3599.0823     118.7400     119.2938       0.0071    5862.6485    5862.6555     119.0699          2     542.7480       0.0081    5504.3188    5504.3267    5501.3457    5501.5354       0.1897
   36289.0    4623.6160 1417595.0000    3599.0823     118.7398     119.2933       0.0095    5862.5932    5862.6027     119.0703          2     543.7480       0.0105    5504.3029    5504.3134    5501.3579    5501.5425       0.1846
   36290.0    4588.0560 1417595.0000    3599.0823     118.7413     119.2931       0.0112    5862.5908    5862.6019     119.0713          2     544.7480       0.0116    5504.4998    5504.5115    5501.3636    5501.5444       0.1808
   36291.0    4601.1960 1417595.0000    3599.0823     118.7409     119.2943       0.0108    5862.6038    5862.6145     119.0714          2     545.7480       0.0102    5504.4302    5504.4403    5501.3730    5501.5511       0.1779
   36292.0    4677.5640 1417595.0000    3599.0823     118.7413     119.2944       0.0090    5862.6050    5862.6140     119.0721          2     546.7480       0.0057    5504.3442    5504.3498    5501.3783    5501.5534       0.1752
   36293.0    4681.5520 1417595.0000    3599.0823     118.7408     119.2951       0.0067    5862.6016    5862.6085     119.0727          2     547.7480       0.0005    5504.4950    5504.4957    5501.3798    5501.5527       0.1727
   36294.0    4704.1720 1417595.0000    3599.0823     118.7409     119.2951       0.0044    5862.5679    5862.5723     119.0731          2     548.7480      -0.0022    5504.3646    5504.3625    5501.3869    5501.5577       0.1707
   36295.0    4730.4560 1417595.0000    3599.0823     118.7407     119.2937       0.0031    5862.4785    5862.4814     119.0738          2     549.7480      -0.0022    5504.3845    5504.3823    5501.3904    5501.5594       0.1689
   36296.0    4730.7640 1417595.0000    3599.0823     118.7401     119.2952       0.0041    5862.5331    5862.5373     119.0744          2     550.7480      -0.0013    5504.4309    5504.4299    5501.3965    5501.5636       0.1669
   36297.0    4663.1760 1417595.0000    3599.0823     118.7406     119.2940       0.0067    5862.5414    5862.5479     119.0751          2     551.7480       0.0009    5504.3536    5504.3544    5501.4013    5501.5662       0.1651
   36298.0    4648.4800 1417595.0000    3599.0823     118.7430     119.2950       0.0089    5862.6111    5862.6201     119.0754          2     552.7480       0.0057    5504.4485    5504.4541    5501.4014    5501.5652       0.1638
   36299.0    4636.7880 1417595.0000    3599.0823     118.7428     119.2945       0.0095    5862.6127    5862.6220     119.0761          2     553.7480       0.0104    5504.4464    5504.4570    5501.4094    5501.5720       0.1626
   36300.0    4605.8200 1417595.0000    3599.0823     118.7418     119.2974       0.0088    5862.8106    5862.8193     119.0768          2     554.7480       0.0120    5504.4620    5504.4741    5501.4101    5501.5716       0.1617
   36301.0    4574.5600 1417595.0000    3599.0823     118.7409     119.2960       0.0077    5862.7397    5862.7473     119.0771          2     555.7480       0.0111    5504.3856    5504.3966    5501.4106    5501.5710       0.1605
   36302.0    4558.0240 1417595.0000    3599.0823     118.7438     119.2945       0.0063    5862.6585    5862.6650     119.0775          2     556.7480       0.0103    5504.5638    5504.5740    5501.4159    5501.5746       0.1590
   36303.0    4644.0120 1417595.0000    3599.0823     118.7410     119.2953       0.0052    5862.6145    5862.6198     119.0780          2     557.7480       0.0099    5504.4368    5504.4466    5501.4194    5501.5770       0.1575
   36304.0    4683.7240 1417595.0000    3599.0823     118.7413     119.2944       0.0051    5862.6646    5862.6697     119.0788          2     558.7480       0.0085    5504.4495    5504.4581    5501.4209    5501.5774       0.1565
