~VERSION INFORMATION
VERS.           2.0   :CWLS Log ASCII Standard - VERSION 2.0
WRAP.           NO    :One Line per depth step
PROD.  Schlumberger   :LAS Producer
PROG.  DLIS to ASCII 2.2                               :LAS Program name and version
CREA.        2020/10/30 12:18                          :LAS Creation date {YYYY/MM/DD hh:mm}
SOURCE.     XPT_HRLA_TLD_MCFL_064LTP.DLIS              :DLIS File Name
FILE-ID.     XPT_HRLA_TLD_MCFL_064LTP                  :File Identification Number
#--------------------------------------------------
~WELL INFORMATION
#MNEM.UNIT      DATA             DESCRIPTION
#---- ------ --------------   -----------------------------
STRT .S         1332.0       :START TIME      
STOP .S         1827.0       :STOP TIME      
STEP .S            1.0       :STEP     
NULL .          -999.25      :NULL VALUE
COMP .        Nexus Energy                             :COMPANY
WELL .        Crux-3                                   :WELL
FLD  .        Crux                                     :FIELD
LOC  .        Easting: 656981.7mE                      :LOCATION
CNTY .        Sedco-703                                :COUNTY
STAT .        Northern Territory                       :STATE
CTRY .        Australia                                :COUNTRY
API  .                                                 :API NUMBER
UWI  .                                                 :UNIQUE WELL ID
DATE .        31-Dec-2007                              :LOG DATE {DD-MMM-YYYY}
SRVC .        Schlumberger                             :SERVICE COMPANY
LATI .DEG     12*57'32.63" S                           :LATITUDE
LONG .DEG     124*26'50.07" E                          :LONGITUDE
GDAT .                                                 :GeoDetic Datum
#-----------------------------------------------------------------------------
~PARAMETER INFORMATION
#MNEM.UNIT    VALUE                      DESCRIPTION
#---- -----   --------------------       ------------------------
RUN  .          1                        :RUN NUMBER
PDAT .        LAT                        :Permanent Datum
EPD  .M           0.000000               :Elevation of Permanent Datum above Mean Sea Level
EPD  .M           0.000000               :Elevation of tool zero above Mean Sea Level
LMF  .          DF                       :Logging Measured From (Name of Logging Elevation Reference)
APD  .M          26.400000               :Elevation of Depth Reference (LMF) above Permanent Datum
#-----------------------------------------------------------------------------
~CURVE INFORMATION
#MNEM.UNIT   API CODE                                  DESCRIPTION
#---- -----  --------                                  -----------------------
TIME .S                                                :TIME {F10.1}
TENS_SL.LBF                                            :Cable Tension {F13.4}
DEPT_SL..1IN                                           :Station logging depth {F13.4}
PDEP_XPT.M                                             :XPT Probe Depth {F13.4}
MTEP_SAP.DEGC                                          :Sapphire Gauge Manometer Temperature {F13.4}
MTEP_HYD.DEGC                                          :Hydrostatic Sapphire Gauge Manometer Temperature {F13.4}
PCO_HYD.PSI                                            :Hydrostatic Sapphire Dynamic Compensation {F13.4}
PND_HYD.PSI                                            :Hydrostatic Sapphire Pressure Without Dynamic Compensation {F13.4}
CP_HYD.PSI                                             :Hydrostatic Sapphire Pressure With Dynamic Compensation {F13.4}
MTEP_QG.DEGC                                           :CQG Manometer Temperature {F13.4}
PTNO_XPT.                                              :XPT Pretest Number {I11}
ETIM_XPT.S                                             :Elapsed Logging Time {F13.4}
PCO_SAP.PSI                                            :Sapphire Dynamic Compensation {F13.4}
PND_SAP.PSI                                            :Sapphire Pressure Without Dynamic Compensation {F13.4}
CP_SAP.PSI                                             :Sapphire Pressure With Dynamic Compensation {F13.4}
QNDP .PSI                                              :CQG Pressure Without Dynamic Compensation {F13.4}
QCP  .PSI                                              :CQG Pressure With Dynamic Compensation {F13.4}
QPCO .PSI                                              :CQG Dynamic Compensation {F13.4}
#-----------------------------------------------------------------------------
# 
#     TIME      TENS_SL      DEPT_SL      PDEP_XPT     MTEP_SAP     MTEP_HYD     PCO_HYD      PND_HYD       CP_HYD      MTEP_QG       PTNO_XPT       ETIM_XPT     PCO_SAP      PND_SAP       CP_SAP        QNDP         QCP          QPCO
#
~A  
# ...
    1507.0    4732.2190 1496483.0000    3799.4575     128.5014     128.9085      -0.1157    6181.9521    6181.8363     129.4347         28     175.1646      -0.0965    5574.3184    5574.2217    5572.6985    5572.4296      -0.2687
    1508.0    4780.8109 1496483.0000    3799.4575     128.4990     128.9060      -0.1159    6181.8975    6181.7818     129.4340         28     176.1646      -0.0967    5574.3001    5574.2034    5572.6958    5572.4236      -0.2724
    1509.0    4786.7075 1496483.0000    3799.4575     128.4985     128.9039      -0.1152    6181.8953    6181.7800     129.4329         28     177.1646      -0.0982    5574.4326    5574.3344    5572.6867    5572.4108      -0.2759
    1510.0    4780.7006 1496483.0000    3799.4575     128.4977     128.9028      -0.1137    6181.9445    6181.8307     129.4322         28     178.1646      -0.1001    5574.2699    5574.1698    5572.6763    5572.3967      -0.2794
    1511.0    4835.3292 1496483.0000    3799.4575     128.4947     128.9008      -0.1128    6181.8901    6181.7773     129.4312         28     179.1646      -0.1025    5574.2639    5574.1616    5572.6670    5572.3841      -0.2831
    1512.0    4839.9632 1496483.0000    3799.4575     128.4928     128.8978      -0.1131    6181.8762    6181.7631     129.4303         28     180.1646      -0.1054    5574.2658    5574.1602    5572.6581    5572.3721      -0.2859
    1513.0    4858.1279 1496483.0000    3799.4575     128.4895     128.8966      -0.1135    6181.8119    6181.6986     129.4293         28     181.1646      -0.1085    5574.1567    5574.0484    5572.6441    5572.3565      -0.2878
    1514.0    4871.6952 1496483.0000    3799.4575     128.4892     128.8943      -0.1132    6181.7366    6181.6234     129.4285         28     182.1646      -0.1101    5574.2843    5574.1744    5572.6391    5572.3494      -0.2897
    1515.0    4851.2749 1496483.0000    3799.4575     128.4863     128.8912      -0.1128    6181.8543    6181.7415     129.4275         28     183.1646      -0.1098    5574.2327    5574.1228    5572.6338    5572.3418      -0.2920
    1516.0    4798.7688 1496483.0000    3799.4575     128.4839     128.8896      -0.1125    6181.8177    6181.7053     129.4269         28     184.1646      -0.1091    5574.1484    5574.0394    5572.6312    5572.3364      -0.2947
    1517.0    4753.8721 1496483.0000    3799.4575     128.4824     128.8887      -0.1121    6181.9424    6181.8301     129.4257         28     185.1646      -0.1085    5574.2445    5574.1361    5572.6223    5572.3253      -0.2973
    1518.0    4743.2680 1496483.0000    3799.4575     128.4806     128.8864      -0.1123    6181.9363    6181.8240     129.4249         28     186.1646      -0.1077    5574.2044    5574.0968    5572.6163    5572.3160      -0.3003
    1519.0    4774.7741 1496483.0000    3799.4575     128.4772     128.8841      -0.1131    6182.0080    6181.8948     129.4241         28     187.1646      -0.1057    5574.1725    5574.0669    5572.6132    5572.3096      -0.3036
    1520.0    4795.3782 1496483.0000    3799.4575     128.4776     128.8818      -0.1127    6181.9907    6181.8780     129.4229         28     188.1646      -0.1035    5574.2557    5574.1523    5572.6047    5572.2985      -0.3062
    1521.0    4790.8285 1496483.0000    3799.4575     128.4748     128.8790      -0.1106    6181.9011    6181.7905     129.4221         28     189.1646      -0.1026    5574.2089    5574.1063    5572.6000    5572.2917      -0.3083
    1522.0    4859.8476 1496483.0000    3799.4575     128.4712     128.8781      -0.1088    6181.8341    6181.7252     129.4212         28     190.1646      -0.1037    5574.1461    5574.0421    5572.5962    5572.2862      -0.3101
    1523.0    4853.1769 1496483.0000    3799.4575     128.4728     128.8742      -0.1090    6181.7961    6181.6871     129.4203         28     191.1646      -0.1051    5574.2074    5574.1023    5572.5936    5572.2814      -0.3123
    1524.0    4846.3660 1496483.0000    3799.4575     128.4692     128.8746      -0.1107    6181.8381    6181.7274     129.4192         28     192.1646      -0.1054    5574.1248    5574.0193    5572.5864    5572.2719      -0.3144
    1525.0    4834.3170 1496483.0000    3799.4575     128.4673     128.8728      -0.1127    6181.7744    6181.6617     129.4177         28     193.1646      -0.1047    5574.1421    5574.0376    5572.5882    5572.2715      -0.3167
    1526.0    4830.2994 1496483.0000    3799.4575     128.4656     128.8696      -0.1139    6181.8610    6181.7472     129.4173         28     194.1646      -0.1044    5574.1675    5574.0632    5572.5907    5572.2698      -0.3211
    1527.0    4783.4081 1496483.0000    3799.4575     128.4628     128.8672      -0.1132    6181.8363    6181.7233     129.4161         28     195.1646      -0.1181    5574.1180    5573.9996    5572.5882    5572.2355      -0.3527
    1528.0    4818.8599 1496483.0000    3799.4575     128.4615     128.8659      -0.1099    6181.9358    6181.8258     129.4153         28     196.1646      -0.1683    5574.1514    5573.9829    5572.5898    5572.1425      -0.4474
    1529.0    4801.7442 1496483.0000    3799.4575     128.4598     128.8608      -0.1061    6181.9157    6181.8094     129.4139         28     197.1646      -0.2629    5574.0716    5573.8086    5572.5880    5571.9739      -0.6141
    1530.0    4765.0612 1496483.0000    3799.4575     128.4589     128.8623      -0.1042    6182.0632    6181.9590     129.4131         28     198.1646      -0.3734    5574.1552    5573.7816    5572.5807    5571.7730      -0.8077
    1531.0    4746.0911 1496483.0000    3799.4575     128.4572     128.8605      -0.1047    6181.8862    6181.7813     129.4117         28     199.1646      -0.4569    5574.1898    5573.7330    5572.5736    5571.6029      -0.9707
    1532.0    4786.2190 1496483.0000    3799.4575     128.4424     128.8588      -0.1075    6182.0020    6181.8943     129.4076         28     200.1646      -0.4815    5493.9332    5493.4516    5494.2761    5493.2098      -1.0662
    1533.0    4831.8476 1496483.0000    3799.4575     128.4137     128.8566      -0.1120    6181.8671    6181.7550     129.3992         29     201.1646      -0.4252    5350.1554    5349.7301    5351.4242    5350.3613      -1.0629
    1534.0    4833.7374 1496483.0000    3799.4575     128.4079     128.8537      -0.1172    6181.8402    6181.7232     129.3962         29     202.1646      -0.2763    5333.6907    5333.4141    5334.6109    5333.6769      -0.9340
    1535.0    4870.6952 1496483.0000    3799.4575     128.4034     128.8514      -0.1204    6181.6689    6181.5487     129.3936         29     203.1646      -0.0574    5334.3554    5334.2981    5334.9373    5334.2417      -0.6958
    1536.0    4855.2136 1496483.0000    3799.4575     128.4022     128.8493      -0.1199    6181.7732    6181.6533     129.3910         29     204.1646       0.1596    5337.4538    5337.6133    5337.6482    5337.2138      -0.4345
    1537.0    4822.9946 1496483.0000    3799.4575     128.4121     128.8473      -0.1168    6181.8672    6181.7503     129.3901         29     205.1646       0.3072    5385.1664    5385.4736    5383.7752    5383.5487      -0.2265
    1538.0    4757.8231 1496483.0000    3799.4575     128.4361     128.8453      -0.1134    6181.8220    6181.7084     129.3939         29     206.1646       0.3580    5525.1931    5525.5509    5522.4372    5522.3409      -0.0964
    1539.0    4763.1524 1496483.0000    3799.4575     128.4450     128.8426      -0.1112    6181.9105    6181.7994     129.3935         29     207.1646       0.3216    5550.3348    5550.6565    5547.3097    5547.2740      -0.0357
    1540.0    4767.8476 1496483.0000    3799.4575     128.4479     128.8416      -0.1100    6181.9802    6181.8702     129.3924         29     208.1646       0.2208    5558.7587    5558.9797    5555.9048    5555.8693      -0.0353
    1541.0    4763.1524 1496483.0000    3799.4575     128.4475     128.8389      -0.1091    6181.9957    6181.8865     129.3920         29     209.1646       0.0914    5562.1018    5562.1932    5559.3477    5559.2763      -0.0712
