~VERSION INFORMATION
VERS.           2.0   :CWLS Log ASCII Standard - VERSION 2.0
WRAP.           NO    :One Line per depth step
PROD.  Schlumberger   :LAS Producer
PROG.  DLIS to ASCII 2.2                               :LAS Program name and version
CREA.        2020/10/30 12:18                          :LAS Creation date {YYYY/MM/DD hh:mm}
SOURCE.     XPT_HRLA_TLD_MCFL_068LTP.DLIS              :DLIS File Name
FILE-ID.     XPT_HRLA_TLD_MCFL_068LTP                  :File Identification Number
#--------------------------------------------------
~WELL INFORMATION
#MNEM.UNIT      DATA             DESCRIPTION
#---- ------ --------------   -----------------------------
STRT .S           82.0       :START TIME      
STOP .S          488.0       :STOP TIME      
STEP .S            1.0       :STEP     
NULL .          -999.25      :NULL VALUE
COMP .        Nexus Energy                             :COMPANY
WELL .        Crux-3                                   :WELL
FLD  .        Crux                                     :FIELD
LOC  .        Easting: 656981.7mE                      :LOCATION
CNTY .        Sedco-703                                :COUNTY
STAT .        Northern Territory                       :STATE
CTRY .        Australia                                :COUNTRY
API  .                                                 :API NUMBER
UWI  .                                                 :UNIQUE WELL ID
DATE .        31-Dec-2007                              :LOG DATE {DD-MMM-YYYY}
SRVC .        Schlumberger                             :SERVICE COMPANY
LATI .DEG     12*57'32.63" S                           :LATITUDE
LONG .DEG     124*26'50.07" E                          :LONGITUDE
GDAT .                                                 :GeoDetic Datum
#-----------------------------------------------------------------------------
~PARAMETER INFORMATION
#MNEM.UNIT    VALUE                      DESCRIPTION
#---- -----   --------------------       ------------------------
RUN  .          1                        :RUN NUMBER
PDAT .        LAT                        :Permanent Datum
EPD  .M           0.000000               :Elevation of Permanent Datum above Mean Sea Level
EPD  .M           0.000000               :Elevation of tool zero above Mean Sea Level
LMF  .          DF                       :Logging Measured From (Name of Logging Elevation Reference)
APD  .M          26.400000               :Elevation of Depth Reference (LMF) above Permanent Datum
#-----------------------------------------------------------------------------
~CURVE INFORMATION
#MNEM.UNIT   API CODE                                  DESCRIPTION
#---- -----  --------                                  -----------------------
TIME .S                                                :TIME {F10.1}
TENS_SL.LBF                                            :Cable Tension {F13.4}
DEPT_SL..1IN                                           :Station logging depth {F13.4}
PDEP_XPT.M                                             :XPT Probe Depth {F13.4}
MTEP_SAP.DEGC                                          :Sapphire Gauge Manometer Temperature {F13.4}
MTEP_HYD.DEGC                                          :Hydrostatic Sapphire Gauge Manometer Temperature {F13.4}
PCO_HYD.PSI                                            :Hydrostatic Sapphire Dynamic Compensation {F13.4}
PND_HYD.PSI                                            :Hydrostatic Sapphire Pressure Without Dynamic Compensation {F13.4}
CP_HYD.PSI                                             :Hydrostatic Sapphire Pressure With Dynamic Compensation {F13.4}
MTEP_QG.DEGC                                           :CQG Manometer Temperature {F13.4}
PTNO_XPT.                                              :XPT Pretest Number {I11}
ETIM_XPT.S                                             :Elapsed Logging Time {F13.4}
PCO_SAP.PSI                                            :Sapphire Dynamic Compensation {F13.4}
PND_SAP.PSI                                            :Sapphire Pressure Without Dynamic Compensation {F13.4}
CP_SAP.PSI                                             :Sapphire Pressure With Dynamic Compensation {F13.4}
QNDP .PSI                                              :CQG Pressure Without Dynamic Compensation {F13.4}
QCP  .PSI                                              :CQG Pressure With Dynamic Compensation {F13.4}
QPCO .PSI                                              :CQG Dynamic Compensation {F13.4}
#-----------------------------------------------------------------------------
# 
#     TIME      TENS_SL      DEPT_SL      PDEP_XPT     MTEP_SAP     MTEP_HYD     PCO_HYD      PND_HYD       CP_HYD      MTEP_QG       PTNO_XPT       ETIM_XPT     PCO_SAP      PND_SAP       CP_SAP        QNDP         QCP          QPCO
#
~A  
# ...
     467.0    5051.5651 1566781.0000    3978.0146     133.0710     133.6925       0.0376    6464.3945    6464.4320     133.5312         33     385.1413       0.0177    6461.4320    6461.4497    6459.2112    6459.2920       0.0808
     468.0    5048.2185 1566781.0000    3978.0146     133.0739     133.6926       0.0395    6464.5147    6464.5543     133.5318         33     386.1413       0.0178    6461.6676    6461.6853    6459.2546    6459.3382       0.0837
     469.0    4996.6865 1566781.0000    3978.0146     133.0730     133.6946       0.0405    6464.5589    6464.5994     133.5321         33     387.1413       0.0192    6461.6319    6461.6512    6459.2949    6459.3815       0.0866
     470.0    4938.3797 1566781.0000    3978.0146     133.0732     133.6951       0.0406    6464.6535    6464.6940     133.5325         33     388.1413       0.0200    6461.6585    6461.6785    6459.3110    6459.4007       0.0897
     471.0    4958.6423 1566781.0000    3978.0146     133.0717     133.6965       0.0391    6464.6512    6464.6902     133.5327         33     389.1413       0.0201    6461.6419    6461.6620    6459.3730    6459.4654       0.0926
     472.0    4926.0751 1566781.0000    3978.0146     133.0730     133.6953       0.0374    6464.6562    6464.6936     133.5327         33     390.1413       0.0222    6461.7510    6461.7732    6459.4040    6459.4990       0.0951
     473.0    4965.8256 1566781.0000    3978.0146     133.0751     133.6972       0.0378    6464.7006    6464.7385     133.5332         33     391.1413       0.0266    6461.6420    6461.6686    6459.3662    6459.4637       0.0976
     474.0    4988.6512 1566781.0000    3978.0146     133.0734     133.6978       0.0411    6464.6392    6464.6804     133.5336         33     392.1413       0.0301    6461.6680    6461.6979    6459.3482    6459.4484       0.1004
     475.0    5030.3466 1566781.0000    3978.0146     133.0750     133.6985       0.0446    6464.6750    6464.7197     133.5338         33     393.1413       0.0309    6461.5888    6461.6195    6459.3136    6459.4169       0.1032
     476.0    5069.7726 1566781.0000    3978.0146     133.0761     133.6981       0.0461    6464.5645    6464.6104     133.5339         33     394.1413       0.0310    6461.5696    6461.6004    6459.2746    6459.3803       0.1057
     477.0    5034.0441 1566781.0000    3978.0146     133.0763     133.7018       0.0457    6464.6571    6464.7030     133.5344         33     395.1413       0.0316    6461.4174    6461.4491    6459.1071    6459.2156       0.1085
     478.0    5011.9779 1566781.0000    3978.0146     133.0772     133.7012       0.0443    6464.4326    6464.4768     133.5347         33     396.1413       0.0318    6461.4294    6461.4611    6459.1130    6459.2243       0.1115
     479.0    5027.3907 1566781.0000    3978.0146     133.0775     133.7017       0.0424    6464.5354    6464.5780     133.5352         33     397.1413       0.0304    6461.6569    6461.6872    6459.2300    6459.3450       0.1149
     480.0    5039.5231 1566781.0000    3978.0146     133.0758     133.7025       0.0405    6464.5551    6464.5955     133.5353         33     398.1413       0.0281    6461.5513    6461.5795    6459.2569    6459.3752       0.1182
     481.0    4977.5452 1566781.0000    3978.0146     133.0802     133.7026       0.0399    6464.6133    6464.6533     133.5358         33     399.1413       0.0272    6461.6128    6461.6402    6459.2307    6459.3516       0.1209
     482.0    4919.5100 1566781.0000    3978.0146     133.0793     133.7041       0.0409    6464.6865    6464.7274     133.5360         33     400.1413       0.0280    6461.5822    6461.6101    6459.2425    6459.3658       0.1235
     483.0    4956.2495 1566781.0000    3978.0146     133.0812     133.7042       0.0423    6464.6864    6464.7329     133.5368         33     401.1413       0.0284    6461.7704    6461.8193    6459.3178    6459.4526       0.1264
     484.0    4969.5011 1566781.0000    3978.0146     133.0794     133.7056       0.0423    6464.7681    6464.7329     133.5369         33     402.1413       0.0284    6461.7544    6461.8193    6459.3380    6459.4526       0.1264
     485.0    4930.4238 1566781.0000    3978.0146     133.0801     133.7063       0.0423    6464.8323    6464.7329     133.5371         33     403.1413       0.0284    6461.7433    6461.8193    6459.3120    6459.4526       0.1264
     486.0    4944.1612 1566781.0000    3978.0146     133.0812     133.7065       0.0423    6464.6009    6464.7329     133.5378         33     404.1413       0.0284    6461.6052    6461.8193    6459.2584    6459.4526       0.1264
     487.0    5021.4658 1566781.0000    3978.0146     133.0816     133.7085       0.0423    6464.5563    6464.7329     133.5381         33     405.1413       0.0284    6461.5347    6461.8193    6459.2171    6459.4526       0.1264
     488.0    5072.0772 1566781.0000    3978.0146     133.0828     133.7082       0.0423    6464.6667    6464.7329     133.5388         33     406.1413       0.0284    6461.7063    6461.8193    6459.2355    6459.4526       0.1264
