~VERSION INFORMATION
VERS.           2.0   :CWLS Log ASCII Standard - VERSION 2.0
WRAP.           NO    :One Line per depth step
PROD.  Schlumberger   :LAS Producer
PROG.  DLIS to ASCII 2.2                               :LAS Program name and version
CREA.        2020/10/30 12:18                          :LAS Creation date {YYYY/MM/DD hh:mm}
SOURCE.     XPT_HRLA_TLD_MCFL_037LTP.DLIS              :DLIS File Name
FILE-ID.     XPT_HRLA_TLD_MCFL_037LTP                  :File Identification Number
#--------------------------------------------------
~WELL INFORMATION
#MNEM.UNIT      DATA             DESCRIPTION
#---- ------ --------------   -----------------------------
STRT .S        35745.0       :START TIME      
STOP .S        36558.0       :STOP TIME      
STEP .S            1.0       :STEP     
NULL .          -999.25      :NULL VALUE
COMP .        Nexus Energy                             :COMPANY
WELL .        Crux-3                                   :WELL
FLD  .        Crux                                     :FIELD
LOC  .        Easting: 656981.7mE                      :LOCATION
CNTY .        Sedco-703                                :COUNTY
STAT .        Northern Territory                       :STATE
CTRY .        Australia                                :COUNTRY
API  .                                                 :API NUMBER
UWI  .                                                 :UNIQUE WELL ID
DATE .        31-Dec-2007                              :LOG DATE {DD-MMM-YYYY}
SRVC .        Schlumberger                             :SERVICE COMPANY
LATI .DEG     12*57'32.63" S                           :LATITUDE
LONG .DEG     124*26'50.07" E                          :LONGITUDE
GDAT .                                                 :GeoDetic Datum
#-----------------------------------------------------------------------------
~PARAMETER INFORMATION
#MNEM.UNIT    VALUE                      DESCRIPTION
#---- -----   --------------------       ------------------------
RUN  .          1                        :RUN NUMBER
PDAT .        LAT                        :Permanent Datum
EPD  .M           0.000000               :Elevation of Permanent Datum above Mean Sea Level
EPD  .M           0.000000               :Elevation of tool zero above Mean Sea Level
LMF  .          DF                       :Logging Measured From (Name of Logging Elevation Reference)
APD  .M          26.400000               :Elevation of Depth Reference (LMF) above Permanent Datum
#-----------------------------------------------------------------------------
~CURVE INFORMATION
#MNEM.UNIT   API CODE                                  DESCRIPTION
#---- -----  --------                                  -----------------------
TIME .S                                                :TIME {F10.1}
TENS_SL.LBF                                            :Cable Tension {F13.4}
DEPT_SL..1IN                                           :Station logging depth {F13.4}
PDEP_XPT.M                                             :XPT Probe Depth {F13.4}
MTEP_SAP.DEGC                                          :Sapphire Gauge Manometer Temperature {F13.4}
MTEP_HYD.DEGC                                          :Hydrostatic Sapphire Gauge Manometer Temperature {F13.4}
PCO_HYD.PSI                                            :Hydrostatic Sapphire Dynamic Compensation {F13.4}
PND_HYD.PSI                                            :Hydrostatic Sapphire Pressure Without Dynamic Compensation {F13.4}
CP_HYD.PSI                                             :Hydrostatic Sapphire Pressure With Dynamic Compensation {F13.4}
MTEP_QG.DEGC                                           :CQG Manometer Temperature {F13.4}
PTNO_XPT.                                              :XPT Pretest Number {I11}
ETIM_XPT.S                                             :Elapsed Logging Time {F13.4}
PCO_SAP.PSI                                            :Sapphire Dynamic Compensation {F13.4}
PND_SAP.PSI                                            :Sapphire Pressure Without Dynamic Compensation {F13.4}
CP_SAP.PSI                                             :Sapphire Pressure With Dynamic Compensation {F13.4}
QNDP .PSI                                              :CQG Pressure Without Dynamic Compensation {F13.4}
QCP  .PSI                                              :CQG Pressure With Dynamic Compensation {F13.4}
QPCO .PSI                                              :CQG Dynamic Compensation {F13.4}
#-----------------------------------------------------------------------------
# 
#     TIME      TENS_SL      DEPT_SL      PDEP_XPT     MTEP_SAP     MTEP_HYD     PCO_HYD      PND_HYD       CP_HYD      MTEP_QG       PTNO_XPT       ETIM_XPT     PCO_SAP      PND_SAP       CP_SAP        QNDP         QCP          QPCO
#
~A  
# ...
   36480.0    4713.7720 1417595.0000    3599.0823     118.8307     119.3315       0.0107    5862.5247    5862.5353     119.1741          2     734.7480       0.5165    5863.9631    5864.4796    5856.6637    5857.9242       1.2604
   36481.0    4658.6400 1417595.0000    3599.0823     118.8330     119.3314       0.0097    5862.6227    5862.6325     119.1767          2     735.7480       0.3915    5863.4797    5863.8711    5856.8557    5858.1029       1.2470
   36482.0    4646.9840 1417595.0000    3599.0823     118.8325     119.3330       0.0099    5862.7090    5862.7188     119.1795          2     736.7480       0.2092    5863.1940    5863.4033    5857.1603    5858.3080       1.1477
   36483.0    4601.8760 1417595.0000    3599.0823     118.8319     119.3308       0.0111    5862.6260    5862.6373     119.1828          2     737.7480       0.0243    5862.6895    5862.7136    5857.2123    5858.2284       1.0159
   36484.0    4592.7320 1417595.0000    3599.0823     118.8289     119.3323       0.0139    5862.7607    5862.7746     119.1858          2     738.7480      -0.1061    5862.5462    5862.4402    5857.5156    5858.4254       0.9098
   36485.0    4574.8040 1417595.0000    3599.0823     118.8234     119.3320       0.0179    5862.6979    5862.7158     119.1891          2     739.7480      -0.1697    5862.1360    5861.9663    5857.5581    5858.3967       0.8387
   36486.0    4647.2880 1417595.0000    3599.0823     118.8180     119.3323       0.0208    5862.7512    5862.7718     119.1916          2     740.7480      -0.1884    5861.8643    5861.6756    5857.6812    5858.4578       0.7767
   36487.0    4718.1320 1417595.0000    3599.0823     118.8156     119.3333       0.0205    5862.7114    5862.7317     119.1943          2     741.7480      -0.1863    5861.6670    5861.4807    5857.7550    5858.4614       0.7064
   36488.0    4733.7480 1417595.0000    3599.0823     118.8131     119.3332       0.0177    5862.6267    5862.6444     119.1964          2     742.7480      -0.1745    5861.5041    5861.3295    5857.7742    5858.4028       0.6288
   36489.0    4723.5280 1417595.0000    3599.0823     118.8103     119.3341       0.0149    5862.5682    5862.5832     119.1984          2     743.7480      -0.1584    5861.3381    5861.1797    5857.7910    5858.3420       0.5508
   36490.0    4705.0400 1417595.0000    3599.0823     118.8063     119.3338       0.0134    5862.6283    5862.6418     119.2001          2     744.7480      -0.1415    5861.2532    5861.1115    5857.8933    5858.3700       0.4769
   36491.0    4646.1440 1417595.0000    3599.0823     118.8036     119.3342       0.0131    5862.6274    5862.6405     119.2014          2     745.7480      -0.1255    5861.2320    5861.1066    5857.9981    5858.4068       0.4088
   36492.0    4590.6000 1417595.0000    3599.0823     118.8021     119.3334       0.0134    5862.6273    5862.6405     119.2025          2     746.7480      -0.1102    5861.1992    5861.0891    5858.0251    5858.3725       0.3473
   36493.0    4570.5200 1417595.0000    3599.0823     118.7994     119.3345       0.0141    5862.6344    5862.6486     119.2035          2     747.7480      -0.0959    5861.0690    5860.9730    5858.0953    5858.3876       0.2923
   36494.0    4603.1560 1417595.0000    3599.0823     118.7979     119.3346       0.0148    5862.7148    5862.7294     119.2046          2     748.7480      -0.0821    5861.1093    5861.0271    5858.2315    5858.4756       0.2442
   36495.0    4671.8480 1417595.0000    3599.0823     118.7981     119.3355       0.0148    5862.6922    5862.7069     119.2053          2     749.7480      -0.0698    5861.1089    5861.0392    5858.2087    5858.4115       0.2029
   36496.0    4700.7240 1417595.0000    3599.0823     118.7971     119.3361       0.0142    5862.6812    5862.6953     119.2057          2     750.7480      -0.0607    5861.0319    5860.9713    5858.1086    5858.2766       0.1678
   36497.0    4698.0160 1417595.0000    3599.0823     118.7931     119.3352       0.0132    5862.6617    5862.6748     119.2061          2     751.7480      -0.0550    5860.8770    5860.8221    5858.1179    5858.2561       0.1383
   36498.0    4696.0000 1417595.0000    3599.0823     118.7944     119.3361       0.0124    5862.5357    5862.5484     119.2066          2     752.7480      -0.0501    5860.8516    5860.8017    5858.0670    5858.1807       0.1137
   36499.0    4677.3000 1417595.0000    3599.0823     118.7947     119.3347       0.0127    5862.5335    5862.5462     119.2069          2     753.7480      -0.0436    5860.9504    5860.9070    5858.1816    5858.2744       0.0928
   36500.0    4610.4120 1417595.0000    3599.0823     118.7931     119.3368       0.0138    5862.7382    5862.7519     119.2070          2     754.7480      -0.0373    5860.9895    5860.9521    5858.1985    5858.2732       0.0747
   36501.0    4587.7560 1417595.0000    3599.0823     118.7914     119.3373       0.0149    5862.6393    5862.6540     119.2073          2     755.7480      -0.0332    5861.0220    5860.9888    5858.2255    5858.2849       0.0593
   36502.0    4575.0320 1417595.0000    3599.0823     118.7916     119.3363       0.0144    5862.6831    5862.6975     119.2075          2     756.7480      -0.0313    5861.0827    5861.0512    5858.3577    5858.4044       0.0466
   36503.0    4573.2440 1417595.0000    3599.0823     118.7917     119.3375       0.0128    5862.8146    5862.8273     119.2077          2     757.7480      -0.0292    5861.0507    5861.0217    5858.3506    5858.3868       0.0361
   36504.0    4617.3840 1417595.0000    3599.0823     118.7897     119.3363       0.0110    5862.6826    5862.6938     119.2076          2     758.7480      -0.0258    5860.9830    5860.9573    5858.2856    5858.3126       0.0269
   36505.0    4673.8880 1417595.0000    3599.0823     118.7901     119.3368       0.0093    5862.6890    5862.6982     119.2076          2     759.7480      -0.0216    5860.8770    5860.8552    5858.2649    5858.2847       0.0197
   36506.0    4699.2200 1417595.0000    3599.0823     118.7891     119.3376       0.0082    5862.6475    5862.6558     119.2076          2     760.7480      -0.0178    5860.9269    5860.9091    5858.2294    5858.2442       0.0150
   36507.0    4703.0000 1417595.0000    3599.0823     118.7882     119.3369       0.0073    5862.6303    5862.6376     119.2079          2     761.7480      -0.0142    5860.8537    5860.8397    5858.2136    5858.2262       0.0126
   36508.0    4659.6160 1417595.0000    3599.0823     118.7889     119.3383       0.0071    5862.5859    5862.5933     119.2078          2     762.7480      -0.0102    5860.9696    5860.9596    5858.3184    5858.3296       0.0112
   36509.0    4605.3560 1417595.0000    3599.0823     118.7902     119.3376       0.0081    5862.5781    5862.5863     119.2080          2     763.7480      -0.0062    5860.9724    5860.9664    5858.3019    5858.3122       0.0101
   36510.0    4568.8120 1417595.0000    3599.0823     118.7895     119.3383       0.0104    5862.6446    5862.6550     119.2079          2     764.7480      -0.0040    5861.0155    5861.0116    5858.3252    5858.3345       0.0094
   36511.0    4561.0000 1417595.0000    3599.0823     118.7901     119.3381       0.0140    5862.6579    5862.6721     119.2080          2     765.7480      -0.0046    5861.0842    5861.0796    5858.3663    5858.3750       0.0089
   36512.0    4623.0840 1417595.0000    3599.0823     118.7883     119.3377       0.0173    5862.6420    5862.6594     119.2082          2     766.7480      -0.0062    5860.9645    5860.9582    5858.3656    5858.3743       0.0087
   36513.0    4706.0840 1417595.0000    3599.0823     118.7887     119.3399       0.0191    5862.6801    5862.6992     119.2080          2     767.7480      -0.0067    5861.0290    5861.0222    5858.3629    5858.3717       0.0086
   36514.0    4732.2360 1417595.0000    3599.0823     118.7893     119.3387       0.0184    5862.6494    5862.6677     119.2081          2     768.7480      -0.0053    5861.0327    5861.0276    5858.2870    5858.2963       0.0092
