~VERSION INFORMATION
VERS.           2.0   :CWLS Log ASCII Standard - VERSION 2.0
WRAP.           NO    :One Line per depth step
PROD.  Schlumberger   :LAS Producer
PROG.  DLIS to ASCII 2.2                               :LAS Program name and version
CREA.        2020/10/30 12:18                          :LAS Creation date {YYYY/MM/DD hh:mm}
SOURCE.     XPT_HRLA_TLD_MCFL_049LTP.DLIS              :DLIS File Name
FILE-ID.     XPT_HRLA_TLD_MCFL_049LTP                  :File Identification Number
#--------------------------------------------------
~WELL INFORMATION
#MNEM.UNIT      DATA             DESCRIPTION
#---- ------ --------------   -----------------------------
STRT .S          815.0       :START TIME      
STOP .S         1341.0       :STOP TIME      
STEP .S            1.0       :STEP     
NULL .          -999.25      :NULL VALUE
COMP .        Nexus Energy                             :COMPANY
WELL .        Crux-3                                   :WELL
FLD  .        Crux                                     :FIELD
LOC  .        Easting: 656981.7mE                      :LOCATION
CNTY .        Sedco-703                                :COUNTY
STAT .        Northern Territory                       :STATE
CTRY .        Australia                                :COUNTRY
API  .                                                 :API NUMBER
UWI  .                                                 :UNIQUE WELL ID
DATE .        31-Dec-2007                              :LOG DATE {DD-MMM-YYYY}
SRVC .        Schlumberger                             :SERVICE COMPANY
LATI .DEG     12*57'32.63" S                           :LATITUDE
LONG .DEG     124*26'50.07" E                          :LONGITUDE
GDAT .                                                 :GeoDetic Datum
#-----------------------------------------------------------------------------
~PARAMETER INFORMATION
#MNEM.UNIT    VALUE                      DESCRIPTION
#---- -----   --------------------       ------------------------
RUN  .          1                        :RUN NUMBER
PDAT .        LAT                        :Permanent Datum
EPD  .M           0.000000               :Elevation of Permanent Datum above Mean Sea Level
EPD  .M           0.000000               :Elevation of tool zero above Mean Sea Level
LMF  .          DF                       :Logging Measured From (Name of Logging Elevation Reference)
APD  .M          26.400000               :Elevation of Depth Reference (LMF) above Permanent Datum
#-----------------------------------------------------------------------------
~CURVE INFORMATION
#MNEM.UNIT   API CODE                                  DESCRIPTION
#---- -----  --------                                  -----------------------
TIME .S                                                :TIME {F10.1}
TENS_SL.LBF                                            :Cable Tension {F13.4}
DEPT_SL..1IN                                           :Station logging depth {F13.4}
PDEP_XPT.M                                             :XPT Probe Depth {F13.4}
MTEP_SAP.DEGC                                          :Sapphire Gauge Manometer Temperature {F13.4}
MTEP_HYD.DEGC                                          :Hydrostatic Sapphire Gauge Manometer Temperature {F13.4}
PCO_HYD.PSI                                            :Hydrostatic Sapphire Dynamic Compensation {F13.4}
PND_HYD.PSI                                            :Hydrostatic Sapphire Pressure Without Dynamic Compensation {F13.4}
CP_HYD.PSI                                             :Hydrostatic Sapphire Pressure With Dynamic Compensation {F13.4}
MTEP_QG.DEGC                                           :CQG Manometer Temperature {F13.4}
PTNO_XPT.                                              :XPT Pretest Number {I11}
ETIM_XPT.S                                             :Elapsed Logging Time {F13.4}
PCO_SAP.PSI                                            :Sapphire Dynamic Compensation {F13.4}
PND_SAP.PSI                                            :Sapphire Pressure Without Dynamic Compensation {F13.4}
CP_SAP.PSI                                             :Sapphire Pressure With Dynamic Compensation {F13.4}
QNDP .PSI                                              :CQG Pressure Without Dynamic Compensation {F13.4}
QCP  .PSI                                              :CQG Pressure With Dynamic Compensation {F13.4}
QPCO .PSI                                              :CQG Dynamic Compensation {F13.4}
#-----------------------------------------------------------------------------
# 
#     TIME      TENS_SL      DEPT_SL      PDEP_XPT     MTEP_SAP     MTEP_HYD     PCO_HYD      PND_HYD       CP_HYD      MTEP_QG       PTNO_XPT       ETIM_XPT     PCO_SAP      PND_SAP       CP_SAP        QNDP         QCP          QPCO
#
~A  
# ...
    1200.0    4651.3475 1451040.0000    3684.0325     122.3445     122.9161       0.0196    5998.5527    5998.5723     122.8878         14     385.4819       0.0153    5534.3399    5534.3555    5531.5572    5531.6519       0.0946
    1201.0    4713.3687 1451040.0000    3684.0325     122.3430     122.9159       0.0198    5998.4391    5998.4590     122.8883         14     386.4819       0.0179    5534.2648    5534.2827    5531.5609    5531.6556       0.0947
    1202.0    4755.1812 1451040.0000    3684.0325     122.3448     122.9152       0.0194    5998.4112    5998.4308     122.8885         14     387.4819       0.0203    5534.3149    5534.3352    5531.5605    5531.6552       0.0949
    1203.0    4749.0363 1451040.0000    3684.0325     122.3445     122.9175       0.0199    5998.3266    5998.3466     122.8886         14     388.4819       0.0220    5534.3166    5534.3385    5531.5615    5531.6567       0.0950
    1204.0    4743.1812 1451040.0000    3684.0325     122.3448     122.9175       0.0223    5998.3636    5998.3858     122.8890         14     389.4819       0.0224    5534.3460    5534.3683    5531.5606    5531.6558       0.0951
    1205.0    4742.3369 1451040.0000    3684.0325     122.3464     122.9179       0.0242    5998.4108    5998.4350     122.8895         14     390.4819       0.0193    5534.3164    5534.3357    5531.5634    5531.6583       0.0949
    1206.0    4732.5437 1451040.0000    3684.0325     122.3479     122.9154       0.0222    5998.3098    5998.3318     122.8896         14     391.4819       0.0124    5534.4019    5534.4142    5531.5611    5531.6553       0.0943
    1207.0    4692.4244 1451040.0000    3684.0325     122.3456     122.9184       0.0170    5998.3538    5998.3708     122.8901         14     392.4819       0.0045    5534.3318    5534.3361    5531.5597    5531.6533       0.0935
    1208.0    4652.5075 1451040.0000    3684.0325     122.3464     122.9190       0.0126    5998.4514    5998.4640     122.8904         14     393.4819       0.0000    5534.3026    5534.3025    5531.5639    5531.6572       0.0933
    1209.0    4639.9275 1451040.0000    3684.0325     122.3468     122.9184       0.0101    5998.5171    5998.5274     122.8906         14     394.4819       0.0013    5534.3885    5534.3899    5531.5660    5531.6598       0.0936
    1210.0    4638.6269 1451040.0000    3684.0325     122.3442     122.9192       0.0089    5998.5249    5998.5337     122.8907         14     395.4819       0.0058    5534.2434    5534.2491    5531.5672    5531.6610       0.0938
    1211.0    4625.8444 1451040.0000    3684.0325     122.3454     122.9179       0.0077    5998.4283    5998.4361     122.8913         14     396.4819       0.0107    5534.3049    5534.3156    5531.5670    5531.6612       0.0941
    1212.0    4623.7100 1451040.0000    3684.0325     122.3463     122.9184       0.0082    5998.4570    5998.4653     122.8917         14     397.4819       0.0151    5534.2410    5534.2560    5531.5625    5531.6572       0.0946
    1213.0    4638.2644 1451040.0000    3684.0325     122.3473     122.9192       0.0118    5998.5249    5998.5365     122.8919         14     398.4819       0.0182    5534.2647    5534.2829    5531.5688    5531.6636       0.0949
    1214.0    4641.1450 1451040.0000    3684.0325     122.3467     122.9196       0.0164    5998.4942    5998.5107     122.8921         14     399.4819       0.0181    5534.2818    5534.2998    5531.5702    5531.6649       0.0948
    1215.0    4632.1812 1451040.0000    3684.0325     122.3491     122.9195       0.0187    5998.5286    5998.5471     122.8926         14     400.4819       0.0139    5534.2118    5534.2256    5531.5727    5531.6674       0.0945
    1216.0    4662.1769 1451040.0000    3684.0325     122.3478     122.9192       0.0181    5998.4433    5998.4614     122.8928         14     401.4819       0.0075    5534.2563    5534.2638    5531.5695    5531.6637       0.0943
    1217.0    4733.7312 1451040.0000    3684.0325     122.3476     122.9211       0.0175    5998.5221    5998.5397     122.8931         14     402.4819       0.0031    5534.2536    5534.2567    5531.5683    5531.6623       0.0940
    1218.0    4762.2900 1451040.0000    3684.0325     122.3492     122.9207       0.0183    5998.4494    5998.4679     122.8934         14     403.4819       0.0027    5534.3207    5534.3236    5531.5653    5531.6590       0.0940
    1219.0    4750.1450 1451040.0000    3684.0325     122.3494     122.9205       0.0190    5998.3809    5998.3999     122.8938         14     404.4819       0.0046    5534.2185    5534.2231    5531.5673    5531.6617       0.0944
    1220.0    4741.6631 1451040.0000    3684.0325     122.3475     122.9211       0.0187    5998.2828    5998.3014     122.8940         14     405.4819       0.0063    5534.3370    5534.3431    5531.5709    5531.6656       0.0946
    1221.0    4708.5694 1451040.0000    3684.0325     122.3481     122.9214       0.0192    5998.3728    5998.3918     122.8943         14     406.4819       0.0075    5534.1490    5534.1563    5531.5719    5531.6662       0.0943
    1222.0    4645.7144 1451040.0000    3684.0325     122.3482     122.9222       0.0216    5998.4370    5998.4586     122.8947         14     407.4819       0.0098    5534.2783    5534.2882    5531.5700    5531.6638       0.0938
    1223.0    4606.1812 1451040.0000    3684.0325     122.3493     122.9227       0.0241    5998.4420    5998.4663     122.8949         14     408.4819       0.0126    5534.2813    5534.2938    5531.5711    5531.6644       0.0933
    1224.0    4627.9850 1451040.0000    3684.0325     122.3488     122.9208       0.0245    5998.4788    5998.5032     122.8951         14     409.4819       0.0139    5534.1864    5534.2005    5531.5789    5531.6717       0.0930
    1225.0    4655.5544 1451040.0000    3684.0325     122.3488     122.9245       0.0229    5998.6401    5998.6630     122.8955         14     410.4819       0.0140    5534.2375    5534.2517    5531.5736    5531.6662       0.0926
    1226.0    4667.4925 1451040.0000    3684.0325     122.3484     122.9234       0.0206    5998.6295    5998.6502     122.8958         14     411.4819       0.0144    5534.2488    5534.2632    5531.5742    5531.6665       0.0922
    1227.0    4720.0681 1451040.0000    3684.0325     122.3514     122.9245       0.0183    5998.5212    5998.5394     122.8960         14     412.4819       0.0157    5534.2915    5534.3071    5531.5679    5531.6602       0.0922
    1228.0    4761.0000 1451040.0000    3684.0325     122.3500     122.9252       0.0161    5998.4769    5998.4929     122.8965         14     413.4819       0.0165    5534.2754    5534.2920    5531.5739    5531.6666       0.0926
    1229.0    4741.2431 1451040.0000    3684.0325     122.3499     122.9240       0.0131    5998.3719    5998.3850     122.8967         14     414.4819       0.0160    5534.2440    5534.2598    5531.5706    5531.6634       0.0928
    1230.0    4701.6888 1451040.0000    3684.0325     122.3498     122.9252       0.0099    5998.2891    5998.2989     122.8966         14     415.4819       0.0151    5534.2214    5534.2365    5531.5715    5531.6638       0.0925
    1231.0    4691.6375 1451040.0000    3684.0325     122.3501     122.9252       0.0082    5998.3488    5998.3571     122.8974         14     416.4819       0.0149    5534.3152    5534.3300    5531.5734    5531.6660       0.0925
    1232.0    4710.6737 1451040.0000    3684.0325     122.3502     122.9245       0.0099    5998.4014    5998.4112     122.8978         14     417.4819       0.0158    5534.2641    5534.2801    5531.5726    5531.6654       0.0927
    1233.0    4683.8594 1451040.0000    3684.0325     122.3513     122.9260       0.0145    5998.3595    5998.3740     122.8980         14     418.4819       0.0172    5534.2645    5534.2816    5531.5721    5531.6649       0.0928
    1234.0    4646.9275 1451040.0000    3684.0325     122.3519     122.9247       0.0186    5998.5228    5998.5415     122.8981         14     419.4819       0.0181    5534.2710    5534.2891    5531.5759    5531.6680       0.0922
