~VERSION INFORMATION
VERS.           2.0   :CWLS Log ASCII Standard - VERSION 2.0
WRAP.           NO    :One Line per depth step
PROD.  Schlumberger   :LAS Producer
PROG.  DLIS to ASCII 2.2                               :LAS Program name and version
CREA.        2020/10/30 12:18                          :LAS Creation date {YYYY/MM/DD hh:mm}
SOURCE.     XPT_HRLA_TLD_MCFL_049LTP.DLIS              :DLIS File Name
FILE-ID.     XPT_HRLA_TLD_MCFL_049LTP                  :File Identification Number
#--------------------------------------------------
~WELL INFORMATION
#MNEM.UNIT      DATA             DESCRIPTION
#---- ------ --------------   -----------------------------
STRT .S          815.0       :START TIME      
STOP .S         1341.0       :STOP TIME      
STEP .S            1.0       :STEP     
NULL .          -999.25      :NULL VALUE
COMP .        Nexus Energy                             :COMPANY
WELL .        Crux-3                                   :WELL
FLD  .        Crux                                     :FIELD
LOC  .        Easting: 656981.7mE                      :LOCATION
CNTY .        Sedco-703                                :COUNTY
STAT .        Northern Territory                       :STATE
CTRY .        Australia                                :COUNTRY
API  .                                                 :API NUMBER
UWI  .                                                 :UNIQUE WELL ID
DATE .        31-Dec-2007                              :LOG DATE {DD-MMM-YYYY}
SRVC .        Schlumberger                             :SERVICE COMPANY
LATI .DEG     12*57'32.63" S                           :LATITUDE
LONG .DEG     124*26'50.07" E                          :LONGITUDE
GDAT .                                                 :GeoDetic Datum
#-----------------------------------------------------------------------------
~PARAMETER INFORMATION
#MNEM.UNIT    VALUE                      DESCRIPTION
#---- -----   --------------------       ------------------------
RUN  .          1                        :RUN NUMBER
PDAT .        LAT                        :Permanent Datum
EPD  .M           0.000000               :Elevation of Permanent Datum above Mean Sea Level
EPD  .M           0.000000               :Elevation of tool zero above Mean Sea Level
LMF  .          DF                       :Logging Measured From (Name of Logging Elevation Reference)
APD  .M          26.400000               :Elevation of Depth Reference (LMF) above Permanent Datum
#-----------------------------------------------------------------------------
~CURVE INFORMATION
#MNEM.UNIT   API CODE                                  DESCRIPTION
#---- -----  --------                                  -----------------------
TIME .S                                                :TIME {F10.1}
TENS_SL.LBF                                            :Cable Tension {F13.4}
DEPT_SL..1IN                                           :Station logging depth {F13.4}
PDEP_XPT.M                                             :XPT Probe Depth {F13.4}
MTEP_SAP.DEGC                                          :Sapphire Gauge Manometer Temperature {F13.4}
MTEP_HYD.DEGC                                          :Hydrostatic Sapphire Gauge Manometer Temperature {F13.4}
PCO_HYD.PSI                                            :Hydrostatic Sapphire Dynamic Compensation {F13.4}
PND_HYD.PSI                                            :Hydrostatic Sapphire Pressure Without Dynamic Compensation {F13.4}
CP_HYD.PSI                                             :Hydrostatic Sapphire Pressure With Dynamic Compensation {F13.4}
MTEP_QG.DEGC                                           :CQG Manometer Temperature {F13.4}
PTNO_XPT.                                              :XPT Pretest Number {I11}
ETIM_XPT.S                                             :Elapsed Logging Time {F13.4}
PCO_SAP.PSI                                            :Sapphire Dynamic Compensation {F13.4}
PND_SAP.PSI                                            :Sapphire Pressure Without Dynamic Compensation {F13.4}
CP_SAP.PSI                                             :Sapphire Pressure With Dynamic Compensation {F13.4}
QNDP .PSI                                              :CQG Pressure Without Dynamic Compensation {F13.4}
QCP  .PSI                                              :CQG Pressure With Dynamic Compensation {F13.4}
QPCO .PSI                                              :CQG Dynamic Compensation {F13.4}
#-----------------------------------------------------------------------------
# 
#     TIME      TENS_SL      DEPT_SL      PDEP_XPT     MTEP_SAP     MTEP_HYD     PCO_HYD      PND_HYD       CP_HYD      MTEP_QG       PTNO_XPT       ETIM_XPT     PCO_SAP      PND_SAP       CP_SAP        QNDP         QCP          QPCO
#
~A  
# ...
    1095.0    4710.1663 1451040.0000    3684.0325     122.3195     122.8835       0.0146    5998.4497    5998.4644     122.8536         14     280.4819       0.0141    5534.1220    5534.1362    5531.3224    5531.4328       0.1104
    1096.0    4735.9275 1451040.0000    3684.0325     122.3210     122.8854       0.0119    5998.4261    5998.4380     122.8536         14     281.4819       0.0115    5534.0806    5534.0921    5531.3261    5531.4365       0.1104
    1097.0    4742.8188 1451040.0000    3684.0325     122.3202     122.8849       0.0106    5998.4046    5998.4153     122.8540         14     282.4819       0.0095    5534.0470    5534.0565    5531.3315    5531.4424       0.1107
    1098.0    4761.0106 1451040.0000    3684.0325     122.3210     122.8846       0.0110    5998.3420    5998.3533     122.8544         14     283.4819       0.0085    5534.2221    5534.2304    5531.3364    5531.4477       0.1112
    1099.0    4773.0725 1451040.0000    3684.0325     122.3189     122.8852       0.0132    5998.3263    5998.3396     122.8547         14     284.4819       0.0094    5534.0627    5534.0721    5531.3460    5531.4573       0.1115
    1100.0    4764.2537 1451040.0000    3684.0325     122.3211     122.8849       0.0157    5998.3206    5998.3363     122.8550         14     285.4819       0.0120    5534.1020    5534.1138    5531.3503    5531.4617       0.1114
    1101.0    4757.0000 1451040.0000    3684.0325     122.3203     122.8858       0.0178    5998.3224    5998.3400     122.8557         14     286.4819       0.0157    5534.2135    5534.2290    5531.3585    5531.4694       0.1108
    1102.0    4714.1131 1451040.0000    3684.0325     122.3218     122.8860       0.0190    5998.2966    5998.3156     122.8558         14     287.4819       0.0190    5534.1636    5534.1828    5531.3695    5531.4797       0.1102
    1103.0    4666.0725 1451040.0000    3684.0325     122.3221     122.8870       0.0191    5998.4864    5998.5054     122.8560         14     288.4819       0.0203    5534.1598    5534.1803    5531.3762    5531.4856       0.1093
    1104.0    4652.9169 1451040.0000    3684.0325     122.3203     122.8865       0.0177    5998.4214    5998.4390     122.8566         14     289.4819       0.0192    5534.1578    5534.1769    5531.3831    5531.4915       0.1083
    1105.0    4636.1812 1451040.0000    3684.0325     122.3224     122.8866       0.0148    5998.5042    5998.5190     122.8570         14     290.4819       0.0159    5534.2180    5534.2338    5531.3857    5531.4930       0.1074
    1106.0    4638.7100 1451040.0000    3684.0325     122.3226     122.8873       0.0119    5998.5259    5998.5378     122.8573         14     291.4819       0.0120    5534.1756    5534.1877    5531.3933    5531.5000       0.1067
    1107.0    4641.2175 1451040.0000    3684.0325     122.3199     122.8881       0.0095    5998.4452    5998.4546     122.8579         14     292.4819       0.0088    5534.1575    5534.1663    5531.3986    5531.5056       0.1069
    1108.0    4645.6012 1451040.0000    3684.0325     122.3220     122.8881       0.0075    5998.4976    5998.5052     122.8579         14     293.4819       0.0079    5534.1762    5534.1842    5531.4054    5531.5128       0.1073
    1109.0    4672.9019 1451040.0000    3684.0325     122.3221     122.8878       0.0065    5998.3631    5998.3695     122.8583         14     294.4819       0.0095    5534.1243    5534.1337    5531.4079    5531.5156       0.1077
    1110.0    4707.3475 1451040.0000    3684.0325     122.3231     122.8887       0.0078    5998.4972    5998.5050     122.8585         14     295.4819       0.0132    5534.2406    5534.2537    5531.4124    5531.5203       0.1078
    1111.0    4746.2388 1451040.0000    3684.0325     122.3234     122.8875       0.0115    5998.3208    5998.3323     122.8590         14     296.4819       0.0171    5534.1964    5534.2134    5531.4157    5531.5231       0.1076
    1112.0    4761.7356 1451040.0000    3684.0325     122.3237     122.8876       0.0155    5998.4210    5998.4366     122.8593         14     297.4819       0.0200    5534.1373    5534.1571    5531.4221    5531.5295       0.1076
    1113.0    4764.6375 1451040.0000    3684.0325     122.3230     122.8873       0.0186    5998.2543    5998.2728     122.8598         14     298.4819       0.0212    5534.1591    5534.1801    5531.4304    5531.5378       0.1074
    1114.0    4771.6269 1451040.0000    3684.0325     122.3262     122.8897       0.0211    5998.2755    5998.2966     122.8602         14     299.4819       0.0192    5534.2464    5534.2655    5531.4300    5531.5373       0.1072
    1115.0    4769.4456 1451040.0000    3684.0325     122.3247     122.8891       0.0223    5998.2697    5998.2921     122.8602         14     300.4819       0.0149    5534.2258    5534.2405    5531.4382    5531.5447       0.1065
    1116.0    4773.8912 1451040.0000    3684.0325     122.3272     122.8903       0.0214    5998.3993    5998.4208     122.8608         14     301.4819       0.0106    5534.3082    5534.3190    5531.4463    5531.5523       0.1059
    1117.0    4770.7356 1451040.0000    3684.0325     122.3266     122.8904       0.0196    5998.4538    5998.4732     122.8611         14     302.4819       0.0095    5534.2221    5534.2314    5531.4446    5531.5506       0.1061
    1118.0    4745.6888 1451040.0000    3684.0325     122.3238     122.8904       0.0191    5998.4019    5998.4209     122.8614         14     303.4819       0.0109    5534.2044    5534.2153    5531.4511    5531.5576       0.1065
    1119.0    4703.8337 1451040.0000    3684.0325     122.3243     122.8919       0.0202    5998.4180    5998.4380     122.8615         14     304.4819       0.0132    5534.1686    5534.1818    5531.4544    5531.5609       0.1066
    1120.0    4666.9894 1451040.0000    3684.0325     122.3257     122.8905       0.0205    5998.4199    5998.4404     122.8621         14     305.4819       0.0155    5534.1919    5534.2073    5531.4582    5531.5642       0.1059
    1121.0    4648.1812 1451040.0000    3684.0325     122.3256     122.8916       0.0189    5998.4571    5998.4761     122.8624         14     306.4819       0.0177    5534.1190    5534.1369    5531.4613    5531.5665       0.1051
    1122.0    4677.2131 1451040.0000    3684.0325     122.3254     122.8934       0.0164    5998.4336    5998.4498     122.8628         14     307.4819       0.0189    5534.2312    5534.2503    5531.4605    5531.5650       0.1047
    1123.0    4727.0106 1451040.0000    3684.0325     122.3280     122.8924       0.0136    5998.5433    5998.5567     122.8632         14     308.4819       0.0176    5534.3006    5534.3180    5531.4730    5531.5775       0.1045
    1124.0    4724.6163 1451040.0000    3684.0325     122.3261     122.8934       0.0103    5998.5352    5998.5453     122.8633         14     309.4819       0.0151    5534.2664    5534.2814    5531.4744    5531.5784       0.1040
    1125.0    4693.0256 1451040.0000    3684.0325     122.3272     122.8919       0.0075    5998.4180    5998.4254     122.8638         14     310.4819       0.0128    5534.2762    5534.2889    5531.4711    5531.5751       0.1040
    1126.0    4712.2131 1451040.0000    3684.0325     122.3285     122.8930       0.0067    5998.4606    5998.4675     122.8642         14     311.4819       0.0124    5534.2408    5534.2531    5531.4762    5531.5807       0.1043
    1127.0    4731.6525 1451040.0000    3684.0325     122.3271     122.8924       0.0084    5998.4054    5998.4138     122.8646         14     312.4819       0.0127    5534.1728    5534.1855    5531.4769    5531.5815       0.1047
    1128.0    4708.1812 1451040.0000    3684.0325     122.3294     122.8919       0.0124    5998.2947    5998.3068     122.8645         14     313.4819       0.0129    5534.3258    5534.3385    5531.4774    5531.5819       0.1045
    1129.0    4725.6481 1451040.0000    3684.0325     122.3279     122.8941       0.0181    5998.2605    5998.2786     122.8651         14     314.4819       0.0127    5534.2524    5534.2651    5531.4804    5531.5844       0.1039
