~VERSION INFORMATION
VERS.           2.0   :CWLS Log ASCII Standard - VERSION 2.0
WRAP.           NO    :One Line per depth step
PROD.  Schlumberger   :LAS Producer
PROG.  DLIS to ASCII 2.2                               :LAS Program name and version
CREA.        2020/10/30 12:18                          :LAS Creation date {YYYY/MM/DD hh:mm}
SOURCE.     XPT_HRLA_TLD_MCFL_068LTP.DLIS              :DLIS File Name
FILE-ID.     XPT_HRLA_TLD_MCFL_068LTP                  :File Identification Number
#--------------------------------------------------
~WELL INFORMATION
#MNEM.UNIT      DATA             DESCRIPTION
#---- ------ --------------   -----------------------------
STRT .S           82.0       :START TIME      
STOP .S          488.0       :STOP TIME      
STEP .S            1.0       :STEP     
NULL .          -999.25      :NULL VALUE
COMP .        Nexus Energy                             :COMPANY
WELL .        Crux-3                                   :WELL
FLD  .        Crux                                     :FIELD
LOC  .        Easting: 656981.7mE                      :LOCATION
CNTY .        Sedco-703                                :COUNTY
STAT .        Northern Territory                       :STATE
CTRY .        Australia                                :COUNTRY
API  .                                                 :API NUMBER
UWI  .                                                 :UNIQUE WELL ID
DATE .        31-Dec-2007                              :LOG DATE {DD-MMM-YYYY}
SRVC .        Schlumberger                             :SERVICE COMPANY
LATI .DEG     12*57'32.63" S                           :LATITUDE
LONG .DEG     124*26'50.07" E                          :LONGITUDE
GDAT .                                                 :GeoDetic Datum
#-----------------------------------------------------------------------------
~PARAMETER INFORMATION
#MNEM.UNIT    VALUE                      DESCRIPTION
#---- -----   --------------------       ------------------------
RUN  .          1                        :RUN NUMBER
PDAT .        LAT                        :Permanent Datum
EPD  .M           0.000000               :Elevation of Permanent Datum above Mean Sea Level
EPD  .M           0.000000               :Elevation of tool zero above Mean Sea Level
LMF  .          DF                       :Logging Measured From (Name of Logging Elevation Reference)
APD  .M          26.400000               :Elevation of Depth Reference (LMF) above Permanent Datum
#-----------------------------------------------------------------------------
~CURVE INFORMATION
#MNEM.UNIT   API CODE                                  DESCRIPTION
#---- -----  --------                                  -----------------------
TIME .S                                                :TIME {F10.1}
TENS_SL.LBF                                            :Cable Tension {F13.4}
DEPT_SL..1IN                                           :Station logging depth {F13.4}
PDEP_XPT.M                                             :XPT Probe Depth {F13.4}
MTEP_SAP.DEGC                                          :Sapphire Gauge Manometer Temperature {F13.4}
MTEP_HYD.DEGC                                          :Hydrostatic Sapphire Gauge Manometer Temperature {F13.4}
PCO_HYD.PSI                                            :Hydrostatic Sapphire Dynamic Compensation {F13.4}
PND_HYD.PSI                                            :Hydrostatic Sapphire Pressure Without Dynamic Compensation {F13.4}
CP_HYD.PSI                                             :Hydrostatic Sapphire Pressure With Dynamic Compensation {F13.4}
MTEP_QG.DEGC                                           :CQG Manometer Temperature {F13.4}
PTNO_XPT.                                              :XPT Pretest Number {I11}
ETIM_XPT.S                                             :Elapsed Logging Time {F13.4}
PCO_SAP.PSI                                            :Sapphire Dynamic Compensation {F13.4}
PND_SAP.PSI                                            :Sapphire Pressure Without Dynamic Compensation {F13.4}
CP_SAP.PSI                                             :Sapphire Pressure With Dynamic Compensation {F13.4}
QNDP .PSI                                              :CQG Pressure Without Dynamic Compensation {F13.4}
QCP  .PSI                                              :CQG Pressure With Dynamic Compensation {F13.4}
QPCO .PSI                                              :CQG Dynamic Compensation {F13.4}
#-----------------------------------------------------------------------------
# 
#     TIME      TENS_SL      DEPT_SL      PDEP_XPT     MTEP_SAP     MTEP_HYD     PCO_HYD      PND_HYD       CP_HYD      MTEP_QG       PTNO_XPT       ETIM_XPT     PCO_SAP      PND_SAP       CP_SAP        QNDP         QCP          QPCO
#
~A  
# ...
     397.0    4982.4128 1566781.0000    3978.0146     132.9969     133.6405       0.0424    6464.4554    6464.4979     133.3839         33     315.1413       0.0404    5730.8113    5730.8516    5727.9601    5728.3097       0.3495
     398.0    4996.7925 1566781.0000    3978.0146     132.9971     133.6429       0.0423    6464.6448    6464.6873     133.3850         33     316.1413       0.0426    5730.7729    5730.8153    5727.9632    5728.3123       0.3492
     399.0    5030.8697 1566781.0000    3978.0146     132.9976     133.6431       0.0420    6464.6326    6464.6746     133.3858         33     317.1413       0.0441    5730.8489    5730.8930    5727.9605    5728.3091       0.3486
     400.0    5025.4128 1566781.0000    3978.0146     132.9976     133.6452       0.0411    6464.6448    6464.6861     133.3872         33     318.1413       0.0438    5730.7569    5730.8007    5727.9627    5728.3106       0.3479
     401.0    5033.4349 1566781.0000    3978.0146     132.9979     133.6450       0.0397    6464.5966    6464.6363     133.3882         33     319.1413       0.0427    5730.8046    5730.8472    5727.9622    5728.3094       0.3471
     402.0    5023.3598 1566781.0000    3978.0146     132.9996     133.6448       0.0390    6464.5945    6464.6336     133.3891         33     320.1413       0.0421    5730.8192    5730.8612    5727.9652    5728.3114       0.3459
     403.0    4975.0882 1566781.0000    3978.0146     133.0016     133.6458       0.0396    6464.6047    6464.6445     133.3904         33     321.1413       0.0418    5730.8083    5730.8500    5727.9657    5728.3102       0.3447
     404.0    4931.0972 1566781.0000    3978.0146     133.0006     133.6472       0.0421    6464.6046    6464.6469     133.3912         33     322.1413       0.0405    5730.7574    5730.7980    5727.9646    5728.3083       0.3439
     405.0    4949.6423 1566781.0000    3978.0146     133.0006     133.6484       0.0457    6464.6859    6464.7315     133.3922         33     323.1413       0.0384    5730.7116    5730.7501    5727.9653    5728.3091       0.3436
     406.0    4911.4238 1566781.0000    3978.0146     133.0031     133.6492       0.0473    6464.7629    6464.8103     133.3935         33     324.1413       0.0374    5730.8234    5730.8608    5727.9661    5728.3094       0.3434
     407.0    4922.6182 1566781.0000    3978.0146     133.0013     133.6489       0.0452    6464.6874    6464.7326     133.3942         33     325.1413       0.0381    5730.7244    5730.7624    5727.9643    5728.3076       0.3433
     408.0    4984.8897 1566781.0000    3978.0146     133.0057     133.6504       0.0409    6464.6893    6464.7302     133.3954         33     326.1413       0.0401    5730.8307    5730.8708    5727.9699    5728.3138       0.3439
     409.0    5041.4680 1566781.0000    3978.0146     133.0048     133.6522       0.0385    6464.6715    6464.7101     133.3965         33     327.1413       0.0419    5730.7859    5730.8276    5727.9685    5728.3132       0.3446
     410.0    5022.2605 1566781.0000    3978.0146     133.0036     133.6522       0.0384    6464.6257    6464.6642     133.3976         33     328.1413       0.0423    5730.7700    5730.8124    5727.9682    5728.3130       0.3449
     411.0    5035.7174 1566781.0000    3978.0146     133.0072     133.6519       0.0388    6464.5499    6464.5885     133.3986         33     329.1413       0.0409    5730.8142    5730.8551    5727.9668    5728.3110       0.3441
     412.0    5032.4459 1566781.0000    3978.0146     133.0071     133.6528       0.0392    6464.4805    6464.5198     133.3996         33     330.1413       0.0390    5730.7810    5730.8199    5727.9699    5728.3127       0.3430
     413.0    5015.9359 1566781.0000    3978.0146     133.0071     133.6536       0.0406    6464.5563    6464.5968     133.4006         33     331.1413       0.0382    5730.7768    5730.8149    5727.9714    5728.3136       0.3423
     414.0    4969.4680 1566781.0000    3978.0146     133.0085     133.6558       0.0430    6464.6182    6464.6612     133.4017         33     332.1413       0.0378    5730.9162    5730.9538    5727.9771    5728.3184       0.3415
     415.0    4945.4569 1566781.0000    3978.0146     133.0079     133.6553       0.0443    6464.5864    6464.6309     133.4027         33     333.1413       0.0376    5730.7807    5730.8183    5727.9732    5728.3138       0.3406
     416.0    4930.5651 1566781.0000    3978.0146     133.0092     133.6577       0.0435    6464.6737    6464.7172     133.4038         33     334.1413       0.0376    5730.7894    5730.8270    5727.9731    5728.3131       0.3400
     417.0    4933.2936 1566781.0000    3978.0146     133.0107     133.6568       0.0415    6464.6636    6464.7050     133.4050         33     335.1413       0.0385    5730.7839    5730.8225    5727.9722    5728.3125       0.3401
     418.0    4931.8256 1566781.0000    3978.0146     133.0100     133.6576       0.0397    6464.6219    6464.6617     133.4059         33     336.1413       0.0392    5730.7215    5730.7608    5727.9731    5728.3134       0.3402
     419.0    4943.6313 1566781.0000    3978.0146     133.0116     133.6583       0.0383    6464.6196    6464.6578     133.4068         33     337.1413       0.0386    5730.8361    5730.8748    5727.9740    5728.3134       0.3393
     420.0    4907.1854 1566781.0000    3978.0146     133.0125     133.6598       0.0373    6464.6962    6464.7333     133.4078         33     338.1413       0.0376    5730.7874    5730.8249    5727.9770    5728.3153       0.3383
     421.0    4885.6954 1566781.0000    3978.0146     133.0138     133.6591       0.0372    6464.5883    6464.6254     133.4089         33     339.1413       0.0375    5730.7977    5730.8353    5727.9753    5728.3127       0.3373
     422.0    4907.0199 1566781.0000    3978.0146     133.0116     133.6620       0.0384    6464.7141    6464.7526     133.4100         33     340.1413       0.0454    5730.7501    5730.7955    5727.9783    5728.3320       0.3537
     423.0    4986.0089 1566781.0000    3978.0146     133.0133     133.6606       0.0405    6464.7051    6464.7457     133.4110         33     341.1413       0.1157    5730.7556    5730.8713    5727.9784    5728.4719       0.4935
     424.0    5055.4680 1566781.0000    3978.0146     133.0151     133.6614       0.0424    6464.6640    6464.7062     133.4121         33     342.1413       0.3211    5730.7955    5731.1165    5727.9762    5728.8546       0.8783
     425.0    5031.0331 1566781.0000    3978.0146     133.0156     133.6628       0.0443    6464.5584    6464.6028     133.4129         33     343.1413       0.6496    5730.7446    5731.3942    5727.9767    5729.4413       1.4644
     426.0    5018.2274 1566781.0000    3978.0146     133.0165     133.6630       0.0455    6464.4837    6464.5292     133.4141         33     344.1413       0.9809    5730.8448    5731.8255    5727.9804    5730.0449       2.0643
     427.0    5041.2406 1566781.0000    3978.0146     133.0189     133.6652       0.0458    6464.4647    6464.5106     133.4152         33     345.1413       1.1818    5730.4411    5731.6229    5727.5931    5730.1097       2.5166
     428.0    4981.5011 1566781.0000    3978.0146     133.1013     133.6644       0.0451    6464.3213    6464.3663     133.4443         33     346.1413       1.2236    6345.9402    6347.1637    6329.2675    6332.0952       2.8277
     429.0    4940.1633 1566781.0000    3978.0146     133.1506     133.6668       0.0443    6464.2946    6464.3390     133.4542         33     347.1413       1.1129    6468.3286    6469.4413    6456.5292    6459.5141       2.9850
     430.0    4924.3377 1566781.0000    3978.0146     133.1564     133.6651       0.0427    6464.4278    6464.4706     133.4586         33     348.1413       0.8422    6467.7606    6468.6028    6456.7986    6459.7161       2.9175
     431.0    4897.1303 1566781.0000    3978.0146     133.1546     133.6682       0.0391    6464.6055    6464.6447     133.4649         33     349.1413       0.4415    6466.8305    6467.2722    6457.1563    6459.7833       2.6269
