~VERSION INFORMATION
VERS.           2.0   :CWLS Log ASCII Standard - VERSION 2.0
WRAP.           NO    :One Line per depth step
PROD.  Schlumberger   :LAS Producer
PROG.  DLIS to ASCII 2.2                               :LAS Program name and version
CREA.        2020/10/30 12:18                          :LAS Creation date {YYYY/MM/DD hh:mm}
SOURCE.     XPT_HRLA_TLD_MCFL_039LTP.DLIS              :DLIS File Name
FILE-ID.     XPT_HRLA_TLD_MCFL_039LTP                  :File Identification Number
#--------------------------------------------------
~WELL INFORMATION
#MNEM.UNIT      DATA             DESCRIPTION
#---- ------ --------------   -----------------------------
STRT .S          109.0       :START TIME      
STOP .S          613.0       :STOP TIME      
STEP .S            1.0       :STEP     
NULL .          -999.25      :NULL VALUE
COMP .        Nexus Energy                             :COMPANY
WELL .        Crux-3                                   :WELL
FLD  .        Crux                                     :FIELD
LOC  .        Easting: 656981.7mE                      :LOCATION
CNTY .        Sedco-703                                :COUNTY
STAT .        Northern Territory                       :STATE
CTRY .        Australia                                :COUNTRY
API  .                                                 :API NUMBER
UWI  .                                                 :UNIQUE WELL ID
DATE .        31-Dec-2007                              :LOG DATE {DD-MMM-YYYY}
SRVC .        Schlumberger                             :SERVICE COMPANY
LATI .DEG     12*57'32.63" S                           :LATITUDE
LONG .DEG     124*26'50.07" E                          :LONGITUDE
GDAT .                                                 :GeoDetic Datum
#-----------------------------------------------------------------------------
~PARAMETER INFORMATION
#MNEM.UNIT    VALUE                      DESCRIPTION
#---- -----   --------------------       ------------------------
RUN  .          1                        :RUN NUMBER
PDAT .        LAT                        :Permanent Datum
EPD  .M           0.000000               :Elevation of Permanent Datum above Mean Sea Level
EPD  .M           0.000000               :Elevation of tool zero above Mean Sea Level
LMF  .          DF                       :Logging Measured From (Name of Logging Elevation Reference)
APD  .M          26.400000               :Elevation of Depth Reference (LMF) above Permanent Datum
#-----------------------------------------------------------------------------
~CURVE INFORMATION
#MNEM.UNIT   API CODE                                  DESCRIPTION
#---- -----  --------                                  -----------------------
TIME .S                                                :TIME {F10.1}
TENS_SL.LBF                                            :Cable Tension {F13.4}
DEPT_SL..1IN                                           :Station logging depth {F13.4}
PDEP_XPT.M                                             :XPT Probe Depth {F13.4}
MTEP_SAP.DEGC                                          :Sapphire Gauge Manometer Temperature {F13.4}
MTEP_HYD.DEGC                                          :Hydrostatic Sapphire Gauge Manometer Temperature {F13.4}
PCO_HYD.PSI                                            :Hydrostatic Sapphire Dynamic Compensation {F13.4}
PND_HYD.PSI                                            :Hydrostatic Sapphire Pressure Without Dynamic Compensation {F13.4}
CP_HYD.PSI                                             :Hydrostatic Sapphire Pressure With Dynamic Compensation {F13.4}
MTEP_QG.DEGC                                           :CQG Manometer Temperature {F13.4}
PTNO_XPT.                                              :XPT Pretest Number {I11}
ETIM_XPT.S                                             :Elapsed Logging Time {F13.4}
PCO_SAP.PSI                                            :Sapphire Dynamic Compensation {F13.4}
PND_SAP.PSI                                            :Sapphire Pressure Without Dynamic Compensation {F13.4}
CP_SAP.PSI                                             :Sapphire Pressure With Dynamic Compensation {F13.4}
QNDP .PSI                                              :CQG Pressure Without Dynamic Compensation {F13.4}
QCP  .PSI                                              :CQG Pressure With Dynamic Compensation {F13.4}
QPCO .PSI                                              :CQG Dynamic Compensation {F13.4}
#-----------------------------------------------------------------------------
# 
#     TIME      TENS_SL      DEPT_SL      PDEP_XPT     MTEP_SAP     MTEP_HYD     PCO_HYD      PND_HYD       CP_HYD      MTEP_QG       PTNO_XPT       ETIM_XPT     PCO_SAP      PND_SAP       CP_SAP        QNDP         QCP          QPCO
#
~A  
# ...
     214.0    4679.0477 1418545.0000    3601.4951     119.0002     119.5429       0.0136    5866.6489    5866.6625     119.5371          2     105.2610       0.0146    5864.8910    5864.9056    5862.2436    5862.3075       0.0639
     215.0    4735.3105 1418545.0000    3601.4951     119.0021     119.5417       0.0127    5866.6374    5866.6500     119.5372          2     106.2610       0.0175    5864.9402    5864.9577    5862.2623    5862.3261       0.0638
     216.0    4787.9124 1418545.0000    3601.4951     119.0010     119.5437       0.0097    5866.5986    5866.6084     119.5375          2     107.2610       0.0156    5864.9469    5864.9625    5862.2098    5862.2691       0.0592
     217.0    4787.4800 1418545.0000    3601.4951     119.0004     119.5437       0.0061    5866.5986    5866.6046     119.5375          2     108.2610       0.0064    5864.7886    5864.7949    5862.1270    5862.1739       0.0469
     218.0    4803.0000 1418545.0000    3601.4951     119.0025     119.5436       0.0051    5866.5486    5866.5536     119.5379          2     109.2610      -0.0091    5864.7852    5864.7763    5862.0654    5862.0923       0.0267
     219.0    4787.0819 1418545.0000    3601.4951     119.0019     119.5429       0.0095    5866.3525    5866.3619     119.5380          2     110.2610      -0.0267    5864.9214    5864.8948    5862.1431    5862.1455       0.0025
     220.0    4726.8647 1418545.0000    3601.4951     119.0019     119.5437       0.0179    5866.5391    5866.5568     119.5381          2     111.2610      -0.0433    5865.0991    5865.0558    5860.5443    5860.5218      -0.0227
     221.0    4687.6533 1418545.0000    3601.4951     119.0008     119.5414       0.0263    5866.5156    5866.5419     119.5379          2     112.2610      -0.0561    5857.9785    5857.9223    5851.4854    5851.4375      -0.0478
     222.0    4700.8705 1418545.0000    3601.4951     118.9968     119.5437       0.0321    5866.6582    5866.6902     119.5371          2     113.2610      -0.0633    5830.0972    5830.0339    5831.5399    5831.4686      -0.0715
     223.0    4718.1334 1418545.0000    3601.4951     118.9973     119.5475       0.0353    5866.8569    5866.8920     119.5373          2     114.2610      -0.0630    5835.7471    5835.6840    5833.4331    5833.3438      -0.0893
     224.0    4751.5676 1418545.0000    3601.4951     118.9955     119.5468       0.0342    5866.7896    5866.8239     119.5369          2     115.2610      -0.0689    5829.7461    5829.6772    5827.4277    5827.3063      -0.1216
     225.0    4775.3486 1418545.0000    3601.4951     118.9954     119.5468       0.0274    5866.6704    5866.6979     119.5366          2     116.2610      -0.1168    5819.5901    5819.4733    5817.3828    5817.1612      -0.2215
     226.0    4785.3924 1418545.0000    3601.4951     118.9935     119.5468       0.0181    5866.6704    5866.6884     119.5361          2     117.2610      -0.2280    5813.8795    5813.6513    5811.7052    5811.2879      -0.4172
     227.0    4793.4343 1418545.0000    3601.4951     118.9931     119.5472       0.0116    5866.7377    5866.7492     119.5358          2     118.2610      -0.3671    5807.7954    5807.4283    5805.6082    5804.9502      -0.6580
     228.0    4772.8209 1418545.0000    3601.4951     118.9938     119.5468       0.0100    5866.6748    5866.6848     119.5353          2     119.2610      -0.4649    5801.6669    5801.2019    5799.4039    5798.5481      -0.8559
     229.0    4720.9981 1418545.0000    3601.4951     118.9923     119.5482       0.0113    5866.6332    5866.6444     119.5347          2     120.2610      -0.4869    5792.9272    5792.4402    5790.6340    5789.6555      -0.9784
     230.0    4699.5638 1418545.0000    3601.4951     118.9381     119.5467       0.0130    5866.6381    5866.6509     119.5195          2     121.2610      -0.4428    5456.4515    5456.0085    5458.8206    5457.7793      -1.0414
     231.0    4686.2171 1418545.0000    3601.4951     118.9307     119.5479       0.0145    5866.7420    5866.7564     119.5171          2     122.2610      -0.3145    5443.5228    5443.2084    5445.1198    5444.0966      -1.0231
     232.0    4690.7848 1418545.0000    3601.4951     118.9412     119.5477       0.0142    5866.6803    5866.6945     119.5175          2     123.2610      -0.1750    5503.6352    5503.4601    5503.8647    5502.9279      -0.9368
     233.0    4716.2629 1418545.0000    3601.4951     118.9440     119.5486       0.0112    5866.7051    5866.7162     119.5149          2     124.2610       0.0120    5504.3227    5504.3345    5503.9454    5503.1653      -0.7801
     234.0    4746.7867 1418545.0000    3601.4951     118.9486     119.5479       0.0064    5866.6818    5866.6881     119.5124          2     125.2610       0.1633    5504.6213    5504.7846    5503.8136    5503.1774      -0.6361
     235.0    4787.6972 1418545.0000    3601.4951     118.9530     119.5491       0.0044    5866.7104    5866.7148     119.5098          2     126.2610       0.2099    5505.0276    5505.2375    5503.7025    5503.1248      -0.5779
     236.0    4792.3885 1418545.0000    3601.4951     118.9560     119.5493       0.0041    5866.6095    5866.6135     119.5083          2     127.2610       0.2112    5505.0625    5505.2736    5503.5321    5503.0006      -0.5316
     237.0    4770.3486 1418545.0000    3601.4951     118.9616     119.5477       0.0044    5866.6524    5866.6568     119.5065          2     128.2610       0.1962    5505.3134    5505.5096    5503.3901    5502.9195      -0.4708
     238.0    4781.4362 1418545.0000    3601.4951     118.9662     119.5483       0.0052    5866.6213    5866.6266     119.5049          2     129.2610       0.1783    5505.4028    5505.5809    5503.2432    5502.8422      -0.4013
     239.0    4799.2191 1418545.0000    3601.4951     118.9687     119.5477       0.0075    5866.5101    5866.5176     119.5038          2     130.2610       0.1480    5505.3719    5505.5201    5503.1518    5502.8006      -0.3511
     240.0    4814.7829 1418545.0000    3601.4951     118.9696     119.5500       0.0107    5866.5986    5866.6094     119.5029          2     131.2610       0.0961    5505.4123    5505.5084    5503.0618    5502.7224      -0.3393
     241.0    4809.4324 1418545.0000    3601.4951     118.9723     119.5497       0.0125    5866.6419    5866.6545     119.5023          2     132.2610       0.0274    5505.5180    5505.5452    5502.9725    5502.6118      -0.3605
     242.0    4770.5161 1418545.0000    3601.4951     118.9757     119.5498       0.0122    5866.6466    5866.6589     119.5018          2     133.2610      -0.0380    5505.5060    5505.4679    5502.9099    5502.5181      -0.3916
     243.0    4716.0419 1418545.0000    3601.4951     118.9763     119.5505       0.0113    5866.7100    5866.7214     119.5017          2     134.2610      -0.0817    5505.4131    5505.3314    5502.8586    5502.4446      -0.4140
     244.0    4697.8247 1418545.0000    3601.4951     118.9649     119.5505       0.0098    5866.6497    5866.6595     119.4969          3     135.2610      -0.0992    5405.8240    5405.7247    5404.6567    5404.2325      -0.4243
     245.0    4688.6095 1418545.0000    3601.4951     118.9583     119.5499       0.0069    5866.6517    5866.6587     119.4953          3     136.2610      -0.0899    5383.7794    5383.6893    5382.7357    5382.3187      -0.4169
     246.0    4707.2210 1418545.0000    3601.4951     118.9592     119.5509       0.0036    5866.6706    5866.6742     119.4950          3     137.2610      -0.0524    5383.0982    5383.0457    5381.8199    5381.4401      -0.3796
     247.0    4753.8743 1418545.0000    3601.4951     118.9621     119.5499       0.0018    5866.7027    5866.7046     119.4937          3     138.2610       0.0049    5377.2126    5377.2175    5375.6739    5375.3577      -0.3160
     248.0    4792.3467 1418545.0000    3601.4951     118.9622     119.5511       0.0027    5866.6995    5866.7022     119.4933          3     139.2610       0.0635    5375.7274    5375.7908    5374.0305    5373.7869      -0.2437
