~VERSION INFORMATION
VERS.           2.0   :CWLS Log ASCII Standard - VERSION 2.0
WRAP.           NO    :One Line per depth step
PROD.  Schlumberger   :LAS Producer
PROG.  DLIS to ASCII 2.2                               :LAS Program name and version
CREA.        2020/10/30 12:18                          :LAS Creation date {YYYY/MM/DD hh:mm}
SOURCE.     XPT_HRLA_TLD_MCFL_057LTP.DLIS              :DLIS File Name
FILE-ID.     XPT_HRLA_TLD_MCFL_057LTP                  :File Identification Number
#--------------------------------------------------
~WELL INFORMATION
#MNEM.UNIT      DATA             DESCRIPTION
#---- ------ --------------   -----------------------------
STRT .S         6912.0       :START TIME      
STOP .S         7441.0       :STOP TIME      
STEP .S            1.0       :STEP     
NULL .          -999.25      :NULL VALUE
COMP .        Nexus Energy                             :COMPANY
WELL .        Crux-3                                   :WELL
FLD  .        Crux                                     :FIELD
LOC  .        Easting: 656981.7mE                      :LOCATION
CNTY .        Sedco-703                                :COUNTY
STAT .        Northern Territory                       :STATE
CTRY .        Australia                                :COUNTRY
API  .                                                 :API NUMBER
UWI  .                                                 :UNIQUE WELL ID
DATE .        31-Dec-2007                              :LOG DATE {DD-MMM-YYYY}
SRVC .        Schlumberger                             :SERVICE COMPANY
LATI .DEG     12*57'32.63" S                           :LATITUDE
LONG .DEG     124*26'50.07" E                          :LONGITUDE
GDAT .                                                 :GeoDetic Datum
#-----------------------------------------------------------------------------
~PARAMETER INFORMATION
#MNEM.UNIT    VALUE                      DESCRIPTION
#---- -----   --------------------       ------------------------
RUN  .          1                        :RUN NUMBER
PDAT .        LAT                        :Permanent Datum
EPD  .M           0.000000               :Elevation of Permanent Datum above Mean Sea Level
EPD  .M           0.000000               :Elevation of tool zero above Mean Sea Level
LMF  .          DF                       :Logging Measured From (Name of Logging Elevation Reference)
APD  .M          26.400000               :Elevation of Depth Reference (LMF) above Permanent Datum
#-----------------------------------------------------------------------------
~CURVE INFORMATION
#MNEM.UNIT   API CODE                                  DESCRIPTION
#---- -----  --------                                  -----------------------
TIME .S                                                :TIME {F10.1}
TENS_SL.LBF                                            :Cable Tension {F13.4}
DEPT_SL..1IN                                           :Station logging depth {F13.4}
PDEP_XPT.M                                             :XPT Probe Depth {F13.4}
MTEP_SAP.DEGC                                          :Sapphire Gauge Manometer Temperature {F13.4}
MTEP_HYD.DEGC                                          :Hydrostatic Sapphire Gauge Manometer Temperature {F13.4}
PCO_HYD.PSI                                            :Hydrostatic Sapphire Dynamic Compensation {F13.4}
PND_HYD.PSI                                            :Hydrostatic Sapphire Pressure Without Dynamic Compensation {F13.4}
CP_HYD.PSI                                             :Hydrostatic Sapphire Pressure With Dynamic Compensation {F13.4}
MTEP_QG.DEGC                                           :CQG Manometer Temperature {F13.4}
PTNO_XPT.                                              :XPT Pretest Number {I11}
ETIM_XPT.S                                             :Elapsed Logging Time {F13.4}
PCO_SAP.PSI                                            :Sapphire Dynamic Compensation {F13.4}
PND_SAP.PSI                                            :Sapphire Pressure Without Dynamic Compensation {F13.4}
CP_SAP.PSI                                             :Sapphire Pressure With Dynamic Compensation {F13.4}
QNDP .PSI                                              :CQG Pressure Without Dynamic Compensation {F13.4}
QCP  .PSI                                              :CQG Pressure With Dynamic Compensation {F13.4}
QPCO .PSI                                              :CQG Dynamic Compensation {F13.4}
#-----------------------------------------------------------------------------
# 
#     TIME      TENS_SL      DEPT_SL      PDEP_XPT     MTEP_SAP     MTEP_HYD     PCO_HYD      PND_HYD       CP_HYD      MTEP_QG       PTNO_XPT       ETIM_XPT     PCO_SAP      PND_SAP       CP_SAP        QNDP         QCP          QPCO
#
~A  
    6912.0    4965.6640 1526236.0000    3875.0305     129.4395     129.9218       0.0000    6300.2556    6300.2556     130.1443         18       0.0105       0.0000    6297.7022    6297.7022    6295.9868    6295.9868       0.0000
    6913.0    4934.1680 1526236.0000    3875.0305     129.4391     129.9195       0.0000    6300.2915    6300.2915     130.1433         18       1.0105       0.0000    6297.7831    6297.7831    6296.0630    6296.0630       0.0000
    6914.0    4950.0000 1526236.0000    3875.0305     129.4375     129.9180       0.0000    6300.3924    6300.3924     130.1426         18       2.0105       0.0000    6297.8514    6297.8514    6296.1818    6296.1818       0.0000
    6915.0    4950.2100 1526236.0000    3875.0305     129.4374     129.9180       0.0000    6300.4584    6300.4584     130.1422         18       3.0105       0.0000    6297.8985    6297.8985    6296.2811    6296.2811       0.0000
    6916.0    4969.5170 1526236.0000    3875.0305     129.4341     129.9171       0.0000    6300.4962    6300.4962     130.1414         18       4.0105       0.0000    6297.9555    6297.9555    6296.2407    6296.2407       0.0000
    6917.0    4924.2835 1526236.0000    3875.0305     129.4351     129.9169       0.0000    6300.5652    6300.5652     130.1408         18       5.0105       0.0000    6298.0301    6298.0301    6296.2793    6296.2793       0.0000
    6918.0    4952.1130 1526236.0000    3875.0305     129.4350     129.9164      -0.0484    6300.6165    6300.5681     130.1401         18       6.0105      -0.0535    6298.0483    6297.9951    6296.3057    6296.1030      -0.2028
    6919.0    5056.7375 1526236.0000    3875.0305     129.4333     129.9139      -0.0509    6300.4574    6300.4066     130.1396         18       7.0105      -0.0565    6297.9856    6297.9289    6296.2724    6296.0698      -0.2026
    6920.0    5032.0840 1526236.0000    3875.0305     129.4316     129.9122      -0.0531    6300.4514    6300.3983     130.1390         18       8.0105      -0.0596    6297.9890    6297.9294    6296.3008    6296.0982      -0.2026
    6921.0    5040.2310 1526236.0000    3875.0305     129.4302     129.9141      -0.0537    6300.4713    6300.4176     130.1384         18       9.0105      -0.0646    6297.7591    6297.6946    6296.1394    6295.9368      -0.2028
    6922.0    5061.6430 1526236.0000    3875.0305     129.4292     129.9111      -0.0527    6300.2240    6300.1712     130.1375         18      10.0105      -0.0678    6297.7247    6297.6570    6296.0128    6295.8100      -0.2029
    6923.0    5026.8450 1526236.0000    3875.0305     129.4275     129.9109      -0.0528    6300.3413    6300.2885     130.1371         18      11.0105      -0.0674    6297.8666    6297.7993    6296.1535    6295.9503      -0.2032
    6924.0    4918.1680 1526236.0000    3875.0305     129.4269     129.9084      -0.0535    6300.4149    6300.3612     130.1363         18      12.0105      -0.0649    6297.9400    6297.8751    6296.1836    6295.9800      -0.2037
    6925.0    4933.4960 1526236.0000    3875.0305     129.4252     129.9089      -0.0531    6300.4542    6300.4012     130.1357         18      13.0105      -0.0622    6297.9833    6297.9212    6296.2844    6296.0802      -0.2041
    6926.0    4886.1155 1526236.0000    3875.0305     129.4256     129.9081      -0.0524    6300.5740    6300.5217     130.1353         18      14.0105      -0.0586    6298.1826    6298.1240    6296.4826    6296.2785      -0.2042
    6927.0    4896.6220 1526236.0000    3875.0305     129.4239     129.9054      -0.0538    6300.7447    6300.6909     130.1343         18      15.0105      -0.0556    6298.3286    6298.2729    6296.5530    6296.3480      -0.2048
    6928.0    4862.0395 1526236.0000    3875.0305     129.4220     129.9066      -0.0555    6300.7576    6300.7020     130.1338         18      16.0105      -0.0543    6298.2216    6298.1674    6296.4772    6296.2716      -0.2054
    6929.0    4960.4515 1526236.0000    3875.0305     129.4211     129.9048      -0.0541    6300.7197    6300.6657     130.1331         18      17.0105      -0.0551    6298.0441    6297.9890    6296.4627    6296.2567      -0.2059
    6930.0    5003.3570 1526236.0000    3875.0305     129.4215     129.9035      -0.0493    6300.7246    6300.6753     130.1326         18      18.0105      -0.0563    6298.1844    6298.1283    6296.4298    6296.2238      -0.2058
    6931.0    5037.1890 1526236.0000    3875.0305     129.4205     129.9020      -0.0447    6300.6127    6300.5681     130.1320         18      19.0105      -0.0562    6298.0211    6297.9649    6296.2941    6296.0880      -0.2061
    6932.0    5055.1365 1526236.0000    3875.0305     129.4189     129.9015      -0.0427    6300.4013    6300.3587     130.1316         18      20.0105      -0.0561    6297.8510    6297.7949    6296.1264    6295.9199      -0.2066
    6933.0    5067.5800 1526236.0000    3875.0305     129.4178     129.9005      -0.0433    6300.4502    6300.4067     130.1306         18      21.0105      -0.0562    6298.0325    6297.9763    6296.3126    6296.1061      -0.2067
    6934.0    5026.4670 1526236.0000    3875.0305     129.4167     129.9020      -0.0456    6300.6827    6300.6369     130.1300         18      22.0105      -0.0547    6298.1300    6298.0752    6296.4223    6296.2158      -0.2065
    6935.0    4882.3675 1526236.0000    3875.0305     129.4170     129.9000      -0.0501    6300.6861    6300.6359     130.1293         18      23.0105      -0.0522    6298.1605    6298.1084    6296.4192    6296.2131      -0.2060
    6936.0    4916.6010 1526236.0000    3875.0305     129.4130     129.8975      -0.0566    6300.6625    6300.6058     130.1288         18      24.0105      -0.0511    6298.1395    6298.0883    6296.5232    6296.3172      -0.2058
    6937.0    4879.0945 1526236.0000    3875.0305     129.4147     129.8969      -0.0618    6300.9296    6300.8677     130.1281         18      25.0105      -0.0530    6298.4840    6298.4311    6296.7373    6296.5317      -0.2055
    6938.0    4887.8110 1526236.0000    3875.0305     129.4123     129.8966      -0.0611    6301.0548    6300.9937     130.1275         18      26.0105      -0.0564    6298.3911    6298.3349    6296.7145    6296.5097      -0.2049
    6939.0    4871.2390 1526236.0000    3875.0305     129.4122     129.8944      -0.0568    6300.7488    6300.6917     130.1266         18      27.0105      -0.0577    6298.2524    6298.1948    6296.5869    6296.3823      -0.2048
    6940.0    4987.8635 1526236.0000    3875.0305     129.4119     129.8936      -0.0502    6300.7775    6300.7274     130.1261         18      28.0105      -0.0582    6298.2632    6298.2051    6296.4608    6296.2562      -0.2046
    6941.0    4975.4725 1526236.0000    3875.0305     129.4104     129.8936      -0.0454    6300.7817    6300.7364     130.1258         18      29.0105      -0.0589    6298.1099    6298.0510    6296.4456    6296.2407      -0.2050
    6942.0    5020.0420 1526236.0000    3875.0305     129.4081     129.8921      -0.0444    6300.7147    6300.6702     130.1249         18      30.0105      -0.0595    6297.8539    6297.7944    6296.2761    6296.0705      -0.2054
    6943.0    5023.4120 1526236.0000    3875.0305     129.4084     129.8916      -0.0450    6300.5586    6300.5135     130.1241         18      31.0105      -0.0593    6298.0818    6298.0224    6296.3614    6296.1549      -0.2064
    6944.0    4966.9605 1526236.0000    3875.0305     129.4072     129.8929      -0.0472    6300.7915    6300.7444     130.1234         18      32.0105      -0.0578    6298.1962    6298.1384    6296.4495    6296.2425      -0.2072
    6945.0    4869.3885 1526236.0000    3875.0305     129.4065     129.8898      -0.0505    6300.8172    6300.7669     130.1227         18      33.0105      -0.0567    6298.2815    6298.2249    6296.5228    6296.3148      -0.2079
    6946.0    4905.8425 1526236.0000    3875.0305     129.4042     129.8893      -0.0538    6300.7221    6300.6682     130.1222         18      34.0105      -0.0574    6298.2112    6298.1539    6296.5293    6296.3208      -0.2084
