~VERSION INFORMATION
VERS.           2.0   :CWLS Log ASCII Standard - VERSION 2.0
WRAP.           NO    :One Line per depth step
PROD.  Schlumberger   :LAS Producer
PROG.  DLIS to ASCII 2.2                               :LAS Program name and version
CREA.        2020/10/30 12:18                          :LAS Creation date {YYYY/MM/DD hh:mm}
SOURCE.     XPT_HRLA_TLD_MCFL_057LTP.DLIS              :DLIS File Name
FILE-ID.     XPT_HRLA_TLD_MCFL_057LTP                  :File Identification Number
#--------------------------------------------------
~WELL INFORMATION
#MNEM.UNIT      DATA             DESCRIPTION
#---- ------ --------------   -----------------------------
STRT .S         6912.0       :START TIME      
STOP .S         7441.0       :STOP TIME      
STEP .S            1.0       :STEP     
NULL .          -999.25      :NULL VALUE
COMP .        Nexus Energy                             :COMPANY
WELL .        Crux-3                                   :WELL
FLD  .        Crux                                     :FIELD
LOC  .        Easting: 656981.7mE                      :LOCATION
CNTY .        Sedco-703                                :COUNTY
STAT .        Northern Territory                       :STATE
CTRY .        Australia                                :COUNTRY
API  .                                                 :API NUMBER
UWI  .                                                 :UNIQUE WELL ID
DATE .        31-Dec-2007                              :LOG DATE {DD-MMM-YYYY}
SRVC .        Schlumberger                             :SERVICE COMPANY
LATI .DEG     12*57'32.63" S                           :LATITUDE
LONG .DEG     124*26'50.07" E                          :LONGITUDE
GDAT .                                                 :GeoDetic Datum
#-----------------------------------------------------------------------------
~PARAMETER INFORMATION
#MNEM.UNIT    VALUE                      DESCRIPTION
#---- -----   --------------------       ------------------------
RUN  .          1                        :RUN NUMBER
PDAT .        LAT                        :Permanent Datum
EPD  .M           0.000000               :Elevation of Permanent Datum above Mean Sea Level
EPD  .M           0.000000               :Elevation of tool zero above Mean Sea Level
LMF  .          DF                       :Logging Measured From (Name of Logging Elevation Reference)
APD  .M          26.400000               :Elevation of Depth Reference (LMF) above Permanent Datum
#-----------------------------------------------------------------------------
~CURVE INFORMATION
#MNEM.UNIT   API CODE                                  DESCRIPTION
#---- -----  --------                                  -----------------------
TIME .S                                                :TIME {F10.1}
TENS_SL.LBF                                            :Cable Tension {F13.4}
DEPT_SL..1IN                                           :Station logging depth {F13.4}
PDEP_XPT.M                                             :XPT Probe Depth {F13.4}
MTEP_SAP.DEGC                                          :Sapphire Gauge Manometer Temperature {F13.4}
MTEP_HYD.DEGC                                          :Hydrostatic Sapphire Gauge Manometer Temperature {F13.4}
PCO_HYD.PSI                                            :Hydrostatic Sapphire Dynamic Compensation {F13.4}
PND_HYD.PSI                                            :Hydrostatic Sapphire Pressure Without Dynamic Compensation {F13.4}
CP_HYD.PSI                                             :Hydrostatic Sapphire Pressure With Dynamic Compensation {F13.4}
MTEP_QG.DEGC                                           :CQG Manometer Temperature {F13.4}
PTNO_XPT.                                              :XPT Pretest Number {I11}
ETIM_XPT.S                                             :Elapsed Logging Time {F13.4}
PCO_SAP.PSI                                            :Sapphire Dynamic Compensation {F13.4}
PND_SAP.PSI                                            :Sapphire Pressure Without Dynamic Compensation {F13.4}
CP_SAP.PSI                                             :Sapphire Pressure With Dynamic Compensation {F13.4}
QNDP .PSI                                              :CQG Pressure Without Dynamic Compensation {F13.4}
QCP  .PSI                                              :CQG Pressure With Dynamic Compensation {F13.4}
QPCO .PSI                                              :CQG Dynamic Compensation {F13.4}
#-----------------------------------------------------------------------------
# 
#     TIME      TENS_SL      DEPT_SL      PDEP_XPT     MTEP_SAP     MTEP_HYD     PCO_HYD      PND_HYD       CP_HYD      MTEP_QG       PTNO_XPT       ETIM_XPT     PCO_SAP      PND_SAP       CP_SAP        QNDP         QCP          QPCO
#
~A  
# ...
    7402.0    4936.2020 1526236.0000    3875.0305     129.1294     129.5209      -0.0244    6300.7178    6300.6933     129.8341         20     490.0105       0.8235    6303.9010    6304.7244    6294.4540    6296.7145       2.2603
    7403.0    4861.1680 1526236.0000    3875.0305     129.1288     129.5193      -0.0240    6300.8023    6300.7783     129.8385         20     491.0105       0.4698    6303.2901    6303.7601    6294.8192    6296.8642       2.0449
    7404.0    4876.8425 1526236.0000    3875.0305     129.1207     129.5208      -0.0254    6300.9461    6300.9207     129.8431         20     492.0105       0.0713    6302.2030    6302.2744    6295.1488    6296.8677       1.7188
    7405.0    4861.6325 1526236.0000    3875.0305     129.1137     129.5194      -0.0285    6301.0794    6301.0507     129.8478         20     493.0105      -0.2299    6301.6433    6301.4134    6295.4450    6296.8984       1.4534
    7406.0    4827.0000 1526236.0000    3875.0305     129.1049     129.5186      -0.0318    6301.1109    6301.0790     129.8528         20     494.0105      -0.3753    6300.9758    6300.6006    6295.6367    6296.9386       1.3021
    7407.0    4827.4095 1526236.0000    3875.0305     129.0978     129.5189      -0.0336    6300.9977    6300.9640     129.8565         20     495.0105      -0.4110    6300.4446    6300.0335    6295.8093    6297.0029       1.1935
    7408.0    4866.6300 1526236.0000    3875.0305     129.0896     129.5165      -0.0339    6300.9508    6300.9168     129.8604         20     496.0105      -0.4052    6300.0395    6299.6344    6295.9930    6297.0542       1.0610
    7409.0    4926.4620 1526236.0000    3875.0305     129.0819     129.5165      -0.0326    6301.0072    6300.9747     129.8636         20     497.0105      -0.3871    6299.6822    6299.2951    6296.1348    6297.0451       0.9106
    7410.0    4970.0105 1526236.0000    3875.0305     129.0748     129.5168      -0.0299    6300.9487    6300.9189     129.8662         20     498.0105      -0.3644    6299.3575    6298.9930    6296.2197    6296.9754       0.7559
    7411.0    4971.1260 1526236.0000    3875.0305     129.0690     129.5156      -0.0263    6300.9032    6300.8767     129.8680         20     499.0105      -0.3394    6299.1036    6298.7642    6296.2387    6296.8443       0.6055
    7412.0    4983.1365 1526236.0000    3875.0305     129.0628     129.5148      -0.0231    6300.9102    6300.8869     129.8699         20     500.0105      -0.3127    6298.9519    6298.6390    6296.3578    6296.8222       0.4645
    7413.0    4996.0105 1526236.0000    3875.0305     129.0575     129.5155      -0.0204    6300.8772    6300.8568     129.8707         20     501.0105      -0.2860    6298.8270    6298.5411    6296.4331    6296.7683       0.3351
    7414.0    4996.9580 1526236.0000    3875.0305     129.0530     129.5148      -0.0185    6300.8719    6300.8535     129.8717         20     502.0105      -0.2604    6298.7116    6298.4511    6296.5295    6296.7484       0.2188
    7415.0    4992.3280 1526236.0000    3875.0305     129.0486     129.5149      -0.0182    6300.8685    6300.8505     129.8721         20     503.0105      -0.2367    6298.7161    6298.4792    6296.5660    6296.6821       0.1160
    7416.0    4928.3490 1526236.0000    3875.0305     129.0443     129.5138      -0.0193    6300.8598    6300.8403     129.8723         20     504.0105      -0.2145    6298.6206    6298.4060    6296.6218    6296.6483       0.0263
    7417.0    4866.7795 1526236.0000    3875.0305     129.0394     129.5135      -0.0204    6300.9186    6300.8981     129.8720         20     505.0105      -0.1942    6298.5635    6298.3693    6296.7049    6296.6540      -0.0509
    7418.0    4845.7165 1526236.0000    3875.0305     129.0385     129.5145      -0.0210    6301.0786    6301.0578     129.8716         20     506.0105      -0.1732    6298.6704    6298.4971    6296.8075    6296.6777      -0.1297
    7419.0    4818.8740 1526236.0000    3875.0305     129.0345     129.5125      -0.0227    6301.0062    6300.9837     129.8712         20     507.0105      -0.1618    6298.5039    6298.3419    6296.8221    6296.6483      -0.1738
    7420.0    4807.2520 1526236.0000    3875.0305     129.0317     129.5117      -0.0268    6301.0395    6301.0126     129.8706         20     508.0105      -0.1493    6298.4918    6298.3424    6296.8870    6296.6653      -0.2215
    7421.0    4831.7560 1526236.0000    3875.0305     129.0294     129.5136      -0.0303    6301.1207    6301.0902     129.8697         20     509.0105      -0.1335    6298.6016    6298.4679    6296.9790    6296.7083      -0.2705
    7422.0    4903.8400 1526236.0000    3875.0305     129.0273     129.5110      -0.0308    6301.0518    6301.0211     129.8689         20     510.0105      -0.1231    6298.5905    6298.4676    6296.9953    6296.6976      -0.2976
    7423.0    4982.9790 1526236.0000    3875.0305     129.0247     129.5117      -0.0308    6300.9980    6300.9673     129.8678         20     511.0105      -0.1107    6298.5126    6298.4021    6296.9666    6296.6405      -0.3261
    7424.0    4980.8425 1526236.0000    3875.0305     129.0222     129.5087      -0.0316    6300.9653    6300.9336     129.8666         20     512.0105      -0.1003    6298.3048    6298.2043    6296.8938    6296.5450      -0.3490
    7425.0    4965.9160 1526236.0000    3875.0305     129.0216     129.5095      -0.0311    6300.8571    6300.8259     129.8657         20     513.0105      -0.0911    6298.4501    6298.3589    6296.8655    6296.4981      -0.3672
    7426.0    4957.7165 1526236.0000    3875.0305     129.0198     129.5093      -0.0277    6300.8511    6300.8233     129.8644         20     514.0105      -0.0826    6298.3254    6298.2428    6296.8366    6296.4549      -0.3816
    7427.0    4930.6115 1526236.0000    3875.0305     129.0171     129.5087      -0.0238    6300.9048    6300.8811     129.8632         20     515.0105      -0.0765    6298.3634    6298.2868    6296.9110    6296.5188      -0.3921
    7428.0    4893.4750 1526236.0000    3875.0305     129.0174     129.5065      -0.0227    6300.8826    6300.8601     129.8620         20     516.0105      -0.0731    6298.4154    6298.3422    6296.9759    6296.5759      -0.3999
    7429.0    4844.2415 1526236.0000    3875.0305     129.0165     129.5079      -0.0240    6301.0176    6300.9935     129.8608         20     517.0105      -0.0709    6298.3978    6298.3267    6297.0107    6296.6047      -0.4060
    7430.0    4866.6220 1526236.0000    3875.0305     129.0150     129.5078      -0.0249    6301.0587    6301.0338     129.8594         20     518.0105      -0.0687    6298.5591    6298.4906    6297.1085    6296.6973      -0.4110
    7431.0    4831.3780 1526236.0000    3875.0305     129.0127     129.5079      -0.0248    6301.0799    6301.0550     129.8583         20     519.0105      -0.0672    6298.4313    6298.3640    6297.1188    6296.7038      -0.4149
    7432.0    4866.5800 1526236.0000    3875.0305     129.0106     129.5069      -0.0249    6301.1762    6301.1513     129.8570         20     520.0105      -0.0658    6298.4481    6298.3824    6297.0681    6296.6505      -0.4177
    7433.0    4826.9370 1526236.0000    3875.0305     129.0115     129.5054      -0.0251    6301.0898    6301.0647     129.8555         20     521.0105      -0.0629    6298.5574    6298.4946    6297.0552    6296.6355      -0.4199
    7434.0    4821.6930 1526236.0000    3875.0305     129.0108     129.5049      -0.0228    6301.1621    6301.1392     129.8543         20     522.0105      -0.0586    6298.4109    6298.3523    6297.0061    6296.5852      -0.4211
    7435.0    4887.8610 1526236.0000    3875.0305     129.0075     129.5054      -0.0180    6301.0663    6301.0483     129.8529         20     523.0105      -0.0550    6298.2408    6298.1856    6296.9324    6296.5120      -0.4205
    7436.0    4969.4935 1526236.0000    3875.0305     129.0075     129.5051      -0.0147    6301.0053    6301.0386     129.8515         20     524.0105      -0.0523    6298.3075    6298.3066    6296.9231    6296.5122      -0.4193
