~VERSION INFORMATION
VERS.           2.0   :CWLS Log ASCII Standard - VERSION 2.0
WRAP.           NO    :One Line per depth step
PROD.  Schlumberger   :LAS Producer
PROG.  DLIS to ASCII 2.2                               :LAS Program name and version
CREA.        2020/10/30 12:18                          :LAS Creation date {YYYY/MM/DD hh:mm}
SOURCE.     XPT_HRLA_TLD_MCFL_045LTP.DLIS              :DLIS File Name
FILE-ID.     XPT_HRLA_TLD_MCFL_045LTP                  :File Identification Number
#--------------------------------------------------
~WELL INFORMATION
#MNEM.UNIT      DATA             DESCRIPTION
#---- ------ --------------   -----------------------------
STRT .S         3688.0       :START TIME      
STOP .S         4251.0       :STOP TIME      
STEP .S            1.0       :STEP     
NULL .          -999.25      :NULL VALUE
COMP .        Nexus Energy                             :COMPANY
WELL .        Crux-3                                   :WELL
FLD  .        Crux                                     :FIELD
LOC  .        Easting: 656981.7mE                      :LOCATION
CNTY .        Sedco-703                                :COUNTY
STAT .        Northern Territory                       :STATE
CTRY .        Australia                                :COUNTRY
API  .                                                 :API NUMBER
UWI  .                                                 :UNIQUE WELL ID
DATE .        31-Dec-2007                              :LOG DATE {DD-MMM-YYYY}
SRVC .        Schlumberger                             :SERVICE COMPANY
LATI .DEG     12*57'32.63" S                           :LATITUDE
LONG .DEG     124*26'50.07" E                          :LONGITUDE
GDAT .                                                 :GeoDetic Datum
#-----------------------------------------------------------------------------
~PARAMETER INFORMATION
#MNEM.UNIT    VALUE                      DESCRIPTION
#---- -----   --------------------       ------------------------
RUN  .          1                        :RUN NUMBER
PDAT .        LAT                        :Permanent Datum
EPD  .M           0.000000               :Elevation of Permanent Datum above Mean Sea Level
EPD  .M           0.000000               :Elevation of tool zero above Mean Sea Level
LMF  .          DF                       :Logging Measured From (Name of Logging Elevation Reference)
APD  .M          26.400000               :Elevation of Depth Reference (LMF) above Permanent Datum
#-----------------------------------------------------------------------------
~CURVE INFORMATION
#MNEM.UNIT   API CODE                                  DESCRIPTION
#---- -----  --------                                  -----------------------
TIME .S                                                :TIME {F10.1}
TENS_SL.LBF                                            :Cable Tension {F13.4}
DEPT_SL..1IN                                           :Station logging depth {F13.4}
PDEP_XPT.M                                             :XPT Probe Depth {F13.4}
MTEP_SAP.DEGC                                          :Sapphire Gauge Manometer Temperature {F13.4}
MTEP_HYD.DEGC                                          :Hydrostatic Sapphire Gauge Manometer Temperature {F13.4}
PCO_HYD.PSI                                            :Hydrostatic Sapphire Dynamic Compensation {F13.4}
PND_HYD.PSI                                            :Hydrostatic Sapphire Pressure Without Dynamic Compensation {F13.4}
CP_HYD.PSI                                             :Hydrostatic Sapphire Pressure With Dynamic Compensation {F13.4}
MTEP_QG.DEGC                                           :CQG Manometer Temperature {F13.4}
PTNO_XPT.                                              :XPT Pretest Number {I11}
ETIM_XPT.S                                             :Elapsed Logging Time {F13.4}
PCO_SAP.PSI                                            :Sapphire Dynamic Compensation {F13.4}
PND_SAP.PSI                                            :Sapphire Pressure Without Dynamic Compensation {F13.4}
CP_SAP.PSI                                             :Sapphire Pressure With Dynamic Compensation {F13.4}
QNDP .PSI                                              :CQG Pressure Without Dynamic Compensation {F13.4}
QCP  .PSI                                              :CQG Pressure With Dynamic Compensation {F13.4}
QPCO .PSI                                              :CQG Dynamic Compensation {F13.4}
#-----------------------------------------------------------------------------
# 
#     TIME      TENS_SL      DEPT_SL      PDEP_XPT     MTEP_SAP     MTEP_HYD     PCO_HYD      PND_HYD       CP_HYD      MTEP_QG       PTNO_XPT       ETIM_XPT     PCO_SAP      PND_SAP       CP_SAP        QNDP         QCP          QPCO
#
~A  
# ...
    4143.0    4864.2625 1440603.0000    3657.5227     121.8276     122.3714      -0.0060    5955.6864    5955.6806     122.4630          8     455.0725      -0.0137    5525.0377    5525.0241    5522.3436    5522.3202      -0.0236
    4144.0    4909.4075 1440603.0000    3657.5227     121.8241     122.3722      -0.0056    5955.5662    5955.5604     122.4632          8     456.0725      -0.0141    5524.8315    5524.8173    5522.3476    5522.3237      -0.0238
    4145.0    4952.2025 1440603.0000    3657.5227     121.8249     122.3709      -0.0040    5955.5080    5955.5039     122.4631          8     457.0725      -0.0120    5524.8971    5524.8850    5522.3456    5522.3217      -0.0241
    4146.0    4941.3475 1440603.0000    3657.5227     121.8257     122.3729      -0.0025    5955.5884    5955.5859     122.4630          8     458.0725      -0.0072    5524.9185    5524.9115    5522.3479    5522.3240      -0.0238
    4147.0    4929.2300 1440603.0000    3657.5227     121.8246     122.3712      -0.0020    5955.4656    5955.4637     122.4631          8     459.0725      -0.0015    5524.8441    5524.8426    5522.3420    5522.3190      -0.0232
    4148.0    4878.3175 1440603.0000    3657.5227     121.8263     122.3722      -0.0022    5955.5806    5955.5783     122.4628          8     460.0725       0.0029    5524.8734    5524.8764    5522.3462    5522.3229      -0.0232
    4149.0    4845.5950 1440603.0000    3657.5227     121.8248     122.3714      -0.0019    5955.5723    5955.5703     122.4626          8     461.0725       0.0042    5524.9130    5524.9174    5522.3481    5522.3246      -0.0234
    4150.0    4864.9125 1440603.0000    3657.5227     121.8257     122.3716      -0.0008    5955.5291    5955.5282     122.4626          8     462.0725       0.0021    5524.8984    5524.9006    5522.3489    5522.3256      -0.0233
    4151.0    4852.6675 1440603.0000    3657.5227     121.8258     122.3719      -0.0002    5955.5545    5955.5545     122.4626          8     463.0725      -0.0015    5524.9257    5524.9242    5522.3461    5522.3234      -0.0227
    4152.0    4878.9300 1440603.0000    3657.5227     121.8272     122.3714      -0.0006    5955.4856    5955.4852     122.4625          8     464.0725      -0.0054    5524.9398    5524.9345    5522.3443    5522.3219      -0.0226
    4153.0    4939.2450 1440603.0000    3657.5227     121.8257     122.3719      -0.0014    5955.4806    5955.4791     122.4624          8     465.0725      -0.0083    5524.9792    5524.9707    5522.3526    5522.3292      -0.0233
    4154.0    4904.8700 1440603.0000    3657.5227     121.8247     122.3717      -0.0018    5955.5385    5955.5366     122.4624          8     466.0725      -0.0104    5524.9075    5524.8970    5522.3493    5522.3253      -0.0237
    4155.0    4916.7975 1440603.0000    3657.5227     121.8251     122.3724      -0.0016    5955.4963    5955.4948     122.4622          8     467.0725      -0.0105    5524.9478    5524.9371    5522.3437    5522.3202      -0.0236
    4156.0    4925.2600 1440603.0000    3657.5227     121.8248     122.3711      -0.0010    5955.4353    5955.4343     122.4624          8     468.0725      -0.0091    5524.9144    5524.9052    5522.3486    5522.3252      -0.0234
    4157.0    4899.0850 1440603.0000    3657.5227     121.8248     122.3719       0.0008    5955.4333    5955.4340     122.4622          8     469.0725      -0.0077    5524.9539    5524.9461    5522.3508    5522.3274      -0.0235
    4158.0    4847.9850 1440603.0000    3657.5227     121.8253     122.3715       0.0036    5955.5080    5955.5118     122.4620          8     470.0725      -0.0069    5524.8905    5524.8836    5522.3486    5522.3252      -0.0236
    4159.0    4835.1450 1440603.0000    3657.5227     121.8235     122.3703       0.0057    5955.4419    5955.4477     122.4621          8     471.0725      -0.0059    5524.8866    5524.8807    5522.3501    5522.3268      -0.0232
    4160.0    4837.6525 1440603.0000    3657.5227     121.8242     122.3716       0.0061    5955.5491    5955.5552     122.4620          8     472.0725      -0.0046    5524.9590    5524.9544    5522.3521    5522.3292      -0.0228
    4161.0    4847.1600 1440603.0000    3657.5227     121.8227     122.3715       0.0045    5955.5792    5955.5837     122.4619          8     473.0725      -0.0053    5524.8158    5524.8104    5522.3556    5522.3326      -0.0228
    4162.0    4864.6825 1440603.0000    3657.5227     121.8238     122.3729       0.0010    5955.7075    5955.7086     122.4619          8     474.0725      -0.0076    5524.8675    5524.8599    5522.3511    5522.3282      -0.0229
    4163.0    4901.8275 1440603.0000    3657.5227     121.8254     122.3725      -0.0042    5955.5494    5955.5451     122.4618          8     475.0725      -0.0091    5524.9520    5524.9429    5522.3515    5522.3290      -0.0225
    4164.0    4940.3925 1440603.0000    3657.5227     121.8237     122.3721      -0.0088    5955.5253    5955.5166     122.4617          8     476.0725      -0.0081    5524.9328    5524.9245    5522.3516    5522.3296      -0.0221
    4165.0    4968.9700 1440603.0000    3657.5227     121.8241     122.3722      -0.0103    5955.5133    5955.5031     122.4614          8     477.0725      -0.0068    5524.9452    5524.9384    5522.3491    5522.3271      -0.0220
    4166.0    4941.7675 1440603.0000    3657.5227     121.8223     122.3716      -0.0087    5955.5017    5955.4930     122.4616          8     478.0725      -0.0071    5524.9198    5524.9127    5522.3517    5522.3295      -0.0222
    4167.0    4926.8700 1440603.0000    3657.5227     121.8220     122.3713      -0.0061    5955.5065    5955.5005     122.4612          8     479.0725      -0.0076    5524.9151    5524.9073    5522.3433    5522.3209      -0.0225
    4168.0    4939.8125 1440603.0000    3657.5227     121.8233     122.3707      -0.0032    5955.4006    5955.3974     122.4613          8     480.0725      -0.0059    5524.8387    5524.8326    5522.3520    5522.3291      -0.0228
    4169.0    4961.9850 1440603.0000    3657.5227     121.8235     122.3714      -0.0004    5955.5596    5955.5592     122.4613          8     481.0725      -0.0025    5524.8847    5524.8824    5522.3535    5522.3297      -0.0236
    4170.0    4945.8825 1440603.0000    3657.5227     121.8235     122.3722       0.0014    5955.6401    5955.6416     122.4613          8     482.0725       0.0001    5524.8830    5524.8829    5522.3576    5522.3331      -0.0242
    4171.0    4902.2300 1440603.0000    3657.5227     121.8222     122.3706       0.0019    5955.5049    5955.5068     122.4611          8     483.0725       0.0000    5524.9276    5524.9275    5522.3555    5522.3312      -0.0242
    4172.0    4854.0000 1440603.0000    3657.5227     121.8228     122.3729       0.0023    5955.5283    5955.5308     122.4609          8     484.0725      -0.0027    5524.9171    5524.9143    5522.3548    5522.3314      -0.0235
    4173.0    4853.7100 1440603.0000    3657.5227     121.8222     122.3706       0.0034    5955.5645    5955.5678     122.4608          8     485.0725      -0.0066    5524.8926    5524.8859    5522.3546    5522.3321      -0.0225
    4174.0    4849.7100 1440603.0000    3657.5227     121.8249     122.3712       0.0035    5955.6452    5955.6486     122.4610          8     486.0725      -0.0095    5524.9517    5524.9423    5522.3536    5522.3316      -0.0218
    4175.0    4844.5500 1440603.0000    3657.5227     121.8236     122.3709       0.0025    5955.6863    5955.6890     122.4609          8     487.0725      -0.0104    5524.8468    5524.8365    5522.3534    5522.3319      -0.0214
    4176.0    4832.0175 1440603.0000    3657.5227     121.8227     122.3729       0.0016    5955.7075    5955.7090     122.4610          8     488.0725      -0.0100    5524.8922    5524.8823    5522.3563    5522.3348      -0.0214
    4177.0    4909.2900 1440603.0000    3657.5227     121.8205     122.3726       0.0011    5955.5845    5955.5855     122.4606          8     489.0725      -0.0082    5524.8136    5524.8055    5522.3510    5522.3290      -0.0220
