~VERSION INFORMATION
VERS.           2.0   :CWLS Log ASCII Standard - VERSION 2.0
WRAP.           NO    :One Line per depth step
PROD.  Schlumberger   :LAS Producer
PROG.  DLIS to ASCII 2.2                               :LAS Program name and version
CREA.        2020/10/30 12:18                          :LAS Creation date {YYYY/MM/DD hh:mm}
SOURCE.     XPT_HRLA_TLD_MCFL_040LTP.DLIS              :DLIS File Name
FILE-ID.     XPT_HRLA_TLD_MCFL_040LTP                  :File Identification Number
#--------------------------------------------------
~WELL INFORMATION
#MNEM.UNIT      DATA             DESCRIPTION
#---- ------ --------------   -----------------------------
STRT .S          916.0       :START TIME      
STOP .S         1395.0       :STOP TIME      
STEP .S            1.0       :STEP     
NULL .          -999.25      :NULL VALUE
COMP .        Nexus Energy                             :COMPANY
WELL .        Crux-3                                   :WELL
FLD  .        Crux                                     :FIELD
LOC  .        Easting: 656981.7mE                      :LOCATION
CNTY .        Sedco-703                                :COUNTY
STAT .        Northern Territory                       :STATE
CTRY .        Australia                                :COUNTRY
API  .                                                 :API NUMBER
UWI  .                                                 :UNIQUE WELL ID
DATE .        31-Dec-2007                              :LOG DATE {DD-MMM-YYYY}
SRVC .        Schlumberger                             :SERVICE COMPANY
LATI .DEG     12*57'32.63" S                           :LATITUDE
LONG .DEG     124*26'50.07" E                          :LONGITUDE
GDAT .                                                 :GeoDetic Datum
#-----------------------------------------------------------------------------
~PARAMETER INFORMATION
#MNEM.UNIT    VALUE                      DESCRIPTION
#---- -----   --------------------       ------------------------
RUN  .          1                        :RUN NUMBER
PDAT .        LAT                        :Permanent Datum
EPD  .M           0.000000               :Elevation of Permanent Datum above Mean Sea Level
EPD  .M           0.000000               :Elevation of tool zero above Mean Sea Level
LMF  .          DF                       :Logging Measured From (Name of Logging Elevation Reference)
APD  .M          26.400000               :Elevation of Depth Reference (LMF) above Permanent Datum
#-----------------------------------------------------------------------------
~CURVE INFORMATION
#MNEM.UNIT   API CODE                                  DESCRIPTION
#---- -----  --------                                  -----------------------
TIME .S                                                :TIME {F10.1}
TENS_SL.LBF                                            :Cable Tension {F13.4}
DEPT_SL..1IN                                           :Station logging depth {F13.4}
PDEP_XPT.M                                             :XPT Probe Depth {F13.4}
MTEP_SAP.DEGC                                          :Sapphire Gauge Manometer Temperature {F13.4}
MTEP_HYD.DEGC                                          :Hydrostatic Sapphire Gauge Manometer Temperature {F13.4}
PCO_HYD.PSI                                            :Hydrostatic Sapphire Dynamic Compensation {F13.4}
PND_HYD.PSI                                            :Hydrostatic Sapphire Pressure Without Dynamic Compensation {F13.4}
CP_HYD.PSI                                             :Hydrostatic Sapphire Pressure With Dynamic Compensation {F13.4}
MTEP_QG.DEGC                                           :CQG Manometer Temperature {F13.4}
PTNO_XPT.                                              :XPT Pretest Number {I11}
ETIM_XPT.S                                             :Elapsed Logging Time {F13.4}
PCO_SAP.PSI                                            :Sapphire Dynamic Compensation {F13.4}
PND_SAP.PSI                                            :Sapphire Pressure Without Dynamic Compensation {F13.4}
CP_SAP.PSI                                             :Sapphire Pressure With Dynamic Compensation {F13.4}
QNDP .PSI                                              :CQG Pressure Without Dynamic Compensation {F13.4}
QCP  .PSI                                              :CQG Pressure With Dynamic Compensation {F13.4}
QPCO .PSI                                              :CQG Dynamic Compensation {F13.4}
#-----------------------------------------------------------------------------
# 
#     TIME      TENS_SL      DEPT_SL      PDEP_XPT     MTEP_SAP     MTEP_HYD     PCO_HYD      PND_HYD       CP_HYD      MTEP_QG       PTNO_XPT       ETIM_XPT     PCO_SAP      PND_SAP       CP_SAP        QNDP         QCP          QPCO
#
~A  
# ...
    1021.0    4668.9828 1419728.0000    3604.5000     119.1424     119.6890       0.0040    5871.5662    5871.5704     119.6854          4     104.8453       0.1070    5870.6244    5870.7316    5867.0566    5867.4790       0.4224
    1022.0    4671.5250 1419728.0000    3604.5000     119.1410     119.6879       0.0028    5871.5943    5871.5972     119.6867          4     105.8453       0.0718    5874.8898    5874.9617    5871.4108    5871.8354       0.4247
    1023.0    4712.8844 1419728.0000    3604.5000     119.1454     119.6879       0.0026    5871.5582    5871.5607     119.6894          4     106.8453       0.0467    5918.8498    5918.8966    5914.9327    5915.3568       0.4241
    1024.0    4714.9281 1419728.0000    3604.5000     119.1507     119.6877       0.0036    5871.6559    5871.6596     119.6913          4     107.8453       0.0232    5932.6264    5932.6495    5928.9242    5929.3318       0.4076
    1025.0    4703.0109 1419728.0000    3604.5000     119.1479     119.6878       0.0052    5871.6692    5871.6745     119.6918          4     108.8453      -0.0049    5919.3856    5919.3809    5915.8961    5916.2667       0.3708
    1026.0    4720.4422 1419728.0000    3604.5000     119.1458     119.6883       0.0067    5871.5284    5871.5353     119.6928          4     109.8453      -0.0357    5916.6056    5916.5701    5913.4159    5913.7379       0.3220
    1027.0    4737.5250 1419728.0000    3604.5000     119.1438     119.6896       0.0074    5871.4974    5871.5047     119.6937          4     110.8453      -0.0605    5910.5084    5910.4480    5907.4073    5907.6839       0.2766
    1028.0    4760.2875 1419728.0000    3604.5000     119.1428     119.6872       0.0074    5871.4201    5871.4274     119.6948          4     111.8453      -0.0721    5905.8216    5905.7496    5902.9977    5903.2410       0.2433
    1029.0    4768.2266 1419728.0000    3604.5000     119.1419     119.6901       0.0071    5871.4878    5871.4946     119.6954          4     112.8453      -0.0720    5906.9762    5906.9042    5904.0375    5904.2546       0.2173
    1030.0    4779.9891 1419728.0000    3604.5000     119.1399     119.6879       0.0070    5871.4644    5871.4712     119.6962          4     113.8453      -0.0671    5906.9223    5906.8551    5904.0123    5904.2031       0.1909
    1031.0    4720.2922 1419728.0000    3604.5000     119.1402     119.6897       0.0080    5871.5431    5871.5513     119.6968          4     114.8453      -0.0617    5906.0875    5906.0257    5903.3011    5903.4633       0.1624
    1032.0    4712.3813 1419728.0000    3604.5000     119.1386     119.6886       0.0100    5871.7100    5871.7199     119.6975          4     115.8453      -0.0551    5904.8359    5904.7806    5902.0318    5902.1663       0.1344
    1033.0    4685.1047 1419728.0000    3604.5000     119.1364     119.6894       0.0115    5871.6587    5871.6702     119.6977          4     116.8453      -0.0467    5900.6811    5900.6344    5898.0807    5898.1894       0.1088
    1034.0    4659.7125 1419728.0000    3604.5000     119.1374     119.6895       0.0113    5871.7348    5871.7460     119.6980          4     117.8453      -0.0378    5897.7170    5897.6793    5895.2267    5895.3137       0.0869
    1035.0    4656.8453 1419728.0000    3604.5000     119.1351     119.6900       0.0096    5871.6653    5871.6750     119.6981          4     118.8453      -0.0309    5896.0173    5895.9863    5893.4993    5893.5694       0.0701
    1036.0    4738.9953 1419728.0000    3604.5000     119.1356     119.6903       0.0081    5871.7135    5871.7216     119.6982          4     119.8453      -0.0259    5894.8706    5894.8447    5892.3273    5892.3849       0.0578
    1037.0    4758.2266 1419728.0000    3604.5000     119.1368     119.6909       0.0070    5871.5660    5871.5730     119.6982          4     120.8453      -0.0211    5894.2044    5894.1831    5891.6756    5891.7244       0.0489
    1038.0    4764.9172 1419728.0000    3604.5000     119.1356     119.6900       0.0052    5871.5238    5871.5290     119.6983          4     121.8453      -0.0182    5893.6015    5893.5832    5891.1334    5891.1730       0.0394
    1039.0    4794.7406 1419728.0000    3604.5000     119.1328     119.6907       0.0029    5871.2559    5871.2589     119.6988          4     122.8453      -0.0400    5893.0647    5893.0246    5890.5949    5890.5892      -0.0057
    1040.0    4802.5359 1419728.0000    3604.5000     119.1338     119.6911       0.0022    5871.3521    5871.3545     119.6988          4     123.8453      -0.1627    5892.6986    5892.5356    5890.1502    5889.9418      -0.2083
    1041.0    4748.9000 1419728.0000    3604.5000     119.1345     119.6901       0.0029    5871.4462    5871.4492     119.6988          4     124.8453      -0.2956    5892.2758    5891.9803    5889.7133    5889.2895      -0.4239
    1042.0    4706.0328 1419728.0000    3604.5000     119.1347     119.6909       0.0044    5871.6003    5871.6047     119.6989          4     125.8453      -0.5019    5891.7623    5891.2603    5889.2804    5888.5118      -0.7689
    1043.0    4679.7125 1419728.0000    3604.5000     119.1341     119.6890       0.0059    5871.5685    5871.5742     119.6992          4     126.8453      -0.6666    5891.4841    5890.8175    5888.8981    5887.8119      -1.0863
    1044.0    4665.0109 1419728.0000    3604.5000     119.1191     119.6910       0.0080    5871.8358    5871.8438     119.6949          5     127.8453      -0.7407    5790.8145    5790.0739    5790.5166    5789.1895      -1.3269
    1045.0    4664.6906 1419728.0000    3604.5000     119.0618     119.6905       0.0100    5871.7894    5871.7994     119.6792          5     128.8453      -0.7180    5447.3222    5446.6041    5450.5130    5449.0289      -1.4840
    1046.0    4670.0719 1419728.0000    3604.5000     119.0519     119.6911       0.0102    5871.7248    5871.7351     119.6762          5     129.8453      -0.5980    5418.3231    5417.7249    5421.1585    5419.6263      -1.5323
    1047.0    4746.2328 1419728.0000    3604.5000     119.0463     119.6905       0.0089    5871.6105    5871.6192     119.6722          5     130.8453      -0.3823    5406.4639    5406.0814    5408.7040    5407.2613      -1.4426
    1048.0    4760.0000 1419728.0000    3604.5000     119.0526     119.6913       0.0079    5871.5606    5871.5684     119.6688          5     131.8453      -0.1231    5408.6721    5408.5488    5409.9128    5408.6471      -1.2659
    1049.0    4759.1547 1419728.0000    3604.5000     119.0555     119.6921       0.0079    5871.4842    5871.4920     119.6651          5     132.8453       0.1020    5403.1668    5403.2688    5403.7718    5402.6859      -1.0860
    1050.0    4771.6788 1419728.0000    3604.5000     119.0606     119.6910       0.0079    5871.4034    5871.4112     119.6616          5     133.8453       0.2508    5403.2381    5403.4890    5403.1524    5402.2176      -0.9350
    1051.0    4757.0950 1419728.0000    3604.5000     119.0650     119.6914       0.0075    5871.4601    5871.4674     119.6581          5     134.8453       0.3378    5403.6814    5404.0192    5403.1569    5402.3717      -0.7852
    1052.0    4699.0588 1419728.0000    3604.5000     119.0724     119.6920       0.0085    5871.4958    5871.5045     119.6554          5     135.8453       0.3897    5403.1153    5403.5047    5402.0089    5401.3907      -0.6183
    1053.0    4699.1430 1419728.0000    3604.5000     119.0788     119.6920       0.0105    5871.5067    5871.5171     119.6528          5     136.8453       0.4118    5407.3849    5407.7966    5405.7681    5405.3162      -0.4518
    1054.0    4695.0832 1419728.0000    3604.5000     119.0890     119.6929       0.0111    5871.5967    5871.6077     119.6527          5     137.8453       0.4037    5456.2228    5456.6265    5453.3340    5453.0337      -0.3002
    1055.0    4676.2497 1419728.0000    3604.5000     119.1025     119.6921       0.0093    5871.6762    5871.6856     119.6535          5     138.8453       0.3691    5503.9906    5504.3597    5500.6468    5500.4762      -0.1708
