~VERSION INFORMATION
VERS.           2.0   :CWLS Log ASCII Standard - VERSION 2.0
WRAP.           NO    :One Line per depth step
PROD.  Schlumberger   :LAS Producer
PROG.  DLIS to ASCII 2.2                               :LAS Program name and version
CREA.        2020/10/30 12:18                          :LAS Creation date {YYYY/MM/DD hh:mm}
SOURCE.     XPT_HRLA_TLD_MCFL_039LTP.DLIS              :DLIS File Name
FILE-ID.     XPT_HRLA_TLD_MCFL_039LTP                  :File Identification Number
#--------------------------------------------------
~WELL INFORMATION
#MNEM.UNIT      DATA             DESCRIPTION
#---- ------ --------------   -----------------------------
STRT .S          109.0       :START TIME      
STOP .S          613.0       :STOP TIME      
STEP .S            1.0       :STEP     
NULL .          -999.25      :NULL VALUE
COMP .        Nexus Energy                             :COMPANY
WELL .        Crux-3                                   :WELL
FLD  .        Crux                                     :FIELD
LOC  .        Easting: 656981.7mE                      :LOCATION
CNTY .        Sedco-703                                :COUNTY
STAT .        Northern Territory                       :STATE
CTRY .        Australia                                :COUNTRY
API  .                                                 :API NUMBER
UWI  .                                                 :UNIQUE WELL ID
DATE .        31-Dec-2007                              :LOG DATE {DD-MMM-YYYY}
SRVC .        Schlumberger                             :SERVICE COMPANY
LATI .DEG     12*57'32.63" S                           :LATITUDE
LONG .DEG     124*26'50.07" E                          :LONGITUDE
GDAT .                                                 :GeoDetic Datum
#-----------------------------------------------------------------------------
~PARAMETER INFORMATION
#MNEM.UNIT    VALUE                      DESCRIPTION
#---- -----   --------------------       ------------------------
RUN  .          1                        :RUN NUMBER
PDAT .        LAT                        :Permanent Datum
EPD  .M           0.000000               :Elevation of Permanent Datum above Mean Sea Level
EPD  .M           0.000000               :Elevation of tool zero above Mean Sea Level
LMF  .          DF                       :Logging Measured From (Name of Logging Elevation Reference)
APD  .M          26.400000               :Elevation of Depth Reference (LMF) above Permanent Datum
#-----------------------------------------------------------------------------
~CURVE INFORMATION
#MNEM.UNIT   API CODE                                  DESCRIPTION
#---- -----  --------                                  -----------------------
TIME .S                                                :TIME {F10.1}
TENS_SL.LBF                                            :Cable Tension {F13.4}
DEPT_SL..1IN                                           :Station logging depth {F13.4}
PDEP_XPT.M                                             :XPT Probe Depth {F13.4}
MTEP_SAP.DEGC                                          :Sapphire Gauge Manometer Temperature {F13.4}
MTEP_HYD.DEGC                                          :Hydrostatic Sapphire Gauge Manometer Temperature {F13.4}
PCO_HYD.PSI                                            :Hydrostatic Sapphire Dynamic Compensation {F13.4}
PND_HYD.PSI                                            :Hydrostatic Sapphire Pressure Without Dynamic Compensation {F13.4}
CP_HYD.PSI                                             :Hydrostatic Sapphire Pressure With Dynamic Compensation {F13.4}
MTEP_QG.DEGC                                           :CQG Manometer Temperature {F13.4}
PTNO_XPT.                                              :XPT Pretest Number {I11}
ETIM_XPT.S                                             :Elapsed Logging Time {F13.4}
PCO_SAP.PSI                                            :Sapphire Dynamic Compensation {F13.4}
PND_SAP.PSI                                            :Sapphire Pressure Without Dynamic Compensation {F13.4}
CP_SAP.PSI                                             :Sapphire Pressure With Dynamic Compensation {F13.4}
QNDP .PSI                                              :CQG Pressure Without Dynamic Compensation {F13.4}
QCP  .PSI                                              :CQG Pressure With Dynamic Compensation {F13.4}
QPCO .PSI                                              :CQG Dynamic Compensation {F13.4}
#-----------------------------------------------------------------------------
# 
#     TIME      TENS_SL      DEPT_SL      PDEP_XPT     MTEP_SAP     MTEP_HYD     PCO_HYD      PND_HYD       CP_HYD      MTEP_QG       PTNO_XPT       ETIM_XPT     PCO_SAP      PND_SAP       CP_SAP        QNDP         QCP          QPCO
#
~A  
# ...
     284.0    4779.8219 1418545.0000    3601.4951     119.0021     119.5545       0.0153    5866.5965    5866.6117     119.5219          3     175.2610       0.0140    5505.1499    5505.1637    5502.2940    5502.4326       0.1387
     285.0    4730.8687 1418545.0000    3601.4951     119.0021     119.5544       0.0172    5866.6313    5866.6484     119.5221          3     176.2610       0.0148    5505.1703    5505.1850    5502.3024    5502.4393       0.1370
     286.0    4724.0875 1418545.0000    3601.4951     119.0014     119.5548       0.0169    5866.6757    5866.6924     119.5228          3     177.2610       0.0140    5505.1908    5505.2046    5502.3082    5502.4436       0.1355
     287.0    4722.6938 1418545.0000    3601.4951     119.0021     119.5558       0.0144    5866.7409    5866.7554     119.5231          3     178.2610       0.0128    5505.3154    5505.3281    5502.3073    5502.4410       0.1337
     288.0    4697.3031 1418545.0000    3601.4951     119.0028     119.5566       0.0114    5866.7541    5866.7653     119.5236          3     179.2610       0.0121    5505.1836    5505.1958    5502.3131    5502.4446       0.1315
     289.0    4712.9641 1418545.0000    3601.4951     119.0014     119.5558       0.0090    5866.7133    5866.7222     119.5241          3     180.2610       0.0110    5505.2422    5505.2530    5502.3156    5502.4451       0.1297
     290.0    4793.6953 1418545.0000    3601.4951     119.0020     119.5558       0.0071    5866.6460    5866.6532     119.5245          3     181.2610       0.0090    5505.1557    5505.1649    5502.3167    5502.4450       0.1282
     291.0    4790.2609 1418545.0000    3601.4951     119.0025     119.5558       0.0050    5866.6684    5866.6735     119.5248          3     182.2610       0.0079    5505.1739    5505.1818    5502.3181    5502.4453       0.1270
     292.0    4795.1750 1418545.0000    3601.4951     119.0028     119.5569       0.0033    5866.5902    5866.5937     119.5251          3     183.2610       0.0086    5505.1738    5505.1826    5502.3236    5502.4492       0.1256
     293.0    4799.6938 1418545.0000    3601.4951     119.0031     119.5573       0.0030    5866.5425    5866.5454     119.5255          3     184.2610       0.0098    5505.2060    5505.2158    5502.3255    5502.4499       0.1242
     294.0    4757.0813 1418545.0000    3601.4951     119.0030     119.5568       0.0043    5866.5967    5866.6009     119.5260          3     185.2610       0.0100    5505.1854    5505.1954    5502.3259    5502.4490       0.1231
     295.0    4692.1297 1418545.0000    3601.4951     119.0041     119.5565       0.0061    5866.5414    5866.5477     119.5266          3     186.2610       0.0089    5505.3701    5505.3790    5502.3355    5502.4576       0.1223
     296.0    4685.3047 1418545.0000    3601.4951     119.0028     119.5551       0.0068    5866.6973    5866.7041     119.5270          3     187.2610       0.0067    5505.2099    5505.2165    5502.3335    5502.4550       0.1216
     297.0    4689.5219 1418545.0000    3601.4951     119.0039     119.5560       0.0072    5866.6564    5866.6635     119.5271          3     188.2610       0.0043    5505.2751    5505.2795    5502.3337    5502.4539       0.1202
     298.0    4695.4359 1418545.0000    3601.4951     119.0047     119.5565       0.0091    5866.7129    5866.7220     119.5278          3     189.2610       0.0029    5505.1468    5505.1497    5502.3383    5502.4570       0.1186
     299.0    4732.5281 1418545.0000    3601.4951     119.0035     119.5580       0.0117    5866.7282    5866.7400     119.5282          3     190.2610       0.0026    5505.1682    5505.1708    5502.3372    5502.4544       0.1173
     300.0    4802.5219 1418545.0000    3601.4951     119.0028     119.5574       0.0120    5866.7052    5866.7172     119.5285          3     191.2610       0.0030    5505.1307    5505.1336    5502.3387    5502.4546       0.1161
     301.0    4795.3891 1418545.0000    3601.4951     119.0031     119.5559       0.0087    5866.5913    5866.5998     119.5288          3     192.2610       0.0038    5505.1575    5505.1613    5502.3448    5502.4596       0.1147
     302.0    4774.3922 1418545.0000    3601.4951     119.0036     119.5580       0.0056    5866.4903    5866.4961     119.5294          3     193.2610       0.0059    5505.2755    5505.2815    5502.3403    5502.4535       0.1133
     303.0    4789.7406 1418545.0000    3601.4951     119.0045     119.5587       0.0054    5866.5405    5866.5459     119.5297          3     194.2610       0.0095    5505.1664    5505.1760    5502.3434    5502.4557       0.1123
     304.0    4784.0813 1418545.0000    3601.4951     119.0041     119.5581       0.0064    5866.6579    5866.6642     119.5299          3     195.2610       0.0127    5505.1892    5505.2018    5502.3494    5502.4612       0.1118
     305.0    4716.2594 1418545.0000    3601.4951     119.0029     119.5570       0.0061    5866.5636    5866.5699     119.5302          3     196.2610       0.0134    5505.1453    5505.1589    5502.3480    5502.4594       0.1114
     306.0    4693.2156 1418545.0000    3601.4951     119.0037     119.5573       0.0047    5866.6128    5866.6174     119.5308          3     197.2610       0.0125    5505.1818    5505.1942    5502.3476    5502.4589       0.1113
     307.0    4669.8250 1418545.0000    3601.4951     119.0061     119.5581       0.0040    5866.7290    5866.7330     119.5311          3     198.2610       0.0119    5505.2438    5505.2555    5502.3482    5502.4595       0.1112
     308.0    4667.1328 1418545.0000    3601.4951     119.0072     119.5583       0.0029    5866.8251    5866.8280     119.5316          3     199.2610       0.0117    5505.3607    5505.3723    5502.3548    5502.4651       0.1105
     309.0    4708.9172 1418545.0000    3601.4951     119.0062     119.5581       0.0006    5866.7119    5866.7126     119.5317          3     200.2610       0.0104    5505.2432    5505.2536    5502.3520    5502.4616       0.1096
     310.0    4767.0469 1418545.0000    3601.4951     119.0062     119.5577      -0.0013    5866.7505    5866.7491     119.5323          3     201.2610       0.0081    5505.2304    5505.2383    5502.3543    5502.4631       0.1088
     311.0    4806.3484 1418545.0000    3601.4951     119.0060     119.5587      -0.0005    5866.7231    5866.7227     119.5324          3     202.2610       0.0066    5505.2610    5505.2677    5502.3549    5502.4632       0.1083
     312.0    4808.0422 1418545.0000    3601.4951     119.0055     119.5580       0.0021    5866.6052    5866.6072     119.5329          3     203.2610       0.0066    5505.2203    5505.2270    5502.3560    5502.4636       0.1075
     313.0    4779.9094 1418545.0000    3601.4951     119.0053     119.5570       0.0042    5866.4122    5866.4166     119.5333          3     204.2610       0.0083    5505.1903    5505.1985    5502.3567    5502.4632       0.1064
     314.0    4730.0844 1418545.0000    3601.4951     119.0057     119.5581       0.0067    5866.5861    5866.5927     119.5335          3     205.2610       0.0110    5505.1761    5505.1871    5502.3595    5502.4645       0.1050
     315.0    4705.6531 1418545.0000    3601.4951     119.0067     119.5600       0.0104    5866.6614    5866.6717     119.5339          3     206.2610       0.0138    5505.1972    5505.2112    5502.3613    5502.4655       0.1042
     316.0    4716.0000 1418545.0000    3601.4951     119.0062     119.5579       0.0134    5866.6260    5866.6395     119.5343          3     207.2610       0.0156    5505.2698    5505.2853    5502.3638    5502.4674       0.1037
     317.0    4717.8266 1418545.0000    3601.4951     119.0078     119.5589       0.0138    5866.7848    5866.7984     119.5346          3     208.2610       0.0163    5505.3247    5505.3409    5502.3638    5502.4668       0.1031
     318.0    4716.4766 1418545.0000    3601.4951     119.0079     119.5585       0.0128    5866.7378    5866.7505     119.5348          3     209.2610       0.0165    5505.2140    5505.2306    5502.3609    5502.4632       0.1023
