~VERSION INFORMATION
VERS.           2.0   :CWLS Log ASCII Standard - VERSION 2.0
WRAP.           NO    :One Line per depth step
PROD.  Schlumberger   :LAS Producer
PROG.  DLIS to ASCII 2.2                               :LAS Program name and version
CREA.        2020/10/30 12:18                          :LAS Creation date {YYYY/MM/DD hh:mm}
SOURCE.     XPT_HRLA_TLD_MCFL_037LTP.DLIS              :DLIS File Name
FILE-ID.     XPT_HRLA_TLD_MCFL_037LTP                  :File Identification Number
#--------------------------------------------------
~WELL INFORMATION
#MNEM.UNIT      DATA             DESCRIPTION
#---- ------ --------------   -----------------------------
STRT .S        35745.0       :START TIME      
STOP .S        36558.0       :STOP TIME      
STEP .S            1.0       :STEP     
NULL .          -999.25      :NULL VALUE
COMP .        Nexus Energy                             :COMPANY
WELL .        Crux-3                                   :WELL
FLD  .        Crux                                     :FIELD
LOC  .        Easting: 656981.7mE                      :LOCATION
CNTY .        Sedco-703                                :COUNTY
STAT .        Northern Territory                       :STATE
CTRY .        Australia                                :COUNTRY
API  .                                                 :API NUMBER
UWI  .                                                 :UNIQUE WELL ID
DATE .        31-Dec-2007                              :LOG DATE {DD-MMM-YYYY}
SRVC .        Schlumberger                             :SERVICE COMPANY
LATI .DEG     12*57'32.63" S                           :LATITUDE
LONG .DEG     124*26'50.07" E                          :LONGITUDE
GDAT .                                                 :GeoDetic Datum
#-----------------------------------------------------------------------------
~PARAMETER INFORMATION
#MNEM.UNIT    VALUE                      DESCRIPTION
#---- -----   --------------------       ------------------------
RUN  .          1                        :RUN NUMBER
PDAT .        LAT                        :Permanent Datum
EPD  .M           0.000000               :Elevation of Permanent Datum above Mean Sea Level
EPD  .M           0.000000               :Elevation of tool zero above Mean Sea Level
LMF  .          DF                       :Logging Measured From (Name of Logging Elevation Reference)
APD  .M          26.400000               :Elevation of Depth Reference (LMF) above Permanent Datum
#-----------------------------------------------------------------------------
~CURVE INFORMATION
#MNEM.UNIT   API CODE                                  DESCRIPTION
#---- -----  --------                                  -----------------------
TIME .S                                                :TIME {F10.1}
TENS_SL.LBF                                            :Cable Tension {F13.4}
DEPT_SL..1IN                                           :Station logging depth {F13.4}
PDEP_XPT.M                                             :XPT Probe Depth {F13.4}
MTEP_SAP.DEGC                                          :Sapphire Gauge Manometer Temperature {F13.4}
MTEP_HYD.DEGC                                          :Hydrostatic Sapphire Gauge Manometer Temperature {F13.4}
PCO_HYD.PSI                                            :Hydrostatic Sapphire Dynamic Compensation {F13.4}
PND_HYD.PSI                                            :Hydrostatic Sapphire Pressure Without Dynamic Compensation {F13.4}
CP_HYD.PSI                                             :Hydrostatic Sapphire Pressure With Dynamic Compensation {F13.4}
MTEP_QG.DEGC                                           :CQG Manometer Temperature {F13.4}
PTNO_XPT.                                              :XPT Pretest Number {I11}
ETIM_XPT.S                                             :Elapsed Logging Time {F13.4}
PCO_SAP.PSI                                            :Sapphire Dynamic Compensation {F13.4}
PND_SAP.PSI                                            :Sapphire Pressure Without Dynamic Compensation {F13.4}
CP_SAP.PSI                                             :Sapphire Pressure With Dynamic Compensation {F13.4}
QNDP .PSI                                              :CQG Pressure Without Dynamic Compensation {F13.4}
QCP  .PSI                                              :CQG Pressure With Dynamic Compensation {F13.4}
QPCO .PSI                                              :CQG Dynamic Compensation {F13.4}
#-----------------------------------------------------------------------------
# 
#     TIME      TENS_SL      DEPT_SL      PDEP_XPT     MTEP_SAP     MTEP_HYD     PCO_HYD      PND_HYD       CP_HYD      MTEP_QG       PTNO_XPT       ETIM_XPT     PCO_SAP      PND_SAP       CP_SAP        QNDP         QCP          QPCO
#
~A  
# ...
   36200.0    4636.3160 1417595.0000    3599.0823     118.7333     119.2823       0.0039    5862.6566    5862.6606     119.0342          1     454.7480       0.0084    5587.9138    5587.9223    5584.9744    5585.1282       0.1539
   36201.0    4610.0480 1417595.0000    3599.0823     118.7347     119.2837       0.0030    5862.6721    5862.6750     119.0348          1     455.7480       0.0044    5587.7989    5587.8031    5584.7579    5584.9112       0.1534
   36202.0    4586.0480 1417595.0000    3599.0823     118.7355     119.2823       0.0035    5862.7173    5862.7209     119.0352          1     456.7480       0.0005    5587.5137    5587.5145    5584.5414    5584.6942       0.1530
   36203.0    4568.0320 1417595.0000    3599.0823     118.7340     119.2837       0.0059    5862.8234    5862.8292     119.0357          1     457.7480      -0.0030    5587.3178    5587.3146    5584.3310    5584.4834       0.1526
   36204.0    4632.8160 1417595.0000    3599.0823     118.7335     119.2831       0.0093    5862.6905    5862.6999     119.0360          1     458.7480      -0.0053    5587.1819    5587.1765    5584.1126    5584.2654       0.1526
   36205.0    4670.2120 1417595.0000    3599.0823     118.7341     119.2831       0.0111    5862.6210    5862.6320     119.0368          1     459.7480      -0.0052    5586.8663    5586.8611    5583.8818    5584.0346       0.1527
   36206.0    4705.6680 1417595.0000    3599.0823     118.7328     119.2835       0.0107    5862.6104    5862.6211     119.0373          1     460.7480      -0.0025    5586.6764    5586.6738    5583.6730    5583.8259       0.1527
   36207.0    4733.9520 1417595.0000    3599.0823     118.7322     119.2848       0.0090    5862.5054    5862.5146     119.0379          1     461.7480       0.0020    5586.4386    5586.4407    5583.4703    5583.6231       0.1526
   36208.0    4725.0400 1417595.0000    3599.0823     118.7330     119.2838       0.0073    5862.4951    5862.5024     119.0383          1     462.7480       0.0057    5586.1594    5586.1653    5583.2702    5583.4231       0.1528
   36209.0    4669.8840 1417595.0000    3599.0823     118.7317     119.2854       0.0057    5862.6196    5862.6255     119.0387          1     463.7480       0.0069    5585.9960    5586.0029    5583.1087    5583.2611       0.1525
   36210.0    4634.3000 1417595.0000    3599.0823     118.7358     119.2831       0.0029    5862.5464    5862.5492     119.0392          1     464.7480       0.0056    5585.9036    5585.9093    5582.9063    5583.0580       0.1517
   36211.0    4610.7960 1417595.0000    3599.0823     118.7338     119.2831      -0.0009    5862.6060    5862.6050     119.0398          1     465.7480       0.0033    5585.6590    5585.6622    5582.7156    5582.8667       0.1511
   36212.0    4605.0000 1417595.0000    3599.0823     118.7351     119.2852      -0.0037    5862.7369    5862.7330     119.0403          1     466.7480       0.0014    5585.5619    5585.5635    5582.5408    5582.6921       0.1512
   36213.0    4608.7400 1417595.0000    3599.0823     118.7342     119.2846      -0.0040    5862.7407    5862.7368     119.0408          1     467.7480       0.0009    5585.3125    5585.3135    5582.3456    5582.4975       0.1517
   36214.0    4648.1480 1417595.0000    3599.0823     118.7340     119.2846      -0.0027    5862.7014    5862.6987     119.0414          1     468.7480       0.0015    5584.9999    5585.0017    5582.1506    5582.3024       0.1518
   36215.0    4681.9440 1417595.0000    3599.0823     118.7340     119.2839       0.0000    5862.6689    5862.6687     119.0417          1     469.7480       0.0029    5584.9599    5584.9627    5581.9781    5582.1300       0.1517
   36216.0    4677.0320 1417595.0000    3599.0823     118.7353     119.2831       0.0044    5862.5559    5862.5601     119.0421          1     470.7480       0.0044    5584.7440    5584.7485    5581.7798    5581.9312       0.1515
   36217.0    4619.1440 1417595.0000    3599.0823     118.7347     119.2846       0.0100    5862.6809    5862.6909     119.0427          1     471.7480       0.0056    5584.5458    5584.5514    5581.5942    5581.7455       0.1513
   36218.0    4589.7800 1417595.0000    3599.0823     118.7338     119.2825       0.0145    5862.5503    5862.5647     119.0432          1     472.7480       0.0070    5584.2721    5584.2789    5581.4165    5581.5673       0.1509
   36219.0    4620.4080 1417595.0000    3599.0823     118.7345     119.2853       0.0154    5862.6340    5862.6496     119.0437          1     473.7480       0.0078    5584.1846    5584.1924    5581.2388    5581.3892       0.1506
   36220.0    4610.3080 1417595.0000    3599.0823     118.7347     119.2857       0.0132    5862.7524    5862.7656     119.0443          1     474.7480       0.0077    5584.0677    5584.0755    5581.0592    5581.2096       0.1502
   36221.0    4645.6360 1417595.0000    3599.0823     118.7334     119.2862       0.0081    5862.7570    5862.7652     119.0446          1     475.7480       0.0078    5583.7498    5583.7576    5580.8893    5581.0392       0.1500
   36222.0    4709.3680 1417595.0000    3599.0823     118.7361     119.2855       0.0014    5862.6216    5862.6228     119.0454          1     476.7480       0.0084    5583.6411    5583.6494    5580.6983    5580.8487       0.1504
   36223.0    4719.2680 1417595.0000    3599.0823     118.7357     119.2842      -0.0046    5862.6032    5862.5985     119.0460          1     477.7480       0.0081    5583.4015    5583.4096    5580.5178    5580.6686       0.1510
   36224.0    4690.0720 1417595.0000    3599.0823     118.7358     119.2854      -0.0068    5862.5107    5862.5039     119.0462          1     478.7480       0.0053    5583.3451    5583.3501    5580.3490    5580.4998       0.1508
   36225.0    4682.4960 1417595.0000    3599.0823     118.7353     119.2848      -0.0049    5862.5054    5862.5007     119.0467          1     479.7480       0.0017    5583.1205    5583.1223    5580.1707    5580.3206       0.1500
   36226.0    4686.7400 1417595.0000    3599.0823     118.7354     119.2838      -0.0012    5862.5245    5862.5233     119.0473          1     480.7480      -0.0003    5582.9639    5582.9637    5580.0008    5580.1497       0.1490
   36227.0    4642.3720 1417595.0000    3599.0823     118.7334     119.2847       0.0033    5862.5742    5862.5773     119.0476          1     481.7480      -0.0013    5582.6454    5582.6440    5579.8402    5579.9886       0.1483
   36228.0    4635.2280 1417595.0000    3599.0823     118.7349     119.2854       0.0084    5862.6299    5862.6384     119.0482          1     482.7480      -0.0023    5582.5390    5582.5365    5579.6645    5579.8124       0.1477
   36229.0    4602.8440 1417595.0000    3599.0823     118.7355     119.2846       0.0132    5862.6216    5862.6348     119.0488          1     483.7480      -0.0015    5582.4508    5582.4491    5579.4979    5579.6449       0.1472
   36230.0    4633.6360 1417595.0000    3599.0823     118.7365     119.2854       0.0155    5862.6647    5862.6803     119.0491          1     484.7480       0.0020    5582.2969    5582.2991    5579.3423    5579.4892       0.1471
   36231.0    4597.8840 1417595.0000    3599.0823     118.7354     119.2861       0.0142    5862.6968    5862.7108     119.0497          1     485.7480       0.0060    5582.1050    5582.1110    5579.1677    5579.3151       0.1473
   36232.0    4586.2360 1417595.0000    3599.0823     118.7346     119.2861       0.0107    5862.6965    5862.7073     119.0502          1     486.7480       0.0076    5581.8703    5581.8778    5579.0185    5579.1659       0.1475
   36233.0    4637.3680 1417595.0000    3599.0823     118.7342     119.2869       0.0069    5862.6943    5862.7014     119.0506          1     487.7480       0.0076    5581.7437    5581.7515    5578.8467    5578.9947       0.1479
   36234.0    4659.9840 1417595.0000    3599.0823     118.7334     119.2869       0.0041    5862.5514    5862.5556     119.0510          1     488.7480       0.0083    5581.5480    5581.5563    5578.6747    5578.8232       0.1487
