~VERSION INFORMATION
VERS.           2.0   :CWLS Log ASCII Standard - VERSION 2.0
WRAP.           NO    :One Line per depth step
PROD.  Schlumberger   :LAS Producer
PROG.  DLIS to ASCII 2.2                               :LAS Program name and version
CREA.        2020/10/30 12:18                          :LAS Creation date {YYYY/MM/DD hh:mm}
SOURCE.     XPT_HRLA_TLD_MCFL_039LTP.DLIS              :DLIS File Name
FILE-ID.     XPT_HRLA_TLD_MCFL_039LTP                  :File Identification Number
#--------------------------------------------------
~WELL INFORMATION
#MNEM.UNIT      DATA             DESCRIPTION
#---- ------ --------------   -----------------------------
STRT .S          109.0       :START TIME      
STOP .S          613.0       :STOP TIME      
STEP .S            1.0       :STEP     
NULL .          -999.25      :NULL VALUE
COMP .        Nexus Energy                             :COMPANY
WELL .        Crux-3                                   :WELL
FLD  .        Crux                                     :FIELD
LOC  .        Easting: 656981.7mE                      :LOCATION
CNTY .        Sedco-703                                :COUNTY
STAT .        Northern Territory                       :STATE
CTRY .        Australia                                :COUNTRY
API  .                                                 :API NUMBER
UWI  .                                                 :UNIQUE WELL ID
DATE .        31-Dec-2007                              :LOG DATE {DD-MMM-YYYY}
SRVC .        Schlumberger                             :SERVICE COMPANY
LATI .DEG     12*57'32.63" S                           :LATITUDE
LONG .DEG     124*26'50.07" E                          :LONGITUDE
GDAT .                                                 :GeoDetic Datum
#-----------------------------------------------------------------------------
~PARAMETER INFORMATION
#MNEM.UNIT    VALUE                      DESCRIPTION
#---- -----   --------------------       ------------------------
RUN  .          1                        :RUN NUMBER
PDAT .        LAT                        :Permanent Datum
EPD  .M           0.000000               :Elevation of Permanent Datum above Mean Sea Level
EPD  .M           0.000000               :Elevation of tool zero above Mean Sea Level
LMF  .          DF                       :Logging Measured From (Name of Logging Elevation Reference)
APD  .M          26.400000               :Elevation of Depth Reference (LMF) above Permanent Datum
#-----------------------------------------------------------------------------
~CURVE INFORMATION
#MNEM.UNIT   API CODE                                  DESCRIPTION
#---- -----  --------                                  -----------------------
TIME .S                                                :TIME {F10.1}
TENS_SL.LBF                                            :Cable Tension {F13.4}
DEPT_SL..1IN                                           :Station logging depth {F13.4}
PDEP_XPT.M                                             :XPT Probe Depth {F13.4}
MTEP_SAP.DEGC                                          :Sapphire Gauge Manometer Temperature {F13.4}
MTEP_HYD.DEGC                                          :Hydrostatic Sapphire Gauge Manometer Temperature {F13.4}
PCO_HYD.PSI                                            :Hydrostatic Sapphire Dynamic Compensation {F13.4}
PND_HYD.PSI                                            :Hydrostatic Sapphire Pressure Without Dynamic Compensation {F13.4}
CP_HYD.PSI                                             :Hydrostatic Sapphire Pressure With Dynamic Compensation {F13.4}
MTEP_QG.DEGC                                           :CQG Manometer Temperature {F13.4}
PTNO_XPT.                                              :XPT Pretest Number {I11}
ETIM_XPT.S                                             :Elapsed Logging Time {F13.4}
PCO_SAP.PSI                                            :Sapphire Dynamic Compensation {F13.4}
PND_SAP.PSI                                            :Sapphire Pressure Without Dynamic Compensation {F13.4}
CP_SAP.PSI                                             :Sapphire Pressure With Dynamic Compensation {F13.4}
QNDP .PSI                                              :CQG Pressure Without Dynamic Compensation {F13.4}
QCP  .PSI                                              :CQG Pressure With Dynamic Compensation {F13.4}
QPCO .PSI                                              :CQG Dynamic Compensation {F13.4}
#-----------------------------------------------------------------------------
# 
#     TIME      TENS_SL      DEPT_SL      PDEP_XPT     MTEP_SAP     MTEP_HYD     PCO_HYD      PND_HYD       CP_HYD      MTEP_QG       PTNO_XPT       ETIM_XPT     PCO_SAP      PND_SAP       CP_SAP        QNDP         QCP          QPCO
#
~A  
# ...
     529.0    4730.4391 1418545.0000    3601.4951     119.0302     119.5913       0.0122    5866.7134    5866.7256     119.5848          4     420.2610       0.0128    5505.1035    5505.1163    5502.4221    5502.4802       0.0581
     530.0    4775.9563 1418545.0000    3601.4951     119.0325     119.5908       0.0112    5866.5454    5866.5566     119.5852          4     421.2610       0.0111    5505.1598    5505.1710    5502.4210    5502.4796       0.0586
     531.0    4770.6516 1418545.0000    3601.4951     119.0308     119.5922       0.0107    5866.6453    5866.6560     119.5853          4     422.2610       0.0097    5505.0703    5505.0800    5502.4197    5502.4783       0.0588
     532.0    4768.6969 1418545.0000    3601.4951     119.0317     119.5907       0.0106    5866.5328    5866.5435     119.5853          4     423.2610       0.0089    5505.1492    5505.1581    5502.4187    5502.4777       0.0589
     533.0    4765.8219 1418545.0000    3601.4951     119.0317     119.5913       0.0097    5866.6036    5866.6133     119.5857          4     424.2610       0.0088    5505.2296    5505.2383    5502.4194    5502.4786       0.0592
     534.0    4720.5219 1418545.0000    3601.4951     119.0314     119.5922       0.0099    5866.6665    5866.6763     119.5857          4     425.2610       0.0091    5505.1535    5505.1626    5502.4221    5502.4817       0.0594
     535.0    4712.6062 1418545.0000    3601.4951     119.0325     119.5922       0.0123    5866.6665    5866.6786     119.5862          4     426.2610       0.0105    5505.0798    5505.0904    5502.4201    5502.4792       0.0590
     536.0    4681.3031 1418545.0000    3601.4951     119.0331     119.5922       0.0150    5866.6665    5866.6817     119.5865          4     427.2610       0.0117    5505.1422    5505.1539    5502.4251    5502.4832       0.0582
     537.0    4679.7422 1418545.0000    3601.4951     119.0327     119.5917       0.0158    5866.6997    5866.7153     119.5865          4     428.2610       0.0109    5505.1104    5505.1214    5502.4230    5502.4808       0.0578
     538.0    4728.9172 1418545.0000    3601.4951     119.0330     119.5929       0.0152    5866.6743    5866.6895     119.5867          4     429.2610       0.0082    5505.1348    5505.1431    5502.4292    5502.4868       0.0578
     539.0    4774.2609 1418545.0000    3601.4951     119.0338     119.5947       0.0155    5866.6934    5866.7090     119.5867          4     430.2610       0.0056    5505.1951    5505.2009    5502.4230    5502.4811       0.0581
     540.0    4776.8266 1418545.0000    3601.4951     119.0339     119.5934       0.0159    5866.6199    5866.6360     119.5869          4     431.2610       0.0049    5505.1683    5505.1732    5502.4217    5502.4803       0.0586
     541.0    4780.6953 1418545.0000    3601.4951     119.0350     119.5941       0.0149    5866.6865    5866.7013     119.5874          4     432.2610       0.0055    5505.2527    5505.2580    5502.4236    5502.4831       0.0594
     542.0    4769.6938 1418545.0000    3601.4951     119.0334     119.5934       0.0126    5866.5846    5866.5972     119.5874          4     433.2610       0.0057    5505.1680    5505.1739    5502.4229    5502.4830       0.0602
     543.0    4738.3016 1418545.0000    3601.4951     119.0331     119.5937       0.0112    5866.6612    5866.6724     119.5876          4     434.2610       0.0052    5505.1850    5505.1901    5502.4245    5502.4846       0.0603
     544.0    4703.5641 1418545.0000    3601.4951     119.0327     119.5952       0.0115    5866.6387    5866.6503     119.5878          4     435.2610       0.0043    5505.0665    5505.0709    5502.4254    5502.4850       0.0598
     545.0    4692.3047 1418545.0000    3601.4951     119.0345     119.5947       0.0113    5866.6931    5866.7043     119.5882          4     436.2610       0.0044    5505.1126    5505.1170    5502.4248    5502.4838       0.0590
     546.0    4702.2625 1418545.0000    3601.4951     119.0332     119.5937       0.0091    5866.6504    5866.6597     119.5882          4     437.2610       0.0055    5505.1688    5505.1742    5502.4242    5502.4828       0.0587
     547.0    4720.5219 1418545.0000    3601.4951     119.0338     119.5950       0.0059    5866.6954    5866.7014     119.5884          4     438.2610       0.0229    5505.1830    5505.2058    5502.4220    5502.5080       0.0858
     548.0    4718.0859 1418545.0000    3601.4951     119.0340     119.5963       0.0039    5866.7092    5866.7130     119.5885          4     439.2610       0.0917    5505.1669    5505.2587    5502.4255    5502.6187       0.1934
     549.0    4698.1281 1418545.0000    3601.4951     119.0335     119.5953       0.0040    5866.6436    5866.6478     119.5888          4     440.2610       0.2312    5505.1321    5505.3634    5502.4248    5502.8319       0.4071
     550.0    4668.3031 1418545.0000    3601.4951     119.0351     119.5952       0.0056    5866.6309    5866.6366     119.5889          4     441.2610       0.4021    5505.2381    5505.6402    5502.4184    5503.0925       0.6739
     551.0    4653.6953 1418545.0000    3601.4951     119.0338     119.5952       0.0075    5866.6982    5866.7057     119.5890          4     442.2610       0.5331    5505.6053    5506.1383    5502.9141    5503.8256       0.9116
     552.0    4658.6109 1418545.0000    3601.4951     119.0353     119.5937       0.0092    5866.5591    5866.5682     119.5894          4     443.2610       0.5833    5511.7360    5512.3191    5508.9567    5510.0408       1.0841
     553.0    4702.8313 1418545.0000    3601.4951     119.0941     119.5965       0.0112    5866.6523    5866.6634     119.6058          4     444.2610       0.5573    5867.8389    5868.3962    5860.5661    5861.7619       1.1957
     554.0    4762.1313 1418545.0000    3601.4951     119.1011     119.5961       0.0141    5866.6048    5866.6192     119.6075          4     445.2610       0.4569    5867.8828    5868.3397    5861.1649    5862.3903       1.2253
     555.0    4767.0859 1418545.0000    3601.4951     119.1008     119.5969       0.0167    5866.6109    5866.6278     119.6100          4     446.2610       0.2825    5867.5376    5867.8203    5861.2689    5862.4155       1.1466
     556.0    4754.4344 1418545.0000    3601.4951     119.0983     119.5974       0.0169    5866.5420    5866.5590     119.6129          4     447.2610       0.0782    5866.8646    5866.9427    5861.3245    5862.3298       1.0053
     557.0    4746.0859 1418545.0000    3601.4951     119.0931     119.5961       0.0141    5866.4815    5866.4954     119.6161          4     448.2610      -0.0856    5866.4029    5866.3172    5861.4779    5862.3573       0.8795
     558.0    4720.9094 1418545.0000    3601.4951     119.0897     119.5967       0.0109    5866.5490    5866.5599     119.6191          4     449.2610      -0.1690    5866.1810    5866.0120    5861.6535    5862.4573       0.8037
     559.0    4682.8266 1418545.0000    3601.4951     119.0859     119.5982       0.0100    5866.7251    5866.7349     119.6218          4     450.2610      -0.1919    5865.7956    5865.6035    5861.7320    5862.4803       0.7483
     560.0    4691.9141 1418545.0000    3601.4951     119.0828     119.5975       0.0115    5866.6094    5866.6207     119.6242          4     451.2610      -0.1889    5865.6906    5865.5016    5861.9116    5862.5932       0.6817
     561.0    4699.6078 1418545.0000    3601.4951     119.0795     119.5967       0.0127    5866.7139    5866.7266     119.6265          4     452.2610      -0.1775    5865.6237    5865.4461    5862.0270    5862.6318       0.6050
     562.0    4688.1734 1418545.0000    3601.4951     119.0764     119.5982       0.0123    5866.7329    5866.7451     119.6281          4     453.2610      -0.1621    5865.3879    5865.2256    5862.0428    5862.5683       0.5257
     563.0    4709.0938 1418545.0000    3601.4951     119.0736     119.5970       0.0120    5866.6575    5866.6693     119.6298          4     454.2610      -0.1450    5865.2193    5865.0743    5862.0704    5862.5190       0.4485
