~VERSION INFORMATION
VERS.           2.0   :CWLS Log ASCII Standard - VERSION 2.0
WRAP.           NO    :One Line per depth step
PROD.  Schlumberger   :LAS Producer
PROG.  DLIS to ASCII 2.2                               :LAS Program name and version
CREA.        2020/10/30 12:18                          :LAS Creation date {YYYY/MM/DD hh:mm}
SOURCE.     XPT_HRLA_TLD_MCFL_049LTP.DLIS              :DLIS File Name
FILE-ID.     XPT_HRLA_TLD_MCFL_049LTP                  :File Identification Number
#--------------------------------------------------
~WELL INFORMATION
#MNEM.UNIT      DATA             DESCRIPTION
#---- ------ --------------   -----------------------------
STRT .S          815.0       :START TIME      
STOP .S         1341.0       :STOP TIME      
STEP .S            1.0       :STEP     
NULL .          -999.25      :NULL VALUE
COMP .        Nexus Energy                             :COMPANY
WELL .        Crux-3                                   :WELL
FLD  .        Crux                                     :FIELD
LOC  .        Easting: 656981.7mE                      :LOCATION
CNTY .        Sedco-703                                :COUNTY
STAT .        Northern Territory                       :STATE
CTRY .        Australia                                :COUNTRY
API  .                                                 :API NUMBER
UWI  .                                                 :UNIQUE WELL ID
DATE .        31-Dec-2007                              :LOG DATE {DD-MMM-YYYY}
SRVC .        Schlumberger                             :SERVICE COMPANY
LATI .DEG     12*57'32.63" S                           :LATITUDE
LONG .DEG     124*26'50.07" E                          :LONGITUDE
GDAT .                                                 :GeoDetic Datum
#-----------------------------------------------------------------------------
~PARAMETER INFORMATION
#MNEM.UNIT    VALUE                      DESCRIPTION
#---- -----   --------------------       ------------------------
RUN  .          1                        :RUN NUMBER
PDAT .        LAT                        :Permanent Datum
EPD  .M           0.000000               :Elevation of Permanent Datum above Mean Sea Level
EPD  .M           0.000000               :Elevation of tool zero above Mean Sea Level
LMF  .          DF                       :Logging Measured From (Name of Logging Elevation Reference)
APD  .M          26.400000               :Elevation of Depth Reference (LMF) above Permanent Datum
#-----------------------------------------------------------------------------
~CURVE INFORMATION
#MNEM.UNIT   API CODE                                  DESCRIPTION
#---- -----  --------                                  -----------------------
TIME .S                                                :TIME {F10.1}
TENS_SL.LBF                                            :Cable Tension {F13.4}
DEPT_SL..1IN                                           :Station logging depth {F13.4}
PDEP_XPT.M                                             :XPT Probe Depth {F13.4}
MTEP_SAP.DEGC                                          :Sapphire Gauge Manometer Temperature {F13.4}
MTEP_HYD.DEGC                                          :Hydrostatic Sapphire Gauge Manometer Temperature {F13.4}
PCO_HYD.PSI                                            :Hydrostatic Sapphire Dynamic Compensation {F13.4}
PND_HYD.PSI                                            :Hydrostatic Sapphire Pressure Without Dynamic Compensation {F13.4}
CP_HYD.PSI                                             :Hydrostatic Sapphire Pressure With Dynamic Compensation {F13.4}
MTEP_QG.DEGC                                           :CQG Manometer Temperature {F13.4}
PTNO_XPT.                                              :XPT Pretest Number {I11}
ETIM_XPT.S                                             :Elapsed Logging Time {F13.4}
PCO_SAP.PSI                                            :Sapphire Dynamic Compensation {F13.4}
PND_SAP.PSI                                            :Sapphire Pressure Without Dynamic Compensation {F13.4}
CP_SAP.PSI                                             :Sapphire Pressure With Dynamic Compensation {F13.4}
QNDP .PSI                                              :CQG Pressure Without Dynamic Compensation {F13.4}
QCP  .PSI                                              :CQG Pressure With Dynamic Compensation {F13.4}
QPCO .PSI                                              :CQG Dynamic Compensation {F13.4}
#-----------------------------------------------------------------------------
# 
#     TIME      TENS_SL      DEPT_SL      PDEP_XPT     MTEP_SAP     MTEP_HYD     PCO_HYD      PND_HYD       CP_HYD      MTEP_QG       PTNO_XPT       ETIM_XPT     PCO_SAP      PND_SAP       CP_SAP        QNDP         QCP          QPCO
#
~A  
# ...
     920.0    4691.6163 1451040.0000    3684.0325     122.2872     122.8348       0.0163    5998.4942    5998.5105     122.8147         12     105.4819       0.2555    5997.8955    5998.1509    5993.5932    5994.0693       0.4761
     921.0    4698.0938 1451040.0000    3684.0325     122.2877     122.8338       0.0143    5998.4091    5998.4233     122.8159         12     106.4819       0.1825    5998.1711    5998.3538    5994.0972    5994.5534       0.4562
     922.0    4724.0000 1451040.0000    3684.0325     122.2896     122.8350       0.0127    5998.4623    5998.4750     122.8169         12     107.4819       0.0917    5998.1926    5998.2843    5994.2721    5994.6764       0.4043
     923.0    4745.2025 1451040.0000    3684.0325     122.2910     122.8349       0.0138    5998.3582    5998.3720     122.8180         12     108.4819       0.0177    5998.0161    5998.0339    5994.3094    5994.6688       0.3594
     924.0    4771.8550 1451040.0000    3684.0325     122.2875     122.8350       0.0169    5998.2402    5998.2572     122.8195         12     109.4819      -0.0243    5995.2426    5995.2182    5991.7033    5992.0424       0.3390
     925.0    4776.0000 1451040.0000    3684.0325     122.2862     122.8355       0.0191    5998.3050    5998.3240     122.8202         12     110.4819      -0.0405    5993.2724    5993.2319    5989.9098    5990.2396       0.3298
     926.0    4769.7356 1451040.0000    3684.0325     122.2850     122.8345       0.0187    5998.2692    5998.2879     122.8214         12     111.4819      -0.0427    5991.2672    5991.2244    5988.0131    5988.3297       0.3168
     927.0    4747.0981 1451040.0000    3684.0325     122.2854     122.8365       0.0181    5998.3154    5998.3335     122.8228         12     112.4819      -0.0371    5992.7721    5992.7349    5989.5727    5989.8714       0.2989
     928.0    4705.9063 1451040.0000    3684.0325     122.2843     122.8380       0.0195    5998.4238    5998.4434     122.8233         12     113.4819      -0.0298    5992.9566    5992.9268    5989.8564    5990.1339       0.2774
     929.0    4662.6525 1451040.0000    3684.0325     122.2832     122.8368       0.0214    5998.3781    5998.3994     122.8245         12     114.4819      -0.0241    5993.7096    5993.6856    5990.7494    5991.0020       0.2526
     930.0    4658.9381 1451040.0000    3684.0325     122.2843     122.8358       0.0216    5998.3717    5998.3932     122.8251         12     115.4819      -0.0194    5994.4175    5994.3979    5991.4091    5991.6347       0.2256
     931.0    4695.2388 1451040.0000    3684.0325     122.2840     122.8382       0.0203    5998.4750    5998.4953     122.8260         12     116.4819      -0.0149    5994.1931    5994.1782    5991.2628    5991.4612       0.1984
     932.0    4721.8188 1451040.0000    3684.0325     122.2829     122.8371       0.0192    5998.5492    5998.5685     122.8264         12     117.4819      -0.0119    5993.0278    5993.0159    5990.0643    5990.2371       0.1728
     933.0    4740.0106 1451040.0000    3684.0325     122.2835     122.8391       0.0186    5998.5290    5998.5476     122.8268         12     118.4819      -0.0109    5990.4638    5990.4531    5987.5429    5987.6931       0.1504
     934.0    4741.4712 1451040.0000    3684.0325     122.2838     122.8398       0.0180    5998.5290    5998.5469     122.8273         12     119.4819      -0.0101    5987.4976    5987.4874    5984.5922    5984.7246       0.1323
     935.0    4713.5437 1451040.0000    3684.0325     122.2829     122.8389       0.0163    5998.4488    5998.4651     122.8275         12     120.4819      -0.0087    5984.5379    5984.5294    5981.7116    5981.8302       0.1185
     936.0    4709.5650 1451040.0000    3684.0325     122.2815     122.8395       0.0145    5998.4099    5998.4246     122.8281         12     121.4819      -0.0075    5983.6926    5983.6853    5980.8870    5980.9946       0.1079
     937.0    4744.6481 1451040.0000    3684.0325     122.2828     122.8380       0.0143    5998.2114    5998.2256     122.8284         12     122.4819      -0.0340    5983.5400    5983.5058    5980.6916    5980.7384       0.0470
     938.0    4775.2644 1451040.0000    3684.0325     122.2822     122.8403       0.0158    5998.3071    5998.3229     122.8286         12     123.4819      -0.1078    5983.2646    5983.1567    5980.4596    5980.3735      -0.0860
     939.0    4779.1088 1451040.0000    3684.0325     122.2815     122.8396       0.0184    5998.3445    5998.3630     122.8288         12     124.4819      -0.2982    5983.0392    5982.7411    5980.2557    5979.8481      -0.4077
     940.0    4756.2431 1451040.0000    3684.0325     122.2829     122.8403       0.0200    5998.3550    5998.3750     122.8293         12     125.4819      -0.6217    5982.8612    5982.2396    5980.0532    5979.1020      -0.9511
     941.0    4707.5331 1451040.0000    3684.0325     122.2818     122.8403       0.0206    5998.2954    5998.3159     122.8296         12     126.4819      -0.8009    5982.6662    5981.8650    5979.8689    5978.5849      -1.2840
     942.0    4660.1706 1451040.0000    3684.0325     122.2786     122.8425       0.0214    5998.4383    5998.4597     122.8279         12     127.4819      -0.9306    5942.3942    5941.4636    5940.6086    5938.9880      -1.6205
     943.0    4640.5181 1451040.0000    3684.0325     122.2082     122.8404       0.0222    5998.5031    5998.5252     122.8078         13     128.4819      -0.9301    5493.9514    5493.0213    5498.5921    5496.7489      -1.8433
     944.0    4667.4669 1451040.0000    3684.0325     122.1768     122.8420       0.0222    5998.4333    5998.4555     122.8006         13     129.4819      -0.8022    5381.3938    5380.5915    5385.9156    5383.9849      -1.9309
     945.0    4677.7250 1451040.0000    3684.0325     122.1726     122.8433       0.0213    5998.5043    5998.5258     122.7971         13     130.4819      -0.5467    5372.3790    5371.8321    5375.9559    5374.1128      -1.8432
     946.0    4675.7931 1451040.0000    3684.0325     122.1758     122.8433       0.0194    5998.4982    5998.5176     122.7926         13     131.4819      -0.2135    5368.6270    5368.4134    5371.2380    5369.6204      -1.6179
     947.0    4713.8294 1451040.0000    3684.0325     122.1826     122.8425       0.0169    5998.3963    5998.4130     122.7884         13     132.4819       0.0945    5374.6468    5374.7410    5376.1524    5374.7846      -1.3679
     948.0    4728.1812 1451040.0000    3684.0325     122.1897     122.8438       0.0149    5998.3933    5998.4080     122.7838         13     133.4819       0.3086    5378.6578    5378.9662    5379.2940    5378.1357      -1.1582
     949.0    4740.3475 1451040.0000    3684.0325     122.1975     122.8428       0.0147    5998.3648    5998.3794     122.7799         13     134.4819       0.4339    5378.9910    5379.4248    5378.8988    5377.9361      -0.9626
     950.0    4770.0831 1451040.0000    3684.0325     122.2046     122.8439       0.0160    5998.2911    5998.3070     122.7764         13     135.4819       0.5088    5381.4091    5381.9178    5380.7547    5380.0085      -0.7462
     951.0    4777.6631 1451040.0000    3684.0325     122.2114     122.8440       0.0180    5998.3538    5998.3718     122.7736         13     136.4819       0.5475    5384.4313    5384.9787    5383.2610    5382.7399      -0.5213
     952.0    4738.7869 1451040.0000    3684.0325     122.2195     122.8443       0.0190    5998.3372    5998.3563     122.7714         13     137.4819       0.5499    5396.2073    5396.7573    5394.4006    5394.0870      -0.3135
     953.0    4684.6525 1451040.0000    3684.0325     122.2437     122.8448       0.0190    5998.3794    5998.3984     122.7746         13     138.4819       0.5219    5513.3503    5513.8722    5509.7153    5509.5826      -0.1327
     954.0    4655.8806 1451040.0000    3684.0325     122.2535     122.8458       0.0183    5998.4052    5998.4233     122.7743         13     139.4819       0.4646    5526.5128    5526.9774    5522.6995    5522.7081       0.0083
