~VERSION INFORMATION
VERS.           2.0   :CWLS Log ASCII Standard - VERSION 2.0
WRAP.           NO    :One Line per depth step
PROD.  Schlumberger   :LAS Producer
PROG.  DLIS to ASCII 2.2                               :LAS Program name and version
CREA.        2020/10/30 12:18                          :LAS Creation date {YYYY/MM/DD hh:mm}
SOURCE.     XPT_HRLA_TLD_MCFL_066LTP.DLIS              :DLIS File Name
FILE-ID.     XPT_HRLA_TLD_MCFL_066LTP                  :File Identification Number
#--------------------------------------------------
~WELL INFORMATION
#MNEM.UNIT      DATA             DESCRIPTION
#---- ------ --------------   -----------------------------
STRT .S         3575.0       :START TIME      
STOP .S         3949.0       :STOP TIME      
STEP .S            1.0       :STEP     
NULL .          -999.25      :NULL VALUE
COMP .        Nexus Energy                             :COMPANY
WELL .        Crux-3                                   :WELL
FLD  .        Crux                                     :FIELD
LOC  .        Easting: 656981.7mE                      :LOCATION
CNTY .        Sedco-703                                :COUNTY
STAT .        Northern Territory                       :STATE
CTRY .        Australia                                :COUNTRY
API  .                                                 :API NUMBER
UWI  .                                                 :UNIQUE WELL ID
DATE .        31-Dec-2007                              :LOG DATE {DD-MMM-YYYY}
SRVC .        Schlumberger                             :SERVICE COMPANY
LATI .DEG     12*57'32.63" S                           :LATITUDE
LONG .DEG     124*26'50.07" E                          :LONGITUDE
GDAT .                                                 :GeoDetic Datum
#-----------------------------------------------------------------------------
~PARAMETER INFORMATION
#MNEM.UNIT    VALUE                      DESCRIPTION
#---- -----   --------------------       ------------------------
RUN  .          1                        :RUN NUMBER
PDAT .        LAT                        :Permanent Datum
EPD  .M           0.000000               :Elevation of Permanent Datum above Mean Sea Level
EPD  .M           0.000000               :Elevation of tool zero above Mean Sea Level
LMF  .          DF                       :Logging Measured From (Name of Logging Elevation Reference)
APD  .M          26.400000               :Elevation of Depth Reference (LMF) above Permanent Datum
#-----------------------------------------------------------------------------
~CURVE INFORMATION
#MNEM.UNIT   API CODE                                  DESCRIPTION
#---- -----  --------                                  -----------------------
TIME .S                                                :TIME {F10.1}
TENS_SL.LBF                                            :Cable Tension {F13.4}
DEPT_SL..1IN                                           :Station logging depth {F13.4}
PDEP_XPT.M                                             :XPT Probe Depth {F13.4}
MTEP_SAP.DEGC                                          :Sapphire Gauge Manometer Temperature {F13.4}
MTEP_HYD.DEGC                                          :Hydrostatic Sapphire Gauge Manometer Temperature {F13.4}
PCO_HYD.PSI                                            :Hydrostatic Sapphire Dynamic Compensation {F13.4}
PND_HYD.PSI                                            :Hydrostatic Sapphire Pressure Without Dynamic Compensation {F13.4}
CP_HYD.PSI                                             :Hydrostatic Sapphire Pressure With Dynamic Compensation {F13.4}
MTEP_QG.DEGC                                           :CQG Manometer Temperature {F13.4}
PTNO_XPT.                                              :XPT Pretest Number {I11}
ETIM_XPT.S                                             :Elapsed Logging Time {F13.4}
PCO_SAP.PSI                                            :Sapphire Dynamic Compensation {F13.4}
PND_SAP.PSI                                            :Sapphire Pressure Without Dynamic Compensation {F13.4}
CP_SAP.PSI                                             :Sapphire Pressure With Dynamic Compensation {F13.4}
QNDP .PSI                                              :CQG Pressure Without Dynamic Compensation {F13.4}
QCP  .PSI                                              :CQG Pressure With Dynamic Compensation {F13.4}
QPCO .PSI                                              :CQG Dynamic Compensation {F13.4}
#-----------------------------------------------------------------------------
# 
#     TIME      TENS_SL      DEPT_SL      PDEP_XPT     MTEP_SAP     MTEP_HYD     PCO_HYD      PND_HYD       CP_HYD      MTEP_QG       PTNO_XPT       ETIM_XPT     PCO_SAP      PND_SAP       CP_SAP        QNDP         QCP          QPCO
#
~A  
# ...
    3855.0    5063.9280 1556924.0000    3952.9780     132.4832     133.0418       0.0012    6424.5152    6424.5162     132.5356         31     280.4710       0.0070    5694.9717    5694.9789    5691.9925    5692.3944       0.4020
    3856.0    5008.3780 1556924.0000    3952.9780     132.4821     133.0420       0.0017    6424.5601    6424.5617     132.5371         31     281.4710       0.0111    5694.9342    5694.9452    5691.9926    5692.3940       0.4015
    3857.0    4983.8400 1556924.0000    3952.9780     132.4841     133.0426       0.0051    6424.6179    6424.6231     132.5382         31     282.4710       0.0132    5694.9763    5694.9895    5691.9987    5692.3993       0.4005
    3858.0    4994.6380 1556924.0000    3952.9780     132.4836     133.0417       0.0101    6424.6960    6424.7061     132.5397         31     283.4710       0.0125    5694.8949    5694.9072    5692.0004    5692.3994       0.3991
    3859.0    4982.0580 1556924.0000    3952.9780     132.4856     133.0420       0.0134    6424.7638    6424.7771     132.5407         31     284.4710       0.0104    5695.0535    5695.0642    5691.9998    5692.3975       0.3976
    3860.0    4963.1020 1556924.0000    3952.9780     132.4849     133.0434       0.0138    6424.7130    6424.7268     132.5418         31     285.4710       0.0090    5694.9232    5694.9322    5691.9985    5692.3940       0.3955
    3861.0    4944.4130 1556924.0000    3952.9780     132.4834     133.0436       0.0127    6424.7161    6424.7289     132.5429         31     286.4710       0.0081    5694.8892    5694.8975    5692.0049    5692.3985       0.3936
    3862.0    4962.9560 1556924.0000    3952.9780     132.4841     133.0439       0.0114    6424.6920    6424.7032     132.5442         31     287.4710       0.0078    5694.9317    5694.9395    5692.0022    5692.3941       0.3920
    3863.0    5014.0280 1556924.0000    3952.9780     132.4841     133.0444       0.0098    6424.6108    6424.6208     132.5457         31     288.4710       0.0088    5694.9977    5695.0066    5692.0073    5692.3986       0.3913
    3864.0    5081.0860 1556924.0000    3952.9780     132.4861     133.0439       0.0081    6424.6683    6424.6762     132.5466         31     289.4710       0.0110    5695.0123    5695.0234    5692.0091    5692.3997       0.3908
    3865.0    5109.8770 1556924.0000    3952.9780     132.4863     133.0428       0.0068    6424.5535    6424.5603     132.5477         31     290.4710       0.0124    5695.0296    5695.0422    5692.0090    5692.3990       0.3898
    3866.0    5089.8120 1556924.0000    3952.9780     132.4850     133.0453       0.0067    6424.6115    6424.6184     132.5490         31     291.4710       0.0106    5694.8890    5694.8997    5692.0094    5692.3986       0.3891
    3867.0    5062.7540 1556924.0000    3952.9780     132.4859     133.0442       0.0067    6424.4896    6424.4965     132.5504         31     292.4710       0.0065    5694.9070    5694.9135    5692.0159    5692.4046       0.3887
    3868.0    5033.9280 1556924.0000    3952.9780     132.4869     133.0446       0.0057    6424.5930    6424.5988     132.5516         31     293.4710       0.0038    5695.0029    5695.0067    5692.0138    5692.4020       0.3883
    3869.0    4993.9210 1556924.0000    3952.9780     132.4864     133.0447       0.0045    6424.5922    6424.5968     132.5526         31     294.4710       0.0044    5694.9620    5694.9661    5692.0145    5692.4017       0.3872
    3870.0    4970.3550 1556924.0000    3952.9780     132.4858     133.0435       0.0040    6424.5727    6424.5766     132.5539         31     295.4710       0.0057    5694.9365    5694.9423    5692.0174    5692.4037       0.3860
    3871.0    4973.4710 1556924.0000    3952.9780     132.4862     133.0446       0.0053    6424.6253    6424.6308     132.5549         31     296.4710       0.0059    5694.9962    5695.0021    5692.0189    5692.4037       0.3849
    3872.0    4989.5430 1556924.0000    3952.9780     132.4854     133.0435       0.0073    6424.7092    6424.7166     132.5564         31     297.4710       0.0058    5694.9454    5694.9513    5692.0209    5692.4049       0.3840
    3873.0    4998.9930 1556924.0000    3952.9780     132.4875     133.0449       0.0091    6424.7576    6424.7669     132.5575         31     298.4710       0.0069    5694.9490    5694.9558    5692.0192    5692.4021       0.3827
    3874.0    4964.5660 1556924.0000    3952.9780     132.4859     133.0448       0.0101    6424.7021    6424.7124     132.5586         31     299.4710       0.0071    5694.8939    5694.9011    5692.0247    5692.4060       0.3813
    3875.0    4936.0000 1556924.0000    3952.9780     132.4855     133.0456       0.0093    6424.6499    6424.6594     132.5596         31     300.4710       0.0046    5694.9333    5694.9379    5692.0221    5692.4025       0.3803
    3876.0    4960.4920 1556924.0000    3952.9780     132.4863     133.0455       0.0081    6424.6428    6424.6511     132.5610         31     301.4710       0.0022    5694.8686    5694.8710    5692.0236    5692.4031       0.3796
    3877.0    5027.5640 1556924.0000    3952.9780     132.4871     133.0455       0.0075    6424.6490    6424.6563     132.5621         31     302.4710       0.0032    5694.9422    5694.9454    5692.0261    5692.4049       0.3789
    3878.0    5070.5870 1556924.0000    3952.9780     132.4865     133.0456       0.0082    6424.5889    6424.5970     132.5632         31     303.4710       0.0070    5694.8770    5694.8839    5692.0266    5692.4048       0.3782
    3879.0    5069.4710 1556924.0000    3952.9780     132.4857     133.0449       0.0096    6424.5233    6424.5330     132.5643         31     304.4710       0.0102    5694.8991    5694.9092    5692.0323    5692.4097       0.3776
    3880.0    5085.5430 1556924.0000    3952.9780     132.4859     133.0462       0.0105    6424.4741    6424.4845     132.5654         31     305.4710       0.0114    5694.9245    5694.9357    5692.0289    5692.4058       0.3768
    3881.0    5090.7540 1556924.0000    3952.9780     132.4881     133.0458       0.0106    6424.3657    6424.3764     132.5666         31     306.4710       0.0111    5694.9388    5694.9500    5692.0338    5692.4092       0.3755
    3882.0    5058.1600 1556924.0000    3952.9780     132.4866     133.0481       0.0098    6424.6463    6424.6561     132.5678         31     307.4710       0.0099    5694.9683    5694.9782    5692.0350    5692.4091       0.3739
    3883.0    5030.4060 1556924.0000    3952.9780     132.4892     133.0468       0.0082    6424.5492    6424.5574     132.5687         31     308.4710       0.0083    5695.0175    5695.0257    5692.0325    5692.4050       0.3723
    3884.0    4985.3200 1556924.0000    3952.9780     132.4878     133.0471       0.0065    6424.6925    6424.6991     132.5703         31     309.4710       0.0068    5694.9183    5694.9248    5692.0395    5692.4103       0.3709
    3885.0    4980.2090 1556924.0000    3952.9780     132.4879     133.0479       0.0061    6424.6743    6424.6802     132.5714         31     310.4710       0.0060    5694.9063    5694.9122    5692.0356    5692.4052       0.3696
    3886.0    5013.0510 1556924.0000    3952.9780     132.4882     133.0471       0.0077    6424.7271    6424.7346     132.5724         31     311.4710       0.0060    5694.8987    5694.9046    5692.0379    5692.4066       0.3686
    3887.0    4996.4060 1556924.0000    3952.9780     132.4881     133.0471       0.0091    6424.8831    6424.8922     132.5734         31     312.4710       0.0068    5694.9249    5694.9317    5692.0407    5692.4089       0.3683
    3888.0    4958.3850 1556924.0000    3952.9780     132.4899     133.0471       0.0085    6424.7876    6424.7959     132.5747         31     313.4710       0.0079    5694.9633    5694.9712    5692.0405    5692.4086       0.3682
    3889.0    4943.7820 1556924.0000    3952.9780     132.4879     133.0469       0.0068    6424.6959    6424.7026     132.5757         31     314.4710       0.0078    5694.8978    5694.9056    5692.0430    5692.4111       0.3678
