~VERSION INFORMATION
VERS.           2.0   :CWLS Log ASCII Standard - VERSION 2.0
WRAP.           NO    :One Line per depth step
PROD.  Schlumberger   :LAS Producer
PROG.  DLIS to ASCII 2.2                               :LAS Program name and version
CREA.        2020/10/30 12:18                          :LAS Creation date {YYYY/MM/DD hh:mm}
SOURCE.     XPT_HRLA_TLD_MCFL_060LTP.DLIS              :DLIS File Name
FILE-ID.     XPT_HRLA_TLD_MCFL_060LTP                  :File Identification Number
#--------------------------------------------------
~WELL INFORMATION
#MNEM.UNIT      DATA             DESCRIPTION
#---- ------ --------------   -----------------------------
STRT .S         8759.0       :START TIME      
STOP .S         8943.0       :STOP TIME      
STEP .S            1.0       :STEP     
NULL .          -999.25      :NULL VALUE
COMP .        Nexus Energy                             :COMPANY
WELL .        Crux-3                                   :WELL
FLD  .        Crux                                     :FIELD
LOC  .        Easting: 656981.7mE                      :LOCATION
CNTY .        Sedco-703                                :COUNTY
STAT .        Northern Territory                       :STATE
CTRY .        Australia                                :COUNTRY
API  .                                                 :API NUMBER
UWI  .                                                 :UNIQUE WELL ID
DATE .        31-Dec-2007                              :LOG DATE {DD-MMM-YYYY}
SRVC .        Schlumberger                             :SERVICE COMPANY
LATI .DEG     12*57'32.63" S                           :LATITUDE
LONG .DEG     124*26'50.07" E                          :LONGITUDE
GDAT .                                                 :GeoDetic Datum
#-----------------------------------------------------------------------------
~PARAMETER INFORMATION
#MNEM.UNIT    VALUE                      DESCRIPTION
#---- -----   --------------------       ------------------------
RUN  .          1                        :RUN NUMBER
PDAT .        LAT                        :Permanent Datum
EPD  .M           0.000000               :Elevation of Permanent Datum above Mean Sea Level
EPD  .M           0.000000               :Elevation of tool zero above Mean Sea Level
LMF  .          DF                       :Logging Measured From (Name of Logging Elevation Reference)
APD  .M          26.400000               :Elevation of Depth Reference (LMF) above Permanent Datum
#-----------------------------------------------------------------------------
~CURVE INFORMATION
#MNEM.UNIT   API CODE                                  DESCRIPTION
#---- -----  --------                                  -----------------------
TIME .S                                                :TIME {F10.1}
TENS_SL.LBF                                            :Cable Tension {F13.4}
DEPT_SL..1IN                                           :Station logging depth {F13.4}
PDEP_XPT.M                                             :XPT Probe Depth {F13.4}
MTEP_SAP.DEGC                                          :Sapphire Gauge Manometer Temperature {F13.4}
MTEP_HYD.DEGC                                          :Hydrostatic Sapphire Gauge Manometer Temperature {F13.4}
PCO_HYD.PSI                                            :Hydrostatic Sapphire Dynamic Compensation {F13.4}
PND_HYD.PSI                                            :Hydrostatic Sapphire Pressure Without Dynamic Compensation {F13.4}
CP_HYD.PSI                                             :Hydrostatic Sapphire Pressure With Dynamic Compensation {F13.4}
MTEP_QG.DEGC                                           :CQG Manometer Temperature {F13.4}
PTNO_XPT.                                              :XPT Pretest Number {I11}
ETIM_XPT.S                                             :Elapsed Logging Time {F13.4}
PCO_SAP.PSI                                            :Sapphire Dynamic Compensation {F13.4}
PND_SAP.PSI                                            :Sapphire Pressure Without Dynamic Compensation {F13.4}
CP_SAP.PSI                                             :Sapphire Pressure With Dynamic Compensation {F13.4}
QNDP .PSI                                              :CQG Pressure Without Dynamic Compensation {F13.4}
QCP  .PSI                                              :CQG Pressure With Dynamic Compensation {F13.4}
QPCO .PSI                                              :CQG Dynamic Compensation {F13.4}
#-----------------------------------------------------------------------------
# 
#     TIME      TENS_SL      DEPT_SL      PDEP_XPT     MTEP_SAP     MTEP_HYD     PCO_HYD      PND_HYD       CP_HYD      MTEP_QG       PTNO_XPT       ETIM_XPT     PCO_SAP      PND_SAP       CP_SAP        QNDP         QCP          QPCO
#
~A  
    8759.0    5099.9780 1538425.0000    3905.9902     129.0183     129.5741       0.0000    6349.4544    6349.4544     129.6193         24       0.0020       0.0000    6347.0878    6347.0878    6344.7046    6344.7046       0.0000
    8760.0    5088.9760 1538425.0000    3905.9902     129.0170     129.5757       0.0000    6349.6313    6349.6313     129.6191         24       1.0020       0.0000    6347.1853    6347.1853    6344.8251    6344.8251       0.0000
    8761.0    5076.9720 1538425.0000    3905.9902     129.0174     129.5761       0.0000    6349.7058    6349.7058     129.6194         24       2.0020       0.0000    6347.2694    6347.2694    6344.9093    6344.9093       0.0000
    8762.0    5062.9960 1538425.0000    3905.9902     129.0191     129.5749       0.0000    6349.7639    6349.7639     129.6196         24       3.0020       0.0000    6347.3758    6347.3758    6345.0347    6345.0347       0.0000
    8763.0    5061.0340 1538425.0000    3905.9902     129.0184     129.5759       0.0000    6349.8759    6349.8759     129.6197         24       4.0020       0.0000    6347.5585    6347.5585    6345.1553    6345.1553       0.0000
    8764.0    5078.1160 1538425.0000    3905.9902     129.0178     129.5755       0.0000    6349.9514    6349.9514     129.6199         24       5.0020       0.0000    6347.4968    6347.4968    6345.1955    6345.1955       0.0000
    8765.0    5136.0900 1538425.0000    3905.9902     129.0195     129.5764       0.0169    6350.0218    6350.0389     129.6204         24       6.0020       0.0203    6347.6103    6347.6308    6345.2393    6345.3018       0.0624
    8766.0    5180.9680 1538425.0000    3905.9902     129.0185     129.5772       0.0167    6350.0303    6350.0469     129.6202         24       7.0020       0.0237    6347.6701    6347.6936    6345.2854    6345.3474       0.0619
    8767.0    5165.0400 1538425.0000    3905.9902     129.0199     129.5766       0.0161    6350.0303    6350.0464     129.6205         24       8.0020       0.0249    6347.6847    6347.7096    6345.2187    6345.2799       0.0612
    8768.0    5184.9840 1538425.0000    3905.9902     129.0210     129.5764       0.0161    6349.9609    6349.9770     129.6208         24       9.0020       0.0258    6347.6232    6347.6491    6345.1269    6345.1875       0.0603
    8769.0    5176.8600 1538425.0000    3905.9902     129.0213     129.5782       0.0177    6349.9910    6350.0087     129.6208         24      10.0020       0.0257    6347.5376    6347.5633    6345.0933    6345.1534       0.0601
    8770.0    5106.8500 1538425.0000    3905.9902     129.0214     129.5768       0.0191    6349.9716    6349.9907     129.6210         24      11.0020       0.0234    6347.6670    6347.6904    6345.1657    6345.2263       0.0604
    8771.0    5032.0740 1538425.0000    3905.9902     129.0217     129.5765       0.0187    6349.9615    6349.9801     129.6212         24      12.0020       0.0195    6347.5131    6347.5326    6345.1843    6345.2454       0.0610
    8772.0    5068.8860 1538425.0000    3905.9902     129.0223     129.5796       0.0184    6350.0268    6350.0454     129.6215         24      13.0020       0.0158    6347.7179    6347.7336    6345.3606    6345.4221       0.0614
    8773.0    5012.0460 1538425.0000    3905.9902     129.0228     129.5797       0.0183    6350.2322    6350.2502     129.6217         24      14.0020       0.0147    6347.8472    6347.8618    6345.4522    6345.5137       0.0615
    8774.0    5035.1620 1538425.0000    3905.9902     129.0221     129.5803       0.0170    6350.3639    6350.3810     129.6217         24      15.0020       0.0151    6347.8171    6347.8322    6345.4554    6345.5169       0.0616
    8775.0    5116.0440 1538425.0000    3905.9902     129.0214     129.5795       0.0145    6350.2861    6350.3006     129.6221         24      16.0020       0.0158    6347.7999    6347.8157    6345.4489    6345.5111       0.0623
    8776.0    5137.9900 1538425.0000    3905.9902     129.0247     129.5792       0.0139    6350.2535    6350.2675     129.6222         24      17.0020       0.0163    6347.8863    6347.9024    6345.4391    6345.5024       0.0633
    8777.0    5132.9720 1538425.0000    3905.9902     129.0229     129.5788       0.0161    6350.2879    6350.3040     129.6225         24      18.0020       0.0171    6347.7939    6347.8110    6345.3680    6345.4320       0.0639
    8778.0    5118.8900 1538425.0000    3905.9902     129.0240     129.5800       0.0182    6350.1207    6350.1389     129.6227         24      19.0020       0.0179    6347.7364    6347.7545    6345.2728    6345.3372       0.0643
    8779.0    5063.9340 1538425.0000    3905.9902     129.0248     129.5805       0.0189    6350.2076    6350.2267     129.6229         24      20.0020       0.0180    6347.8278    6347.8459    6345.3522    6345.4172       0.0648
    8780.0    5030.9720 1538425.0000    3905.9902     129.0236     129.5825       0.0192    6350.3287    6350.3477     129.6230         24      21.0020       0.0172    6347.8020    6347.8191    6345.4004    6345.4653       0.0652
    8781.0    5017.0600 1538425.0000    3905.9902     129.0230     129.5818       0.0207    6350.3625    6350.3831     129.6231         24      22.0020       0.0171    6347.9167    6347.9340    6345.5794    6345.6444       0.0648
    8782.0    5047.0660 1538425.0000    3905.9902     129.0262     129.5805       0.0224    6350.4084    6350.4307     129.6234         24      23.0020       0.0187    6348.0211    6348.0400    6345.6102    6345.6747       0.0645
    8783.0    5080.0720 1538425.0000    3905.9902     129.0259     129.5825       0.0236    6350.3591    6350.3826     129.6237         24      24.0020       0.0201    6347.8553    6347.8753    6345.5407    6345.6052       0.0643
    8784.0    5116.0560 1538425.0000    3905.9902     129.0246     129.5820       0.0253    6350.4042    6350.4294     129.6237         24      25.0020       0.0193    6347.9829    6348.0022    6345.5666    6345.6311       0.0643
    8785.0    5144.0120 1538425.0000    3905.9902     129.0255     129.5841       0.0271    6350.3656    6350.3928     129.6240         24      26.0020       0.0176    6347.8598    6347.8775    6345.5115    6345.5754       0.0641
    8786.0    5149.9980 1538425.0000    3905.9902     129.0278     129.5841       0.0263    6350.4063    6350.4326     129.6245         24      27.0020       0.0171    6347.8734    6347.8905    6345.3915    6345.4554       0.0639
    8787.0    5148.9640 1538425.0000    3905.9902     129.0263     129.5838       0.0206    6350.2225    6350.2432     129.6242         24      28.0020       0.0171    6347.8572    6347.8743    6345.4058    6345.4697       0.0640
    8788.0    5130.8660 1538425.0000    3905.9902     129.0260     129.5843       0.0124    6350.3286    6350.3410     129.6246         24      29.0020       0.0160    6347.8622    6347.8780    6345.4916    6345.5559       0.0642
    8789.0    5063.8780 1538425.0000    3905.9902     129.0277     129.5856       0.0099    6350.4229    6350.4326     129.6249         24      30.0020       0.0157    6347.9323    6347.9479    6345.5238    6345.5887       0.0648
    8790.0    5002.9740 1538425.0000    3905.9902     129.0280     129.5859       0.0107    6350.3652    6350.3761     129.6252         24      31.0020       0.0180    6347.8749    6347.8928    6345.5003    6345.5655       0.0653
    8791.0    4990.0140 1538425.0000    3905.9902     129.0290     129.5843       0.0127    6350.4105    6350.4232     129.6254         24      32.0020       0.0211    6348.0868    6348.1080    6345.6253    6345.6912       0.0659
    8792.0    4997.1040 1538425.0000    3905.9902     129.0278     129.5841       0.0142    6350.5269    6350.5410     129.6254         24      33.0020       0.0225    6348.0532    6348.0757    6345.6849    6345.7513       0.0664
    8793.0    5049.0420 1538425.0000    3905.9902     129.0296     129.5864       0.0178    6350.4912    6350.5091     129.6257         24      34.0020       0.0222    6348.0714    6348.0937    6345.6143    6345.6812       0.0670
