~VERSION INFORMATION
VERS.           2.0   :CWLS Log ASCII Standard - VERSION 2.0
WRAP.           NO    :One Line per depth step
PROD.  Schlumberger   :LAS Producer
PROG.  DLIS to ASCII 2.2                               :LAS Program name and version
CREA.        2020/10/30 12:18                          :LAS Creation date {YYYY/MM/DD hh:mm}
SOURCE.     XPT_HRLA_TLD_MCFL_040LTP.DLIS              :DLIS File Name
FILE-ID.     XPT_HRLA_TLD_MCFL_040LTP                  :File Identification Number
#--------------------------------------------------
~WELL INFORMATION
#MNEM.UNIT      DATA             DESCRIPTION
#---- ------ --------------   -----------------------------
STRT .S          916.0       :START TIME      
STOP .S         1395.0       :STOP TIME      
STEP .S            1.0       :STEP     
NULL .          -999.25      :NULL VALUE
COMP .        Nexus Energy                             :COMPANY
WELL .        Crux-3                                   :WELL
FLD  .        Crux                                     :FIELD
LOC  .        Easting: 656981.7mE                      :LOCATION
CNTY .        Sedco-703                                :COUNTY
STAT .        Northern Territory                       :STATE
CTRY .        Australia                                :COUNTRY
API  .                                                 :API NUMBER
UWI  .                                                 :UNIQUE WELL ID
DATE .        31-Dec-2007                              :LOG DATE {DD-MMM-YYYY}
SRVC .        Schlumberger                             :SERVICE COMPANY
LATI .DEG     12*57'32.63" S                           :LATITUDE
LONG .DEG     124*26'50.07" E                          :LONGITUDE
GDAT .                                                 :GeoDetic Datum
#-----------------------------------------------------------------------------
~PARAMETER INFORMATION
#MNEM.UNIT    VALUE                      DESCRIPTION
#---- -----   --------------------       ------------------------
RUN  .          1                        :RUN NUMBER
PDAT .        LAT                        :Permanent Datum
EPD  .M           0.000000               :Elevation of Permanent Datum above Mean Sea Level
EPD  .M           0.000000               :Elevation of tool zero above Mean Sea Level
LMF  .          DF                       :Logging Measured From (Name of Logging Elevation Reference)
APD  .M          26.400000               :Elevation of Depth Reference (LMF) above Permanent Datum
#-----------------------------------------------------------------------------
~CURVE INFORMATION
#MNEM.UNIT   API CODE                                  DESCRIPTION
#---- -----  --------                                  -----------------------
TIME .S                                                :TIME {F10.1}
TENS_SL.LBF                                            :Cable Tension {F13.4}
DEPT_SL..1IN                                           :Station logging depth {F13.4}
PDEP_XPT.M                                             :XPT Probe Depth {F13.4}
MTEP_SAP.DEGC                                          :Sapphire Gauge Manometer Temperature {F13.4}
MTEP_HYD.DEGC                                          :Hydrostatic Sapphire Gauge Manometer Temperature {F13.4}
PCO_HYD.PSI                                            :Hydrostatic Sapphire Dynamic Compensation {F13.4}
PND_HYD.PSI                                            :Hydrostatic Sapphire Pressure Without Dynamic Compensation {F13.4}
CP_HYD.PSI                                             :Hydrostatic Sapphire Pressure With Dynamic Compensation {F13.4}
MTEP_QG.DEGC                                           :CQG Manometer Temperature {F13.4}
PTNO_XPT.                                              :XPT Pretest Number {I11}
ETIM_XPT.S                                             :Elapsed Logging Time {F13.4}
PCO_SAP.PSI                                            :Sapphire Dynamic Compensation {F13.4}
PND_SAP.PSI                                            :Sapphire Pressure Without Dynamic Compensation {F13.4}
CP_SAP.PSI                                             :Sapphire Pressure With Dynamic Compensation {F13.4}
QNDP .PSI                                              :CQG Pressure Without Dynamic Compensation {F13.4}
QCP  .PSI                                              :CQG Pressure With Dynamic Compensation {F13.4}
QPCO .PSI                                              :CQG Dynamic Compensation {F13.4}
#-----------------------------------------------------------------------------
# 
#     TIME      TENS_SL      DEPT_SL      PDEP_XPT     MTEP_SAP     MTEP_HYD     PCO_HYD      PND_HYD       CP_HYD      MTEP_QG       PTNO_XPT       ETIM_XPT     PCO_SAP      PND_SAP       CP_SAP        QNDP         QCP          QPCO
#
~A  
# ...
    1196.0    4752.1430 1419728.0000    3604.5000     119.1442     119.7059       0.0025    5871.5219    5871.5243     119.7059          6     279.8453       0.0020    5505.8895    5505.8915    5503.2619    5503.3303       0.0682
    1197.0    4762.4525 1419728.0000    3604.5000     119.1465     119.7045       0.0037    5871.4933    5871.4968     119.7063          6     280.8453       0.0036    5506.0563    5506.0599    5503.2701    5503.3384       0.0683
    1198.0    4768.2262 1419728.0000    3604.5000     119.1475     119.7060       0.0069    5871.5339    5871.5408     119.7065          6     281.8453       0.0066    5506.2293    5506.2359    5503.2711    5503.3394       0.0683
    1199.0    4736.8805 1419728.0000    3604.5000     119.1468     119.7039       0.0101    5871.4635    5871.4735     119.7066          6     282.8453       0.0105    5506.1925    5506.2030    5503.2756    5503.3435       0.0679
    1200.0    4697.1900 1419728.0000    3604.5000     119.1450     119.7060       0.0119    5871.5342    5871.5460     119.7071          6     283.8453       0.0139    5505.9912    5506.0050    5503.2808    5503.3486       0.0678
    1201.0    4659.7257 1419728.0000    3604.5000     119.1459     119.7068       0.0121    5871.5862    5871.5982     119.7071          6     284.8453       0.0151    5505.9265    5505.9416    5503.2849    5503.3528       0.0679
    1202.0    4656.5358 1419728.0000    3604.5000     119.1477     119.7060       0.0099    5871.5451    5871.5550     119.7073          6     285.8453       0.0141    5506.1261    5506.1402    5503.2927    5503.3605       0.0679
    1203.0    4662.0715 1419728.0000    3604.5000     119.1495     119.7081       0.0064    5871.6199    5871.6261     119.7079          6     286.8453       0.0118    5506.3787    5506.3904    5503.2938    5503.3612       0.0674
    1204.0    4679.0598 1419728.0000    3604.5000     119.1466     119.7066       0.0032    5871.5707    5871.5739     119.7078          6     287.8453       0.0089    5506.0928    5506.1016    5503.3052    5503.3721       0.0668
    1205.0    4711.5837 1419728.0000    3604.5000     119.1468     119.7066       0.0012    5871.5406    5871.5416     119.7080          6     288.8453       0.0059    5505.9968    5506.0028    5503.3112    5503.3772       0.0662
    1206.0    4749.9648 1419728.0000    3604.5000     119.1475     119.7060      -0.0001    5871.5938    5871.5937     119.7081          6     289.8453       0.0038    5506.0486    5506.0525    5503.3150    5503.3804       0.0653
    1207.0    4739.9402 1419728.0000    3604.5000     119.1499     119.7055      -0.0009    5871.5880    5871.5870     119.7086          6     290.8453       0.0030    5506.2617    5506.2646    5503.3248    5503.3895       0.0646
    1208.0    4729.3928 1419728.0000    3604.5000     119.1497     119.7075      -0.0011    5871.5498    5871.5488     119.7090          6     291.8453       0.0024    5506.3614    5506.3639    5503.3240    5503.3880       0.0643
    1209.0    4718.7023 1419728.0000    3604.5000     119.1481     119.7060      -0.0008    5871.4195    5871.4186     119.7091          6     292.8453       0.0017    5506.1412    5506.1431    5503.3306    5503.3946       0.0641
    1210.0    4682.3448 1419728.0000    3604.5000     119.1465     119.7060      -0.0001    5871.4746    5871.4744     119.7090          6     293.8453       0.0026    5505.9190    5505.9217    5503.3359    5503.3999       0.0640
    1211.0    4684.4525 1419728.0000    3604.5000     119.1475     119.7060       0.0019    5871.4150    5871.4168     119.7095          6     294.8453       0.0044    5506.0893    5506.0936    5503.3449    5503.4093       0.0644
    1212.0    4664.8687 1419728.0000    3604.5000     119.1503     119.7060       0.0056    5871.5342    5871.5398     119.7096          6     295.8453       0.0051    5506.3054    5506.3107    5503.3446    5503.4096       0.0652
    1213.0    4652.5475 1419728.0000    3604.5000     119.1468     119.7068       0.0095    5871.5564    5871.5662     119.7097          6     296.8453       0.0040    5506.1367    5506.1406    5503.3501    5503.4160       0.0658
    1214.0    4652.6905 1419728.0000    3604.5000     119.1481     119.7060       0.0121    5871.5342    5871.5463     119.7098          6     297.8453       0.0032    5506.0882    5506.0917    5503.3566    5503.4225       0.0659
    1215.0    4681.7385 1419728.0000    3604.5000     119.1478     119.7081       0.0127    5871.5553    5871.5680     119.7104          6     298.8453       0.0034    5506.0186    5506.0220    5503.3554    5503.4209       0.0655
    1216.0    4720.8100 1419728.0000    3604.5000     119.1487     119.7079       0.0118    5871.4948    5871.5067     119.7104          6     299.8453       0.0022    5506.1944    5506.1966    5503.3602    5503.4254       0.0651
    1217.0    4754.8933 1419728.0000    3604.5000     119.1495     119.7075       0.0096    5871.5255    5871.5349     119.7106          6     300.8453       0.0005    5506.3007    5506.3013    5503.3612    5503.4257       0.0646
    1218.0    4763.3810 1419728.0000    3604.5000     119.1487     119.7080       0.0071    5871.5544    5871.5616     119.7111          6     301.8453       0.0009    5506.3030    5506.3040    5503.3685    5503.4329       0.0642
    1219.0    4751.3213 1419728.0000    3604.5000     119.1472     119.7077       0.0059    5871.5065    5871.5124     119.7110          6     302.8453       0.0045    5505.9819    5505.9865    5503.3686    5503.4326       0.0639
    1220.0    4738.8570 1419728.0000    3604.5000     119.1460     119.7075       0.0065    5871.4902    5871.4966     119.7115          6     303.8453       0.0085    5505.9140    5505.9225    5503.3739    5503.4379       0.0638
    1221.0    4728.5475 1419728.0000    3604.5000     119.1501     119.7080       0.0080    5871.5544    5871.5623     119.7115          6     304.8453       0.0109    5506.3038    5506.3146    5503.3766    5503.4405       0.0638
    1222.0    4688.9637 1419728.0000    3604.5000     119.1500     119.7083       0.0091    5871.5269    5871.5359     119.7116          6     305.8453       0.0121    5506.3777    5506.3899    5503.3774    5503.4413       0.0640
    1223.0    4714.1195 1419728.0000    3604.5000     119.1496     119.7085       0.0095    5871.5976    5871.6072     119.7122          6     306.8453       0.0121    5506.2229    5506.2351    5503.3870    5503.4514       0.0642
    1224.0    4704.7855 1419728.0000    3604.5000     119.1492     119.7087       0.0101    5871.6213    5871.6316     119.7122          6     307.8453       0.0110    5506.0080    5506.0191    5503.3850    5503.4490       0.0639
    1225.0    4683.4045 1419728.0000    3604.5000     119.1501     119.7087       0.0107    5871.5902    5871.6010     119.7122          6     308.8453       0.0092    5506.1774    5506.1865    5503.3887    5503.4522       0.0634
    1226.0    4680.0000 1419728.0000    3604.5000     119.1523     119.7097       0.0098    5871.6097    5871.6196     119.7126          6     309.8453       0.0081    5506.3546    5506.3625    5503.3903    5503.4533       0.0631
    1227.0    4731.5603 1419728.0000    3604.5000     119.1499     119.7070       0.0074    5871.5015    5871.5087     119.7128          6     310.8453       0.0077    5506.3086    5506.3164    5503.3969    5503.4599       0.0630
    1228.0    4746.0715 1419728.0000    3604.5000     119.1491     119.7100       0.0055    5871.4873    5871.4930     119.7128          6     311.8453       0.0083    5506.1426    5506.1509    5503.3962    5503.4589       0.0627
    1229.0    4761.3692 1419728.0000    3604.5000     119.1489     119.7103       0.0057    5871.5788    5871.5846     119.7134          6     312.8453       0.0088    5506.0175    5506.0263    5503.3990    5503.4610       0.0619
    1230.0    4778.3692 1419728.0000    3604.5000     119.1532     119.7091       0.0060    5871.5063    5871.5122     119.7132          6     313.8453       0.0079    5506.3229    5506.3307    5503.4030    5503.4640       0.0612
