~VERSION INFORMATION
VERS.           2.0   :CWLS Log ASCII Standard - VERSION 2.0
WRAP.           NO    :One Line per depth step
PROD.  Schlumberger   :LAS Producer
PROG.  DLIS to ASCII 2.2                               :LAS Program name and version
CREA.        2020/10/30 12:18                          :LAS Creation date {YYYY/MM/DD hh:mm}
SOURCE.     XPT_HRLA_TLD_MCFL_037LTP.DLIS              :DLIS File Name
FILE-ID.     XPT_HRLA_TLD_MCFL_037LTP                  :File Identification Number
#--------------------------------------------------
~WELL INFORMATION
#MNEM.UNIT      DATA             DESCRIPTION
#---- ------ --------------   -----------------------------
STRT .S        35745.0       :START TIME      
STOP .S        36558.0       :STOP TIME      
STEP .S            1.0       :STEP     
NULL .          -999.25      :NULL VALUE
COMP .        Nexus Energy                             :COMPANY
WELL .        Crux-3                                   :WELL
FLD  .        Crux                                     :FIELD
LOC  .        Easting: 656981.7mE                      :LOCATION
CNTY .        Sedco-703                                :COUNTY
STAT .        Northern Territory                       :STATE
CTRY .        Australia                                :COUNTRY
API  .                                                 :API NUMBER
UWI  .                                                 :UNIQUE WELL ID
DATE .        31-Dec-2007                              :LOG DATE {DD-MMM-YYYY}
SRVC .        Schlumberger                             :SERVICE COMPANY
LATI .DEG     12*57'32.63" S                           :LATITUDE
LONG .DEG     124*26'50.07" E                          :LONGITUDE
GDAT .                                                 :GeoDetic Datum
#-----------------------------------------------------------------------------
~PARAMETER INFORMATION
#MNEM.UNIT    VALUE                      DESCRIPTION
#---- -----   --------------------       ------------------------
RUN  .          1                        :RUN NUMBER
PDAT .        LAT                        :Permanent Datum
EPD  .M           0.000000               :Elevation of Permanent Datum above Mean Sea Level
EPD  .M           0.000000               :Elevation of tool zero above Mean Sea Level
LMF  .          DF                       :Logging Measured From (Name of Logging Elevation Reference)
APD  .M          26.400000               :Elevation of Depth Reference (LMF) above Permanent Datum
#-----------------------------------------------------------------------------
~CURVE INFORMATION
#MNEM.UNIT   API CODE                                  DESCRIPTION
#---- -----  --------                                  -----------------------
TIME .S                                                :TIME {F10.1}
TENS_SL.LBF                                            :Cable Tension {F13.4}
DEPT_SL..1IN                                           :Station logging depth {F13.4}
PDEP_XPT.M                                             :XPT Probe Depth {F13.4}
MTEP_SAP.DEGC                                          :Sapphire Gauge Manometer Temperature {F13.4}
MTEP_HYD.DEGC                                          :Hydrostatic Sapphire Gauge Manometer Temperature {F13.4}
PCO_HYD.PSI                                            :Hydrostatic Sapphire Dynamic Compensation {F13.4}
PND_HYD.PSI                                            :Hydrostatic Sapphire Pressure Without Dynamic Compensation {F13.4}
CP_HYD.PSI                                             :Hydrostatic Sapphire Pressure With Dynamic Compensation {F13.4}
MTEP_QG.DEGC                                           :CQG Manometer Temperature {F13.4}
PTNO_XPT.                                              :XPT Pretest Number {I11}
ETIM_XPT.S                                             :Elapsed Logging Time {F13.4}
PCO_SAP.PSI                                            :Sapphire Dynamic Compensation {F13.4}
PND_SAP.PSI                                            :Sapphire Pressure Without Dynamic Compensation {F13.4}
CP_SAP.PSI                                             :Sapphire Pressure With Dynamic Compensation {F13.4}
QNDP .PSI                                              :CQG Pressure Without Dynamic Compensation {F13.4}
QCP  .PSI                                              :CQG Pressure With Dynamic Compensation {F13.4}
QPCO .PSI                                              :CQG Dynamic Compensation {F13.4}
#-----------------------------------------------------------------------------
# 
#     TIME      TENS_SL      DEPT_SL      PDEP_XPT     MTEP_SAP     MTEP_HYD     PCO_HYD      PND_HYD       CP_HYD      MTEP_QG       PTNO_XPT       ETIM_XPT     PCO_SAP      PND_SAP       CP_SAP        QNDP         QCP          QPCO
#
~A  
# ...
   36165.0    4615.9440 1417595.0000    3599.0823     118.7313     119.2807       0.0054    5862.8123    5862.8176     119.0160          1     419.7480       0.0135    5596.7286    5596.7422    5593.5731    5593.7319       0.1589
   36166.0    4697.0520 1417595.0000    3599.0823     118.7295     119.2795       0.0058    5862.7324    5862.7382     119.0166          1     420.7480       0.0138    5596.3301    5596.3440    5593.2647    5593.4239       0.1594
   36167.0    4733.2200 1417595.0000    3599.0823     118.7303     119.2805       0.0067    5862.6660    5862.6727     119.0171          1     421.7480       0.0116    5596.0627    5596.0741    5592.9641    5593.1233       0.1593
   36168.0    4732.5120 1417595.0000    3599.0823     118.7304     119.2811       0.0079    5862.5759    5862.5838     119.0176          1     422.7480       0.0081    5595.7980    5595.8062    5592.6979    5592.8566       0.1587
   36169.0    4705.5680 1417595.0000    3599.0823     118.7309     119.2797       0.0085    5862.5707    5862.5790     119.0182          1     423.7480       0.0053    5595.4259    5595.4311    5592.4090    5592.5672       0.1581
   36170.0    4622.9480 1417595.0000    3599.0823     118.7316     119.2811       0.0078    5862.6207    5862.6285     119.0188          1     424.7480       0.0042    5595.2579    5595.2623    5592.1302    5592.2879       0.1576
   36171.0    4586.0320 1417595.0000    3599.0823     118.7300     119.2812       0.0067    5862.6134    5862.6201     119.0193          1     425.7480       0.0044    5594.8520    5594.8565    5591.8589    5592.0165       0.1575
   36172.0    4591.7240 1417595.0000    3599.0823     118.7303     119.2808       0.0057    5862.6421    5862.6477     119.0195          1     426.7480       0.0051    5594.6497    5594.6548    5591.6044    5591.7619       0.1575
   36173.0    4571.0640 1417595.0000    3599.0823     118.7300     119.2816       0.0047    5862.8281    5862.8330     119.0203          1     427.7480       0.0062    5594.3394    5594.3457    5591.3292    5591.4869       0.1575
   36174.0    4601.1480 1417595.0000    3599.0823     118.7322     119.2801       0.0039    5862.6934    5862.6973     119.0208          1     428.7480       0.0082    5594.1830    5594.1914    5591.0744    5591.2321       0.1575
   36175.0    4700.7680 1417595.0000    3599.0823     118.7325     119.2808       0.0041    5862.7022    5862.7064     119.0212          1     429.7480       0.0103    5593.8706    5593.8811    5590.7961    5590.9534       0.1572
   36176.0    4727.0080 1417595.0000    3599.0823     118.7310     119.2816       0.0052    5862.5903    5862.5956     119.0219          1     430.7480       0.0112    5593.5221    5593.5333    5590.5294    5590.6866       0.1570
   36177.0    4702.0640 1417595.0000    3599.0823     118.7307     119.2811       0.0055    5862.5417    5862.5471     119.0221          1     431.7480       0.0105    5593.2767    5593.2874    5590.2785    5590.4353       0.1567
   36178.0    4694.0000 1417595.0000    3599.0823     118.7321     119.2821       0.0038    5862.5215    5862.5254     119.0228          1     432.7480       0.0092    5593.0368    5593.0460    5590.0083    5590.1648       0.1564
   36179.0    4681.2840 1417595.0000    3599.0823     118.7316     119.2814       0.0011    5862.5191    5862.5201     119.0232          1     433.7480       0.0076    5592.7611    5592.7685    5589.7549    5589.9111       0.1564
   36180.0    4621.6480 1417595.0000    3599.0823     118.7335     119.2817      -0.0002    5862.6006    5862.6006     119.0240          1     434.7480       0.0044    5592.5713    5592.5759    5589.5274    5589.6842       0.1569
   36181.0    4587.2920 1417595.0000    3599.0823     118.7315     119.2821       0.0002    5862.7002    5862.7005     119.0244          1     435.7480      -0.0004    5592.2920    5592.2917    5589.2768    5589.4342       0.1575
   36182.0    4598.4560 1417595.0000    3599.0823     118.7321     119.2808       0.0004    5862.6875    5862.6879     119.0249          1     436.7480      -0.0047    5592.0862    5592.0815    5589.0288    5589.1861       0.1575
   36183.0    4586.0480 1417595.0000    3599.0823     118.7312     119.2802      -0.0003    5862.8106    5862.8105     119.0254          1     437.7480      -0.0072    5591.7903    5591.7829    5588.8085    5588.9658       0.1573
   36184.0    4664.5240 1417595.0000    3599.0823     118.7320     119.2818      -0.0006    5862.6821    5862.6816     119.0259          1     438.7480      -0.0080    5591.5992    5591.5912    5588.5490    5588.7062       0.1573
   36185.0    4702.7240 1417595.0000    3599.0823     118.7321     119.2823      -0.0004    5862.7104    5862.7099     119.0265          1     439.7480      -0.0066    5591.3159    5591.3093    5588.3036    5588.4608       0.1573
   36186.0    4721.7080 1417595.0000    3599.0823     118.7320     119.2808      -0.0009    5862.5229    5862.5220     119.0268          1     440.7480      -0.0026    5591.0925    5591.0898    5588.0681    5588.2249       0.1567
   36187.0    4708.3000 1417595.0000    3599.0823     118.7318     119.2816      -0.0019    5862.4121    5862.4102     119.0275          1     441.7480       0.0025    5590.7963    5590.7990    5587.8253    5587.9813       0.1560
   36188.0    4690.0320 1417595.0000    3599.0823     118.7305     119.2822      -0.0009    5862.5376    5862.5366     119.0279          1     442.7480       0.0062    5590.5584    5590.5646    5587.6085    5587.7642       0.1556
   36189.0    4624.6640 1417595.0000    3599.0823     118.7323     119.2822       0.0035    5862.5969    5862.6005     119.0284          1     443.7480       0.0077    5590.4587    5590.4665    5587.3849    5587.5407       0.1557
   36190.0    4609.9840 1417595.0000    3599.0823     118.7330     119.2814       0.0087    5862.6480    5862.6565     119.0292          1     444.7480       0.0085    5590.1569    5590.1655    5587.1511    5587.3063       0.1554
   36191.0    4608.2600 1417595.0000    3599.0823     118.7320     119.2815       0.0121    5862.7036    5862.7158     119.0296          1     445.7480       0.0094    5589.9261    5589.9354    5586.9415    5587.0963       0.1550
   36192.0    4595.0320 1417595.0000    3599.0823     118.7327     119.2808       0.0130    5862.8155    5862.8287     119.0298          1     446.7480       0.0093    5589.7257    5589.7349    5586.7174    5586.8721       0.1546
   36193.0    4579.7800 1417595.0000    3599.0823     118.7330     119.2833       0.0130    5862.8906    5862.9037     119.0306          1     447.7480       0.0089    5589.4911    5589.4999    5586.4867    5586.6410       0.1545
   36194.0    4646.3120 1417595.0000    3599.0823     118.7323     119.2830       0.0122    5862.7341    5862.7464     119.0311          1     448.7480       0.0089    5589.2782    5589.2870    5586.2690    5586.4233       0.1544
   36195.0    4652.7960 1417595.0000    3599.0823     118.7337     119.2823       0.0096    5862.6387    5862.6483     119.0320          1     449.7480       0.0097    5588.9948    5589.0046    5586.0473    5586.2016       0.1542
   36196.0    4681.4080 1417595.0000    3599.0823     118.7327     119.2829       0.0058    5862.5445    5862.5503     119.0321          1     450.7480       0.0105    5588.7342    5588.7447    5585.8110    5585.9653       0.1542
   36197.0    4700.4800 1417595.0000    3599.0823     118.7342     119.2825       0.0031    5862.4219    5862.4250     119.0327          1     451.7480       0.0110    5588.5570    5588.5677    5585.5990    5585.7533       0.1544
   36198.0    4713.4720 1417595.0000    3599.0823     118.7347     119.2831       0.0031    5862.3967    5862.3997     119.0331          1     452.7480       0.0115    5588.4454    5588.4571    5585.3985    5585.5532       0.1546
   36199.0    4675.1120 1417595.0000    3599.0823     118.7329     119.2831       0.0041    5862.5464    5862.5505     119.0338          1     453.7480       0.0108    5588.1578    5588.1686    5585.1776    5585.3319       0.1544
