~VERSION INFORMATION
VERS.           2.0   :CWLS Log ASCII Standard - VERSION 2.0
WRAP.           NO    :One Line per depth step
PROD.  Schlumberger   :LAS Producer
PROG.  DLIS to ASCII 2.2                               :LAS Program name and version
CREA.        2020/10/30 12:18                          :LAS Creation date {YYYY/MM/DD hh:mm}
SOURCE.     XPT_HRLA_TLD_MCFL_051LTP.DLIS              :DLIS File Name
FILE-ID.     XPT_HRLA_TLD_MCFL_051LTP                  :File Identification Number
#--------------------------------------------------
~WELL INFORMATION
#MNEM.UNIT      DATA             DESCRIPTION
#---- ------ --------------   -----------------------------
STRT .S         3209.0       :START TIME      
STOP .S         3664.0       :STOP TIME      
STEP .S            1.0       :STEP     
NULL .          -999.25      :NULL VALUE
COMP .        Nexus Energy                             :COMPANY
WELL .        Crux-3                                   :WELL
FLD  .        Crux                                     :FIELD
LOC  .        Easting: 656981.7mE                      :LOCATION
CNTY .        Sedco-703                                :COUNTY
STAT .        Northern Territory                       :STATE
CTRY .        Australia                                :COUNTRY
API  .                                                 :API NUMBER
UWI  .                                                 :UNIQUE WELL ID
DATE .        31-Dec-2007                              :LOG DATE {DD-MMM-YYYY}
SRVC .        Schlumberger                             :SERVICE COMPANY
LATI .DEG     12*57'32.63" S                           :LATITUDE
LONG .DEG     124*26'50.07" E                          :LONGITUDE
GDAT .                                                 :GeoDetic Datum
#-----------------------------------------------------------------------------
~PARAMETER INFORMATION
#MNEM.UNIT    VALUE                      DESCRIPTION
#---- -----   --------------------       ------------------------
RUN  .          1                        :RUN NUMBER
PDAT .        LAT                        :Permanent Datum
EPD  .M           0.000000               :Elevation of Permanent Datum above Mean Sea Level
EPD  .M           0.000000               :Elevation of tool zero above Mean Sea Level
LMF  .          DF                       :Logging Measured From (Name of Logging Elevation Reference)
APD  .M          26.400000               :Elevation of Depth Reference (LMF) above Permanent Datum
#-----------------------------------------------------------------------------
~CURVE INFORMATION
#MNEM.UNIT   API CODE                                  DESCRIPTION
#---- -----  --------                                  -----------------------
TIME .S                                                :TIME {F10.1}
TENS_SL.LBF                                            :Cable Tension {F13.4}
DEPT_SL..1IN                                           :Station logging depth {F13.4}
PDEP_XPT.M                                             :XPT Probe Depth {F13.4}
MTEP_SAP.DEGC                                          :Sapphire Gauge Manometer Temperature {F13.4}
MTEP_HYD.DEGC                                          :Hydrostatic Sapphire Gauge Manometer Temperature {F13.4}
PCO_HYD.PSI                                            :Hydrostatic Sapphire Dynamic Compensation {F13.4}
PND_HYD.PSI                                            :Hydrostatic Sapphire Pressure Without Dynamic Compensation {F13.4}
CP_HYD.PSI                                             :Hydrostatic Sapphire Pressure With Dynamic Compensation {F13.4}
MTEP_QG.DEGC                                           :CQG Manometer Temperature {F13.4}
PTNO_XPT.                                              :XPT Pretest Number {I11}
ETIM_XPT.S                                             :Elapsed Logging Time {F13.4}
PCO_SAP.PSI                                            :Sapphire Dynamic Compensation {F13.4}
PND_SAP.PSI                                            :Sapphire Pressure Without Dynamic Compensation {F13.4}
CP_SAP.PSI                                             :Sapphire Pressure With Dynamic Compensation {F13.4}
QNDP .PSI                                              :CQG Pressure Without Dynamic Compensation {F13.4}
QCP  .PSI                                              :CQG Pressure With Dynamic Compensation {F13.4}
QPCO .PSI                                              :CQG Dynamic Compensation {F13.4}
#-----------------------------------------------------------------------------
# 
#     TIME      TENS_SL      DEPT_SL      PDEP_XPT     MTEP_SAP     MTEP_HYD     PCO_HYD      PND_HYD       CP_HYD      MTEP_QG       PTNO_XPT       ETIM_XPT     PCO_SAP      PND_SAP       CP_SAP        QNDP         QCP          QPCO
#
~A  
# ...
    3559.0    5059.0440 1496497.0000    3799.4934     125.2420     125.8498       0.0191    6181.3403    6181.3593     125.5757         16     350.0840       0.0285    5575.3115    5575.3399    5572.2698    5572.5500       0.2804
    3560.0    4996.8520 1496497.0000    3799.4934     125.2444     125.8485       0.0214    6181.4297    6181.4512     125.5767         16     351.0840       0.0281    5575.2966    5575.3248    5572.2695    5572.5498       0.2804
    3561.0    4908.1680 1496497.0000    3799.4934     125.2433     125.8487       0.0219    6181.3290    6181.3510     125.5776         16     352.0840       0.0266    5575.2714    5575.2980    5572.2705    5572.5513       0.2808
    3562.0    4909.7480 1496497.0000    3799.4934     125.2428     125.8509       0.0228    6181.5038    6181.5268     125.5786         16     353.0840       0.0236    5575.2339    5575.2573    5572.2749    5572.5557       0.2810
    3563.0    4906.4120 1496497.0000    3799.4934     125.2448     125.8503       0.0249    6181.6411    6181.6662     125.5795         16     354.0840       0.0203    5575.2303    5575.2505    5572.2811    5572.5612       0.2803
    3564.0    4901.0920 1496497.0000    3799.4934     125.2452     125.8504       0.0262    6181.5868    6181.6130     125.5802         16     355.0840       0.0175    5575.2115    5575.2289    5572.2786    5572.5576       0.2790
    3565.0    4920.0560 1496497.0000    3799.4934     125.2468     125.8514       0.0257    6181.5403    6181.5661     125.5811         16     356.0840       0.0160    5575.3261    5575.3422    5572.2720    5572.5499       0.2778
    3566.0    4997.4200 1496497.0000    3799.4934     125.2467     125.8516       0.0250    6181.5562    6181.5812     125.5821         16     357.0840       0.0167    5575.2402    5575.2569    5572.2788    5572.5562       0.2773
    3567.0    5003.1760 1496497.0000    3799.4934     125.2458     125.8513       0.0252    6181.4323    6181.4575     125.5830         16     358.0840       0.0200    5575.2198    5575.2397    5572.2770    5572.5541       0.2770
    3568.0    5016.1680 1496497.0000    3799.4934     125.2471     125.8536       0.0261    6181.5014    6181.5273     125.5839         16     359.0840       0.0243    5575.3857    5575.4100    5572.2752    5572.5516       0.2764
    3569.0    5016.9080 1496497.0000    3799.4934     125.2454     125.8523       0.0263    6181.3293    6181.3557     125.5849         16     360.0840       0.0272    5575.1680    5575.1952    5572.2813    5572.5572       0.2761
    3570.0    4998.9520 1496497.0000    3799.4934     125.2466     125.8542       0.0257    6181.3871    6181.4127     125.5856         16     361.0840       0.0281    5575.1720    5575.2001    5572.2852    5572.5616       0.2762
    3571.0    4932.1600 1496497.0000    3799.4934     125.2473     125.8543       0.0250    6181.4488    6181.4737     125.5866         16     362.0840       0.0274    5575.2992    5575.3266    5572.2860    5572.5623       0.2763
    3572.0    4924.7640 1496497.0000    3799.4934     125.2484     125.8559       0.0242    6181.5254    6181.5497     125.5872         16     363.0840       0.0252    5575.2508    5575.2759    5572.2886    5572.5644       0.2757
    3573.0    4938.8760 1496497.0000    3799.4934     125.2498     125.8549       0.0225    6181.5075    6181.5301     125.5883         16     364.0840       0.0217    5575.3306    5575.3525    5572.2909    5572.5658       0.2748
    3574.0    4888.4600 1496497.0000    3799.4934     125.2494     125.8558       0.0208    6181.6387    6181.6597     125.5891         16     365.0840       0.0184    5575.2296    5575.2482    5572.2894    5572.5638       0.2744
    3575.0    4949.6800 1496497.0000    3799.4934     125.2497     125.8547       0.0211    6181.4526    6181.4738     125.5899         16     366.0840       0.0176    5575.3299    5575.3475    5572.2920    5572.5664       0.2743
    3576.0    4971.7800 1496497.0000    3799.4934     125.2505     125.8566       0.0236    6181.5260    6181.5495     125.5909         16     367.0840       0.0183    5575.3106    5575.3290    5572.2913    5572.5649       0.2737
    3577.0    5015.8560 1496497.0000    3799.4934     125.2499     125.8552       0.0259    6181.3406    6181.3664     125.5917         16     368.0840       0.0185    5575.3473    5575.3658    5572.2858    5572.5583       0.2726
    3578.0    5046.6640 1496497.0000    3799.4934     125.2510     125.8565       0.0267    6181.2924    6181.3192     125.5927         16     369.0840       0.0185    5575.3251    5575.3437    5572.2913    5572.5627       0.2715
    3579.0    5039.7240 1496497.0000    3799.4934     125.2509     125.8583       0.0268    6181.4344    6181.4612     125.5935         16     370.0840       0.0202    5575.2906    5575.3107    5572.2946    5572.5653       0.2708
    3580.0    4995.2640 1496497.0000    3799.4934     125.2516     125.8582       0.0262    6181.5486    6181.5750     125.5944         16     371.0840       0.0230    5575.2456    5575.2685    5572.2954    5572.5655       0.2702
    3581.0    4900.0840 1496497.0000    3799.4934     125.2506     125.8578       0.0239    6181.3743    6181.3980     125.5952         16     372.0840       0.0250    5575.1882    5575.2133    5572.2983    5572.5678       0.2696
    3582.0    4903.7720 1496497.0000    3799.4934     125.2513     125.8595       0.0204    6181.5166    6181.5370     125.5960         16     373.0840       0.0258    5575.3239    5575.3498    5572.2993    5572.5688       0.2693
    3583.0    4933.6640 1496497.0000    3799.4934     125.2531     125.8582       0.0187    6181.4897    6181.5083     125.5969         16     374.0840       0.0269    5575.3156    5575.3424    5572.3038    5572.5733       0.2695
    3584.0    4931.5960 1496497.0000    3799.4934     125.2538     125.8613       0.0201    6181.6700    6181.6901     125.5978         16     375.0840       0.0285    5575.2036    5575.2320    5572.3043    5572.5740       0.2696
    3585.0    4954.5440 1496497.0000    3799.4934     125.2537     125.8591       0.0235    6181.4644    6181.4880     125.5987         16     376.0840       0.0287    5575.2601    5575.2889    5572.3005    5572.5700       0.2696
    3586.0    5013.8240 1496497.0000    3799.4934     125.2528     125.8604       0.0266    6181.5142    6181.5410     125.5994         16     377.0840       0.0270    5575.2676    5575.2945    5572.2981    5572.5672       0.2692
    3587.0    5001.1680 1496497.0000    3799.4934     125.2545     125.8614       0.0286    6181.5075    6181.5359     125.6003         16     378.0840       0.0245    5575.2827    5575.3074    5572.3022    5572.5713       0.2690
    3588.0    5003.7560 1496497.0000    3799.4934     125.2548     125.8615       0.0288    6181.4161    6181.4449     125.6011         16     379.0840       0.0228    5575.3076    5575.3303    5572.3022    5572.5707       0.2686
    3589.0    5014.6880 1496497.0000    3799.4934     125.2526     125.8624       0.0268    6181.3893    6181.4162     125.6019         16     380.0840       0.0221    5575.2031    5575.2251    5572.3054    5572.5734       0.2679
    3590.0    5038.7080 1496497.0000    3799.4934     125.2563     125.8627       0.0235    6181.4133    6181.4370     125.6030         16     381.0840       0.0216    5575.3586    5575.3801    5572.3075    5572.5750       0.2673
    3591.0    4975.4560 1496497.0000    3799.4934     125.2543     125.8635       0.0214    6181.4863    6181.5075     125.6038         16     382.0840       0.0198    5575.2906    5575.3103    5572.3075    5572.5746       0.2670
    3592.0    4915.0000 1496497.0000    3799.4934     125.2541     125.8631       0.0214    6181.4508    6181.4722     125.6044         16     383.0840       0.0174    5575.2989    5575.3165    5572.3073    5572.5739       0.2667
    3593.0    4913.9080 1496497.0000    3799.4934     125.2551     125.8635       0.0227    6181.4095    6181.4321     125.6053         16     384.0840       0.0166    5575.3067    5575.3233    5572.3123    5572.5787       0.2664
