~VERSION INFORMATION
VERS.           2.0   :CWLS Log ASCII Standard - VERSION 2.0
WRAP.           NO    :One Line per depth step
PROD.  Schlumberger   :LAS Producer
PROG.  DLIS to ASCII 2.2                               :LAS Program name and version
CREA.        2020/10/30 12:18                          :LAS Creation date {YYYY/MM/DD hh:mm}
SOURCE.     XPT_HRLA_TLD_MCFL_069LTP.DLIS              :DLIS File Name
FILE-ID.     XPT_HRLA_TLD_MCFL_069LTP                  :File Identification Number
#--------------------------------------------------
~WELL INFORMATION
#MNEM.UNIT      DATA             DESCRIPTION
#---- ------ --------------   -----------------------------
STRT .S         1113.0       :START TIME      
STOP .S         1454.0       :STOP TIME      
STEP .S            1.0       :STEP     
NULL .          -999.25      :NULL VALUE
COMP .        Nexus Energy                             :COMPANY
WELL .        Crux-3                                   :WELL
FLD  .        Crux                                     :FIELD
LOC  .        Easting: 656981.7mE                      :LOCATION
CNTY .        Sedco-703                                :COUNTY
STAT .        Northern Territory                       :STATE
CTRY .        Australia                                :COUNTRY
API  .                                                 :API NUMBER
UWI  .                                                 :UNIQUE WELL ID
DATE .        31-Dec-2007                              :LOG DATE {DD-MMM-YYYY}
SRVC .        Schlumberger                             :SERVICE COMPANY
LATI .DEG     12*57'32.63" S                           :LATITUDE
LONG .DEG     124*26'50.07" E                          :LONGITUDE
GDAT .                                                 :GeoDetic Datum
#-----------------------------------------------------------------------------
~PARAMETER INFORMATION
#MNEM.UNIT    VALUE                      DESCRIPTION
#---- -----   --------------------       ------------------------
RUN  .          1                        :RUN NUMBER
PDAT .        LAT                        :Permanent Datum
EPD  .M           0.000000               :Elevation of Permanent Datum above Mean Sea Level
EPD  .M           0.000000               :Elevation of tool zero above Mean Sea Level
LMF  .          DF                       :Logging Measured From (Name of Logging Elevation Reference)
APD  .M          26.400000               :Elevation of Depth Reference (LMF) above Permanent Datum
#-----------------------------------------------------------------------------
~CURVE INFORMATION
#MNEM.UNIT   API CODE                                  DESCRIPTION
#---- -----  --------                                  -----------------------
TIME .S                                                :TIME {F10.1}
TENS_SL.LBF                                            :Cable Tension {F13.4}
DEPT_SL..1IN                                           :Station logging depth {F13.4}
PDEP_XPT.M                                             :XPT Probe Depth {F13.4}
MTEP_SAP.DEGC                                          :Sapphire Gauge Manometer Temperature {F13.4}
MTEP_HYD.DEGC                                          :Hydrostatic Sapphire Gauge Manometer Temperature {F13.4}
PCO_HYD.PSI                                            :Hydrostatic Sapphire Dynamic Compensation {F13.4}
PND_HYD.PSI                                            :Hydrostatic Sapphire Pressure Without Dynamic Compensation {F13.4}
CP_HYD.PSI                                             :Hydrostatic Sapphire Pressure With Dynamic Compensation {F13.4}
MTEP_QG.DEGC                                           :CQG Manometer Temperature {F13.4}
PTNO_XPT.                                              :XPT Pretest Number {I11}
ETIM_XPT.S                                             :Elapsed Logging Time {F13.4}
PCO_SAP.PSI                                            :Sapphire Dynamic Compensation {F13.4}
PND_SAP.PSI                                            :Sapphire Pressure Without Dynamic Compensation {F13.4}
CP_SAP.PSI                                             :Sapphire Pressure With Dynamic Compensation {F13.4}
QNDP .PSI                                              :CQG Pressure Without Dynamic Compensation {F13.4}
QCP  .PSI                                              :CQG Pressure With Dynamic Compensation {F13.4}
QPCO .PSI                                              :CQG Dynamic Compensation {F13.4}
#-----------------------------------------------------------------------------
# 
#     TIME      TENS_SL      DEPT_SL      PDEP_XPT     MTEP_SAP     MTEP_HYD     PCO_HYD      PND_HYD       CP_HYD      MTEP_QG       PTNO_XPT       ETIM_XPT     PCO_SAP      PND_SAP       CP_SAP        QNDP         QCP          QPCO
#
~A  
# ...
    1183.0    4966.1389 1534897.0000    3897.0293     133.0115     133.3527      -0.1608    6335.9648    6335.8042     133.6732         33      69.8951      -0.1307    6247.5666    6247.4357    6246.6226    6245.9693      -0.6532
    1184.0    4904.6071 1534897.0000    3897.0293     133.0086     133.3487      -0.1578    6336.1649    6336.0070     133.6712         33      70.8951      -0.1238    6243.7616    6243.6378    6242.8108    6242.1647      -0.6459
    1185.0    4917.6928 1534897.0000    3897.0293     133.0058     133.3460      -0.1561    6336.0750    6335.9188     133.6693         33      71.8951      -0.1134    6239.4191    6239.3056    6238.4964    6237.8607      -0.6358
    1186.0    4892.2511 1534897.0000    3897.0293     133.0033     133.3421      -0.1554    6336.1560    6336.0008     133.6674         33      72.8951      -0.1020    6236.1732    6236.0711    6235.2037    6234.5802      -0.6235
    1187.0    4922.1196 1534897.0000    3897.0293     133.0037     133.3406      -0.1545    6336.1998    6336.0455     133.6652         33      73.8951      -0.0922    6235.9436    6235.8515    6234.7415    6234.1331      -0.6085
    1188.0    5002.9807 1534897.0000    3897.0293     133.0026     133.3366      -0.1543    6336.0965    6335.9422     133.6635         33      74.8951      -0.0866    6236.3573    6236.2707    6235.1811    6234.5875      -0.5936
    1189.0    5071.9734 1534897.0000    3897.0293     132.9992     133.3348      -0.1551    6336.1384    6335.9831     133.6621         33      75.8951      -0.0887    6236.9098    6236.8209    6235.7376    6235.1526      -0.5850
    1190.0    5069.1536 1534897.0000    3897.0293     133.0006     133.3314      -0.1556    6336.0809    6335.9253     133.6600         33      76.8951      -0.1004    6235.8575    6235.7572    6234.4616    6233.8726      -0.5889
    1191.0    5059.0487 1534897.0000    3897.0293     132.9972     133.3289      -0.1557    6335.9930    6335.8372     133.6584         33      77.8951      -0.1210    6236.7693    6236.6483    6235.4693    6234.8636      -0.6057
    1192.0    4986.3900 1534897.0000    3897.0293     132.9965     133.3257      -0.1571    6336.0101    6335.8529     133.6570         33      78.8951      -0.1463    6236.4595    6236.3131    6235.0837    6234.4510      -0.6325
    1193.0    4913.5510 1534897.0000    3897.0293     132.9942     133.3225      -0.1594    6336.0676    6335.9083     133.6550         33      79.8951      -0.1711    6229.7518    6229.5807    6228.3933    6227.7278      -0.6656
    1194.0    4885.4121 1534897.0000    3897.0293     132.9889     133.3205      -0.1591    6336.0859    6335.9268     133.6527         33      80.8951      -0.1905    6216.0677    6215.8771    6214.9792    6214.2809      -0.6982
    1195.0    4880.3146 1534897.0000    3897.0293     132.9857     133.3177      -0.1549    6336.2579    6336.1031     133.6504         33      81.8951      -0.1892    6201.2925    6201.1035    6200.4263    6199.7256      -0.7008
    1196.0    4885.3708 1534897.0000    3897.0293     132.9795     133.3139      -0.1505    6336.2788    6336.1282     133.6480         33      82.8951      -0.1443    6186.6207    6186.4763    6185.8810    6185.2475      -0.6334
    1197.0    4964.7710 1534897.0000    3897.0293     132.9769     133.3116      -0.1496    6336.2150    6336.0653     133.6457         33      83.8951      -0.0533    6174.2141    6174.1610    6173.4733    6172.9780      -0.4955
    1198.0    5039.3441 1534897.0000    3897.0293     132.9728     133.3093      -0.1508    6336.1683    6336.0174     133.6434         33      84.8951       0.0536    6162.5914    6162.6451    6161.9361    6161.6047      -0.3316
    1199.0    5017.4609 1534897.0000    3897.0293     132.9689     133.3070      -0.1510    6336.0845    6335.9336     133.6410         33      85.8951       0.1346    6153.9905    6154.1250    6153.4422    6153.2505      -0.1916
    1200.0    5002.3634 1534897.0000    3897.0293     132.9790     133.3050      -0.1514    6336.1730    6336.0216     133.6425         33      86.8951       0.1739    6233.2048    6233.3788    6230.4975    6230.4129      -0.0844
    1201.0    4973.2511 1534897.0000    3897.0293     132.9973     133.3009      -0.1547    6335.9595    6335.8048     133.6458         33      87.8951       0.1720    6333.0909    6333.2629    6330.2764    6330.2644      -0.0120
    1202.0    4916.2925 1534897.0000    3897.0293     132.9998     133.2970      -0.1591    6336.0474    6335.8884     133.6447         33      88.8951       0.1255    6334.5696    6334.6952    6331.7741    6331.7812       0.0071
    1203.0    4945.8050 1534897.0000    3897.0293     132.9972     133.2949      -0.1603    6336.1639    6336.0036     133.6441         33      89.8951       0.0377    6334.3079    6334.3457    6331.6741    6331.6370      -0.0369
    1204.0    4894.5022 1534897.0000    3897.0293     132.9951     133.2933      -0.1580    6336.1802    6336.0220     133.6437         33      90.8951      -0.0631    6334.3591    6334.2961    6332.0298    6331.9203      -0.1095
    1205.0    4881.7341 1534897.0000    3897.0293     132.9925     133.2882      -0.1553    6336.2290    6336.0738     133.6432         33      91.8951      -0.1391    6334.0855    6333.9464    6331.8184    6331.6525      -0.1656
    1206.0    4888.1610 1534897.0000    3897.0293     132.9866     133.2872      -0.1537    6336.2979    6336.1440     133.6426         33      92.8951      -0.1783    6333.3637    6333.1853    6331.4172    6331.2215      -0.1957
    1207.0    4916.7489 1534897.0000    3897.0293     132.9834     133.2856      -0.1530    6336.3412    6336.1884     133.6420         33      93.8951      -0.1942    6331.5893    6331.3950    6329.6908    6329.4722      -0.2185
    1208.0    4971.0221 1534897.0000    3897.0293     132.9800     133.2795      -0.1540    6336.2360    6336.0820     133.6415         33      94.8951      -0.2032    6329.2076    6329.0044    6327.5506    6327.3000      -0.2507
    1209.0    5018.1758 1534897.0000    3897.0293     132.9764     133.2788      -0.1566    6336.2690    6336.1125     133.6409         33      95.8951      -0.2096    6325.1698    6324.9604    6323.6347    6323.3455      -0.2890
    1210.0    5059.7001 1534897.0000    3897.0293     132.9730     133.2765      -0.1587    6336.1841    6336.0254     133.6396         33      96.8951      -0.2123    6321.2095    6320.9971    6319.8017    6319.4728      -0.3288
    1211.0    5063.1049 1534897.0000    3897.0293     132.9681     133.2727      -0.1591    6336.1436    6335.9844     133.6387         33      97.8951      -0.2091    6317.4482    6317.2388    6316.1915    6315.8248      -0.3666
    1212.0    5009.2925 1534897.0000    3897.0293     132.9647     133.2686      -0.1588    6336.0591    6335.9005     133.6376         33      98.8951      -0.2009    6313.7329    6313.5322    6312.5637    6312.1623      -0.4013
    1213.0    4954.6632 1534897.0000    3897.0293     132.9617     133.2662      -0.1585    6336.0729    6335.9143     133.6364         33      99.8951      -0.1904    6310.4471    6310.2567    6309.2118    6308.7789      -0.4328
    1214.0    4906.9291 1534897.0000    3897.0293     132.9567     133.2638      -0.1572    6336.1320    6335.9749     133.6348         33     100.8951      -0.1805    6306.7130    6306.5323    6305.6922    6305.2314      -0.4607
    1215.0    4881.4121 1534897.0000    3897.0293     132.9557     133.2612      -0.1554    6336.1839    6336.0285     133.6335         33     101.8951      -0.1713    6304.0116    6303.8404    6302.8802    6302.3966      -0.4836
    1216.0    4886.1610 1534897.0000    3897.0293     132.9521     133.2586      -0.1550    6336.2051    6336.0504     133.6319         33     102.8951      -0.1624    6300.7314    6300.5688    6299.5777    6299.0763      -0.5013
    1217.0    4929.0709 1534897.0000    3897.0293     132.9476     133.2543      -0.1573    6336.2790    6336.1215     133.6303         33     103.8951      -0.1547    6297.8018    6297.6471    6296.7814    6296.2666      -0.5146
