~VERSION INFORMATION
VERS.           2.0   :CWLS Log ASCII Standard - VERSION 2.0
WRAP.           NO    :One Line per depth step
PROD.  Schlumberger   :LAS Producer
PROG.  DLIS to ASCII 2.2                               :LAS Program name and version
CREA.        2020/10/30 12:18                          :LAS Creation date {YYYY/MM/DD hh:mm}
SOURCE.     XPT_HRLA_TLD_MCFL_060LTP.DLIS              :DLIS File Name
FILE-ID.     XPT_HRLA_TLD_MCFL_060LTP                  :File Identification Number
#--------------------------------------------------
~WELL INFORMATION
#MNEM.UNIT      DATA             DESCRIPTION
#---- ------ --------------   -----------------------------
STRT .S         8759.0       :START TIME      
STOP .S         8943.0       :STOP TIME      
STEP .S            1.0       :STEP     
NULL .          -999.25      :NULL VALUE
COMP .        Nexus Energy                             :COMPANY
WELL .        Crux-3                                   :WELL
FLD  .        Crux                                     :FIELD
LOC  .        Easting: 656981.7mE                      :LOCATION
CNTY .        Sedco-703                                :COUNTY
STAT .        Northern Territory                       :STATE
CTRY .        Australia                                :COUNTRY
API  .                                                 :API NUMBER
UWI  .                                                 :UNIQUE WELL ID
DATE .        31-Dec-2007                              :LOG DATE {DD-MMM-YYYY}
SRVC .        Schlumberger                             :SERVICE COMPANY
LATI .DEG     12*57'32.63" S                           :LATITUDE
LONG .DEG     124*26'50.07" E                          :LONGITUDE
GDAT .                                                 :GeoDetic Datum
#-----------------------------------------------------------------------------
~PARAMETER INFORMATION
#MNEM.UNIT    VALUE                      DESCRIPTION
#---- -----   --------------------       ------------------------
RUN  .          1                        :RUN NUMBER
PDAT .        LAT                        :Permanent Datum
EPD  .M           0.000000               :Elevation of Permanent Datum above Mean Sea Level
EPD  .M           0.000000               :Elevation of tool zero above Mean Sea Level
LMF  .          DF                       :Logging Measured From (Name of Logging Elevation Reference)
APD  .M          26.400000               :Elevation of Depth Reference (LMF) above Permanent Datum
#-----------------------------------------------------------------------------
~CURVE INFORMATION
#MNEM.UNIT   API CODE                                  DESCRIPTION
#---- -----  --------                                  -----------------------
TIME .S                                                :TIME {F10.1}
TENS_SL.LBF                                            :Cable Tension {F13.4}
DEPT_SL..1IN                                           :Station logging depth {F13.4}
PDEP_XPT.M                                             :XPT Probe Depth {F13.4}
MTEP_SAP.DEGC                                          :Sapphire Gauge Manometer Temperature {F13.4}
MTEP_HYD.DEGC                                          :Hydrostatic Sapphire Gauge Manometer Temperature {F13.4}
PCO_HYD.PSI                                            :Hydrostatic Sapphire Dynamic Compensation {F13.4}
PND_HYD.PSI                                            :Hydrostatic Sapphire Pressure Without Dynamic Compensation {F13.4}
CP_HYD.PSI                                             :Hydrostatic Sapphire Pressure With Dynamic Compensation {F13.4}
MTEP_QG.DEGC                                           :CQG Manometer Temperature {F13.4}
PTNO_XPT.                                              :XPT Pretest Number {I11}
ETIM_XPT.S                                             :Elapsed Logging Time {F13.4}
PCO_SAP.PSI                                            :Sapphire Dynamic Compensation {F13.4}
PND_SAP.PSI                                            :Sapphire Pressure Without Dynamic Compensation {F13.4}
CP_SAP.PSI                                             :Sapphire Pressure With Dynamic Compensation {F13.4}
QNDP .PSI                                              :CQG Pressure Without Dynamic Compensation {F13.4}
QCP  .PSI                                              :CQG Pressure With Dynamic Compensation {F13.4}
QPCO .PSI                                              :CQG Dynamic Compensation {F13.4}
#-----------------------------------------------------------------------------
# 
#     TIME      TENS_SL      DEPT_SL      PDEP_XPT     MTEP_SAP     MTEP_HYD     PCO_HYD      PND_HYD       CP_HYD      MTEP_QG       PTNO_XPT       ETIM_XPT     PCO_SAP      PND_SAP       CP_SAP        QNDP         QCP          QPCO
#
~A  
# ...
    8899.0    4987.0500 1538425.0000    3905.9902     129.0699     129.6261       0.0212    6350.4491    6350.4703     129.6526         25     140.0020       0.0192    6347.8641    6347.8832    6345.4563    6345.5398       0.0834
    8900.0    5011.9580 1538425.0000    3905.9902     129.0701     129.6271       0.0208    6350.5000    6350.5210     129.6528         25     141.0020       0.0143    6347.8461    6347.8603    6345.4065    6345.4895       0.0828
    8901.0    4990.9440 1538425.0000    3905.9902     129.0698     129.6274       0.0201    6350.6441    6350.6641     129.6530         25     142.0020       0.0108    6347.9728    6347.9834    6345.5421    6345.6235       0.0815
    8902.0    4963.0520 1538425.0000    3905.9902     129.0703     129.6258       0.0185    6350.6073    6350.6259     129.6535         25     143.0020       0.0106    6347.9670    6347.9776    6345.5547    6345.6345       0.0799
    8903.0    4989.2180 1538425.0000    3905.9902     129.0694     129.6284       0.0182    6350.6148    6350.6329     129.6534         25     144.0020       0.0138    6347.9187    6347.9324    6345.5365    6345.6146       0.0781
    8904.0    5098.0000 1538425.0000    3905.9902     129.0701     129.6271       0.0203    6350.5195    6350.5398     129.6539         25     145.0020       0.0187    6347.8254    6347.8440    6345.4695    6345.5467       0.0774
    8905.0    5098.0840 1538425.0000    3905.9902     129.0706     129.6284       0.0227    6350.4534    6350.4762     129.6541         25     146.0020       0.0230    6347.8614    6347.8845    6345.4664    6345.5440       0.0776
    8906.0    5139.9720 1538425.0000    3905.9902     129.0719     129.6284       0.0235    6350.4124    6350.4359     129.6544         25     147.0020       0.0254    6347.7818    6347.8072    6345.4013    6345.4795       0.0784
    8907.0    5125.9120 1538425.0000    3905.9902     129.0733     129.6289       0.0228    6350.3590    6350.3817     129.6546         25     148.0020       0.0258    6347.7069    6347.7326    6345.3461    6345.4247       0.0786
    8908.0    5081.7960 1538425.0000    3905.9902     129.0719     129.6289       0.0215    6350.3983    6350.4198     129.6550         25     149.0020       0.0237    6347.7738    6347.7975    6345.3915    6345.4701       0.0788
    8909.0    4980.1200 1538425.0000    3905.9902     129.0725     129.6312       0.0205    6350.4234    6350.4440     129.6552         25     150.0020       0.0206    6347.7795    6347.8000    6345.4274    6345.5060       0.0788
    8910.0    5039.9140 1538425.0000    3905.9902     129.0744     129.6294       0.0199    6350.5050    6350.5250     129.6553         25     151.0020       0.0188    6347.8384    6347.8573    6345.4662    6345.5448       0.0786
    8911.0    4996.9720 1538425.0000    3905.9902     129.0741     129.6304       0.0206    6350.6435    6350.6640     129.6556         25     152.0020       0.0196    6348.0856    6348.1050    6345.6264    6345.7045       0.0780
    8912.0    4983.0840 1538425.0000    3905.9902     129.0729     129.6304       0.0222    6350.6260    6350.6485     129.6556         25     153.0020       0.0215    6347.9037    6347.9252    6345.5814    6345.6586       0.0770
    8913.0    5025.1860 1538425.0000    3905.9902     129.0754     129.6309       0.0235    6350.4805    6350.5039     129.6559         25     154.0020       0.0230    6347.9070    6347.9299    6345.5182    6345.5949       0.0765
    8914.0    5117.9220 1538425.0000    3905.9902     129.0740     129.6322       0.0239    6350.5420    6350.5660     129.6563         25     155.0020       0.0239    6347.8036    6347.8276    6345.4501    6345.5267       0.0768
    8915.0    5078.9720 1538425.0000    3905.9902     129.0766     129.6334       0.0232    6350.4480    6350.4715     129.6563         25     156.0020       0.0250    6347.9096    6347.9345    6345.4832    6345.5604       0.0772
    8916.0    5065.0760 1538425.0000    3905.9902     129.0751     129.6327       0.0211    6350.3794    6350.4005     129.6567         25     157.0020       0.0254    6347.7247    6347.7501    6345.3415    6345.4189       0.0775
    8917.0    5103.0220 1538425.0000    3905.9902     129.0761     129.6333       0.0174    6350.3252    6350.3426     129.6571         25     158.0020       0.0240    6347.7525    6347.7766    6345.3768    6345.4544       0.0775
    8918.0    5113.7940 1538425.0000    3905.9902     129.0762     129.6327       0.0143    6350.3194    6350.3336     129.6575         25     159.0020       0.0212    6347.8164    6347.8379    6345.4410    6345.5191       0.0782
    8919.0    5011.0260 1538425.0000    3905.9902     129.0775     129.6350       0.0144    6350.5850    6350.5993     129.6574         25     160.0020       0.0187    6347.8091    6347.8279    6345.4397    6345.5185       0.0789
    8920.0    5023.8880 1538425.0000    3905.9902     129.0764     129.6340       0.0170    6350.5016    6350.5185     129.6579         25     161.0020       0.0172    6347.7939    6347.8112    6345.4623    6345.5414       0.0790
    8921.0    4968.0120 1538425.0000    3905.9902     129.0766     129.6342       0.0198    6350.5764    6350.5964     129.6581         25     162.0020       0.0158    6347.8811    6347.8967    6345.5554    6345.6341       0.0788
    8922.0    4974.0860 1538425.0000    3905.9902     129.0780     129.6348       0.0218    6350.6738    6350.6955     129.6584         25     163.0020       0.0141    6348.0452    6348.0592    6345.6010    6345.6791       0.0784
    8923.0    5017.2020 1538425.0000    3905.9902     129.0779     129.6349       0.0231    6350.4832    6350.5061     129.6586         25     164.0020       0.0135    6347.8627    6347.8764    6345.5127    6345.5910       0.0783
    8924.0    5118.0220 1538425.0000    3905.9902     129.0800     129.6357       0.0240    6350.5328    6350.5567     129.6585         25     165.0020       0.0151    6348.0047    6348.0198    6345.5072    6345.5853       0.0782
    8925.0    5128.9360 1538425.0000    3905.9902     129.0779     129.6357       0.0239    6350.2104    6350.2343     129.6589         25     166.0020       0.0187    6347.7257    6347.7443    6345.3646    6345.4428       0.0782
    8926.0    5096.9800 1538425.0000    3905.9902     129.0776     129.6367       0.0226    6350.1819    6350.2046     129.6592         25     167.0020       0.0222    6347.6109    6347.6330    6345.3119    6345.3905       0.0787
    8927.0    5086.8500 1538425.0000    3905.9902     129.0796     129.6349       0.0206    6350.1025    6350.1230     129.6596         25     168.0020       0.0246    6347.8205    6347.8449    6345.4542    6345.5333       0.0793
    8928.0    5011.9660 1538425.0000    3905.9902     129.0796     129.6382       0.0185    6350.2982    6350.3165     129.6596         25     169.0020       0.0254    6347.7998    6347.8252    6345.5005    6345.5801       0.0795
    8929.0    4994.9620 1538425.0000    3905.9902     129.0801     129.6367       0.0169    6350.3625    6350.3796     129.6598         25     170.0020       0.0248    6347.8582    6347.8828    6345.4760    6345.5551       0.0793
    8930.0    4976.0140 1538425.0000    3905.9902     129.0815     129.6380       0.0168    6350.3176    6350.3342     129.6604         25     171.0020       0.0230    6348.0185    6348.0414    6345.6571    6345.7362       0.0791
    8931.0    4982.9580 1538425.0000    3905.9902     129.0811     129.6380       0.0181    6350.5782    6350.5964     129.6602         25     172.0020       0.0203    6347.9951    6348.0153    6345.6582    6345.7371       0.0788
    8932.0    4962.1100 1538425.0000    3905.9902     129.0812     129.6376       0.0199    6350.4654    6350.4853     129.6605         25     173.0020       0.0175    6347.9087    6347.9261    6345.5575    6345.6361       0.0785
    8933.0    5017.2000 1538425.0000    3905.9902     129.0800     129.6380       0.0216    6350.4069    6350.4284     129.6609         25     174.0020       0.0150    6347.9446    6347.9597    6345.5512    6345.6293       0.0781
