~VERSION INFORMATION
VERS.           2.0   :CWLS Log ASCII Standard - VERSION 2.0
WRAP.           NO    :One Line per depth step
PROD.  Schlumberger   :LAS Producer
PROG.  DLIS to ASCII 2.2                               :LAS Program name and version
CREA.        2020/10/30 12:18                          :LAS Creation date {YYYY/MM/DD hh:mm}
SOURCE.     XPT_HRLA_TLD_MCFL_045LTP.DLIS              :DLIS File Name
FILE-ID.     XPT_HRLA_TLD_MCFL_045LTP                  :File Identification Number
#--------------------------------------------------
~WELL INFORMATION
#MNEM.UNIT      DATA             DESCRIPTION
#---- ------ --------------   -----------------------------
STRT .S         3688.0       :START TIME      
STOP .S         4251.0       :STOP TIME      
STEP .S            1.0       :STEP     
NULL .          -999.25      :NULL VALUE
COMP .        Nexus Energy                             :COMPANY
WELL .        Crux-3                                   :WELL
FLD  .        Crux                                     :FIELD
LOC  .        Easting: 656981.7mE                      :LOCATION
CNTY .        Sedco-703                                :COUNTY
STAT .        Northern Territory                       :STATE
CTRY .        Australia                                :COUNTRY
API  .                                                 :API NUMBER
UWI  .                                                 :UNIQUE WELL ID
DATE .        31-Dec-2007                              :LOG DATE {DD-MMM-YYYY}
SRVC .        Schlumberger                             :SERVICE COMPANY
LATI .DEG     12*57'32.63" S                           :LATITUDE
LONG .DEG     124*26'50.07" E                          :LONGITUDE
GDAT .                                                 :GeoDetic Datum
#-----------------------------------------------------------------------------
~PARAMETER INFORMATION
#MNEM.UNIT    VALUE                      DESCRIPTION
#---- -----   --------------------       ------------------------
RUN  .          1                        :RUN NUMBER
PDAT .        LAT                        :Permanent Datum
EPD  .M           0.000000               :Elevation of Permanent Datum above Mean Sea Level
EPD  .M           0.000000               :Elevation of tool zero above Mean Sea Level
LMF  .          DF                       :Logging Measured From (Name of Logging Elevation Reference)
APD  .M          26.400000               :Elevation of Depth Reference (LMF) above Permanent Datum
#-----------------------------------------------------------------------------
~CURVE INFORMATION
#MNEM.UNIT   API CODE                                  DESCRIPTION
#---- -----  --------                                  -----------------------
TIME .S                                                :TIME {F10.1}
TENS_SL.LBF                                            :Cable Tension {F13.4}
DEPT_SL..1IN                                           :Station logging depth {F13.4}
PDEP_XPT.M                                             :XPT Probe Depth {F13.4}
MTEP_SAP.DEGC                                          :Sapphire Gauge Manometer Temperature {F13.4}
MTEP_HYD.DEGC                                          :Hydrostatic Sapphire Gauge Manometer Temperature {F13.4}
PCO_HYD.PSI                                            :Hydrostatic Sapphire Dynamic Compensation {F13.4}
PND_HYD.PSI                                            :Hydrostatic Sapphire Pressure Without Dynamic Compensation {F13.4}
CP_HYD.PSI                                             :Hydrostatic Sapphire Pressure With Dynamic Compensation {F13.4}
MTEP_QG.DEGC                                           :CQG Manometer Temperature {F13.4}
PTNO_XPT.                                              :XPT Pretest Number {I11}
ETIM_XPT.S                                             :Elapsed Logging Time {F13.4}
PCO_SAP.PSI                                            :Sapphire Dynamic Compensation {F13.4}
PND_SAP.PSI                                            :Sapphire Pressure Without Dynamic Compensation {F13.4}
CP_SAP.PSI                                             :Sapphire Pressure With Dynamic Compensation {F13.4}
QNDP .PSI                                              :CQG Pressure Without Dynamic Compensation {F13.4}
QCP  .PSI                                              :CQG Pressure With Dynamic Compensation {F13.4}
QPCO .PSI                                              :CQG Dynamic Compensation {F13.4}
#-----------------------------------------------------------------------------
# 
#     TIME      TENS_SL      DEPT_SL      PDEP_XPT     MTEP_SAP     MTEP_HYD     PCO_HYD      PND_HYD       CP_HYD      MTEP_QG       PTNO_XPT       ETIM_XPT     PCO_SAP      PND_SAP       CP_SAP        QNDP         QCP          QPCO
#
~A  
# ...
    3968.0    4836.5650 1440603.0000    3657.5227     121.8662     122.3957      -0.0123    5955.7061    5955.6938     122.4700          8     280.0725       0.0510    5523.4721    5523.5232    5520.3390    5520.4926       0.1534
    3969.0    4836.1475 1440603.0000    3657.5227     121.8655     122.3949      -0.0154    5955.6382    5955.6226     122.4702          8     281.0725       0.0137    5523.6543    5523.6680    5520.5645    5520.7022       0.1376
    3970.0    4903.8125 1440603.0000    3657.5227     121.8659     122.3947      -0.0178    5955.5761    5955.5584     122.4706          8     282.0725      -0.0162    5523.6865    5523.6702    5520.6944    5520.8194       0.1251
    3971.0    4927.0725 1440603.0000    3657.5227     121.8658     122.3941      -0.0180    5955.5112    5955.4932     122.4710          8     283.0725      -0.0328    5523.7754    5523.7425    5520.7896    5520.9088       0.1190
    3972.0    4930.3925 1440603.0000    3657.5227     121.8666     122.3941      -0.0167    5955.5113    5955.4946     122.4715          8     284.0725      -0.0381    5523.8512    5523.8132    5520.8759    5520.9903       0.1144
    3973.0    4961.7250 1440603.0000    3657.5227     121.8635     122.3912      -0.0157    5955.1319    5955.1163     122.4718          8     285.0725      -0.0378    5523.8507    5523.8128    5520.9516    5521.0583       0.1067
    3974.0    4968.8975 1440603.0000    3657.5227     121.8620     122.3931      -0.0154    5955.3136    5955.2982     122.4723          8     286.0725      -0.0351    5523.8139    5523.7789    5521.0265    5521.1234       0.0968
    3975.0    4936.7800 1440603.0000    3657.5227     121.8629     122.3926      -0.0147    5955.4626    5955.4479     122.4729          8     287.0725      -0.0321    5523.7940    5523.7618    5521.1015    5521.1877       0.0861
    3976.0    4869.4925 1440603.0000    3657.5227     121.8610     122.3919      -0.0138    5955.4729    5955.4592     122.4726          8     288.0725      -0.0298    5523.8662    5523.8365    5521.1608    5521.2362       0.0753
    3977.0    4862.0575 1440603.0000    3657.5227     121.8636     122.3924      -0.0144    5955.4504    5955.4360     122.4729          8     289.0725      -0.0273    5523.9381    5523.9108    5521.1892    5521.2539       0.0649
    3978.0    4847.1000 1440603.0000    3657.5227     121.8619     122.3915      -0.0161    5955.5642    5955.5481     122.4733          8     290.0725      -0.0249    5523.9027    5523.8778    5521.2225    5521.2774       0.0549
    3979.0    4811.3775 1440603.0000    3657.5227     121.8604     122.3905      -0.0171    5955.5620    5955.5450     122.4734          8     291.0725      -0.0241    5523.8665    5523.8424    5521.2537    5521.2995       0.0459
    3980.0    4834.0025 1440603.0000    3657.5227     121.8587     122.3917      -0.0157    5955.5450    5955.5292     122.4736          8     292.0725      -0.0258    5523.9252    5523.8995    5521.2753    5521.3135       0.0382
    3981.0    4901.4800 1440603.0000    3657.5227     121.8583     122.3903      -0.0134    5955.4661    5955.4529     122.4738          8     293.0725      -0.0280    5523.9083    5523.8805    5521.3024    5521.3338       0.0314
    3982.0    4946.2900 1440603.0000    3657.5227     121.8586     122.3896      -0.0117    5955.4183    5955.4067     122.4735          8     294.0725      -0.0276    5524.0589    5524.0312    5521.3245    5521.3499       0.0254
    3983.0    4949.8550 1440603.0000    3657.5227     121.8593     122.3898      -0.0106    5955.4062    5955.3957     122.4738          8     295.0725      -0.0258    5524.0077    5523.9821    5521.3479    5521.3677       0.0199
    3984.0    4949.3775 1440603.0000    3657.5227     121.8572     122.3897      -0.0086    5955.4107    5955.4024     122.4738          8     296.0725      -0.0247    5523.9782    5523.9533    5521.3819    5521.3971       0.0151
    3985.0    4965.8400 1440603.0000    3657.5227     121.8582     122.3903      -0.0060    5955.3890    5955.3829     122.4739          8     297.0725      -0.0240    5524.0254    5524.0015    5521.4000    5521.4110       0.0111
    3986.0    4947.8100 1440603.0000    3657.5227     121.8567     122.3886      -0.0050    5955.3805    5955.3756     122.4738          8     298.0725      -0.0213    5524.0086    5523.9872    5521.4202    5521.4274       0.0073
    3987.0    4904.7525 1440603.0000    3657.5227     121.8562     122.3902      -0.0056    5955.4575    5955.4521     122.4739          8     299.0725      -0.0165    5524.0145    5523.9982    5521.4371    5521.4406       0.0036
    3988.0    4875.8550 1440603.0000    3657.5227     121.8555     122.3893      -0.0060    5955.4835    5955.4776     122.4738          8     300.0725      -0.0121    5523.9707    5523.9586    5521.4533    5521.4541       0.0008
    3989.0    4873.9275 1440603.0000    3657.5227     121.8574     122.3904      -0.0056    5955.5186    5955.5130     122.4740          8     301.0725      -0.0109    5524.1388    5524.1281    5521.4756    5521.4744      -0.0014
    3990.0    4872.2025 1440603.0000    3657.5227     121.8556     122.3876      -0.0060    5955.3883    5955.3824     122.4741          8     302.0725      -0.0120    5524.1511    5524.1389    5521.4926    5521.4893      -0.0031
    3991.0    4862.3625 1440603.0000    3657.5227     121.8555     122.3896      -0.0078    5955.5234    5955.5155     122.4738          8     303.0725      -0.0137    5524.0164    5524.0027    5521.5075    5521.5022      -0.0052
    3992.0    4868.1600 1440603.0000    3657.5227     121.8562     122.3888      -0.0099    5955.4684    5955.4584     122.4739          8     304.0725      -0.0138    5524.1745    5524.1606    5521.5245    5521.5174      -0.0070
    3993.0    4885.9000 1440603.0000    3657.5227     121.8541     122.3882      -0.0114    5955.4492    5955.4380     122.4739          8     305.0725      -0.0131    5524.0452    5524.0320    5521.5486    5521.5403      -0.0082
    3994.0    4925.5375 1440603.0000    3657.5227     121.8545     122.3881      -0.0126    5955.3882    5955.3755     122.4737          8     306.0725      -0.0128    5524.1199    5524.1072    5521.5684    5521.5591      -0.0092
    3995.0    4958.2900 1440603.0000    3657.5227     121.8556     122.3888      -0.0137    5955.3960    5955.3823     122.4735          8     307.0725      -0.0134    5524.1093    5524.0958    5521.5875    5521.5772      -0.0103
    3996.0    4962.2175 1440603.0000    3657.5227     121.8549     122.3874      -0.0148    5955.3865    5955.3718     122.4736          8     308.0725      -0.0149    5524.1146    5524.0996    5521.6012    5521.5900      -0.0114
    3997.0    4963.8400 1440603.0000    3657.5227     121.8541     122.3886      -0.0145    5955.4537    5955.4391     122.4736          8     309.0725      -0.0165    5524.2188    5524.2020    5521.6143    5521.6026      -0.0117
    3998.0    4945.0850 1440603.0000    3657.5227     121.8548     122.3878      -0.0130    5955.4113    5955.3984     122.4737          8     310.0725      -0.0184    5524.2345    5524.2161    5521.6270    5521.6151      -0.0119
    3999.0    4893.0425 1440603.0000    3657.5227     121.8533     122.3880      -0.0119    5955.4419    5955.4302     122.4735          8     311.0725      -0.0199    5524.1609    5524.1409    5521.6353    5521.6226      -0.0126
    4000.0    4867.8550 1440603.0000    3657.5227     121.8524     122.3873      -0.0120    5955.4327    5955.4209     122.4735          8     312.0725      -0.0202    5524.1310    5524.1107    5521.6460    5521.6322      -0.0137
    4001.0    4866.7975 1440603.0000    3657.5227     121.8533     122.3873      -0.0120    5955.4995    5955.4876     122.4735          8     313.0725      -0.0181    5524.2471    5524.2292    5521.6533    5521.6387      -0.0147
    4002.0    4882.0025 1440603.0000    3657.5227     121.8518     122.3861      -0.0105    5955.4869    5955.4766     122.4736          8     314.0725      -0.0141    5524.1856    5524.1713    5521.6576    5521.6425      -0.0153
