~VERSION INFORMATION
VERS.           2.0   :CWLS Log ASCII Standard - VERSION 2.0
WRAP.           NO    :One Line per depth step
PROD.  Schlumberger   :LAS Producer
PROG.  DLIS to ASCII 2.2                               :LAS Program name and version
CREA.        2020/10/30 12:18                          :LAS Creation date {YYYY/MM/DD hh:mm}
SOURCE.     XPT_HRLA_TLD_MCFL_069LTP.DLIS              :DLIS File Name
FILE-ID.     XPT_HRLA_TLD_MCFL_069LTP                  :File Identification Number
#--------------------------------------------------
~WELL INFORMATION
#MNEM.UNIT      DATA             DESCRIPTION
#---- ------ --------------   -----------------------------
STRT .S         1113.0       :START TIME      
STOP .S         1454.0       :STOP TIME      
STEP .S            1.0       :STEP     
NULL .          -999.25      :NULL VALUE
COMP .        Nexus Energy                             :COMPANY
WELL .        Crux-3                                   :WELL
FLD  .        Crux                                     :FIELD
LOC  .        Easting: 656981.7mE                      :LOCATION
CNTY .        Sedco-703                                :COUNTY
STAT .        Northern Territory                       :STATE
CTRY .        Australia                                :COUNTRY
API  .                                                 :API NUMBER
UWI  .                                                 :UNIQUE WELL ID
DATE .        31-Dec-2007                              :LOG DATE {DD-MMM-YYYY}
SRVC .        Schlumberger                             :SERVICE COMPANY
LATI .DEG     12*57'32.63" S                           :LATITUDE
LONG .DEG     124*26'50.07" E                          :LONGITUDE
GDAT .                                                 :GeoDetic Datum
#-----------------------------------------------------------------------------
~PARAMETER INFORMATION
#MNEM.UNIT    VALUE                      DESCRIPTION
#---- -----   --------------------       ------------------------
RUN  .          1                        :RUN NUMBER
PDAT .        LAT                        :Permanent Datum
EPD  .M           0.000000               :Elevation of Permanent Datum above Mean Sea Level
EPD  .M           0.000000               :Elevation of tool zero above Mean Sea Level
LMF  .          DF                       :Logging Measured From (Name of Logging Elevation Reference)
APD  .M          26.400000               :Elevation of Depth Reference (LMF) above Permanent Datum
#-----------------------------------------------------------------------------
~CURVE INFORMATION
#MNEM.UNIT   API CODE                                  DESCRIPTION
#---- -----  --------                                  -----------------------
TIME .S                                                :TIME {F10.1}
TENS_SL.LBF                                            :Cable Tension {F13.4}
DEPT_SL..1IN                                           :Station logging depth {F13.4}
PDEP_XPT.M                                             :XPT Probe Depth {F13.4}
MTEP_SAP.DEGC                                          :Sapphire Gauge Manometer Temperature {F13.4}
MTEP_HYD.DEGC                                          :Hydrostatic Sapphire Gauge Manometer Temperature {F13.4}
PCO_HYD.PSI                                            :Hydrostatic Sapphire Dynamic Compensation {F13.4}
PND_HYD.PSI                                            :Hydrostatic Sapphire Pressure Without Dynamic Compensation {F13.4}
CP_HYD.PSI                                             :Hydrostatic Sapphire Pressure With Dynamic Compensation {F13.4}
MTEP_QG.DEGC                                           :CQG Manometer Temperature {F13.4}
PTNO_XPT.                                              :XPT Pretest Number {I11}
ETIM_XPT.S                                             :Elapsed Logging Time {F13.4}
PCO_SAP.PSI                                            :Sapphire Dynamic Compensation {F13.4}
PND_SAP.PSI                                            :Sapphire Pressure Without Dynamic Compensation {F13.4}
CP_SAP.PSI                                             :Sapphire Pressure With Dynamic Compensation {F13.4}
QNDP .PSI                                              :CQG Pressure Without Dynamic Compensation {F13.4}
QCP  .PSI                                              :CQG Pressure With Dynamic Compensation {F13.4}
QPCO .PSI                                              :CQG Dynamic Compensation {F13.4}
#-----------------------------------------------------------------------------
# 
#     TIME      TENS_SL      DEPT_SL      PDEP_XPT     MTEP_SAP     MTEP_HYD     PCO_HYD      PND_HYD       CP_HYD      MTEP_QG       PTNO_XPT       ETIM_XPT     PCO_SAP      PND_SAP       CP_SAP        QNDP         QCP          QPCO
#
~A  
# ...
    1148.0    4951.8611 1534897.0000    3897.0293     133.0921     133.4511      -0.1537    6336.0909    6335.9374     133.7237         33      34.8951      -0.1031    6333.6311    6333.5283    6332.1842    6331.8109      -0.3733
    1149.0    4907.7681 1534897.0000    3897.0293     133.0887     133.4489      -0.1540    6336.1769    6336.0229     133.7224         33      35.8951      -0.1062    6333.5691    6333.4630    6332.2073    6331.8315      -0.3759
    1150.0    4918.1123 1534897.0000    3897.0293     133.0873     133.4467      -0.1528    6336.1559    6336.0031     133.7214         33      36.8951      -0.1085    6333.4624    6333.3540    6332.1196    6331.7417      -0.3782
    1151.0    4981.7636 1534897.0000    3897.0293     133.0846     133.4434      -0.1523    6336.0685    6335.9161     133.7201         33      37.8951      -0.1082    6333.4632    6333.3550    6332.1348    6331.7541      -0.3808
    1152.0    5031.9660 1534897.0000    3897.0293     133.0825     133.4403      -0.1531    6336.1680    6336.0149     133.7189         33      38.8951      -0.1057    6333.4548    6333.3490    6332.1506    6331.7666      -0.3839
    1153.0    5031.6293 1534897.0000    3897.0293     133.0821     133.4375      -0.1540    6336.1182    6335.9644     133.7182         33      39.8951      -0.1027    6333.4407    6333.3381    6332.0022    6331.6155      -0.3866
    1154.0    5039.9513 1534897.0000    3897.0293     133.0791     133.4358      -0.1542    6335.9781    6335.8238     133.7168         33      40.8951      -0.1012    6333.4538    6333.3524    6332.0286    6331.6403      -0.3885
    1155.0    5015.9365 1534897.0000    3897.0293     133.0773     133.4320      -0.1543    6336.0982    6335.9439     133.7157         33      41.8951      -0.1011    6333.4105    6333.3094    6332.1093    6331.7198      -0.3897
    1156.0    4956.6071 1534897.0000    3897.0293     133.0761     133.4299      -0.1554    6336.0977    6335.9424     133.7143         33      42.8951      -0.1018    6333.4106    6333.3086    6332.0922    6331.7006      -0.3915
    1157.0    4918.6706 1534897.0000    3897.0293     133.0739     133.4266      -0.1570    6336.1041    6335.9473     133.7130         33      43.8951      -0.1019    6333.4716    6333.3696    6332.0966    6331.7029      -0.3936
    1158.0    4913.2098 1534897.0000    3897.0293     133.0722     133.4236      -0.1570    6336.1305    6335.9736     133.7120         33      44.8951      -0.1018    6333.4604    6333.3588    6332.1639    6331.7689      -0.3951
    1159.0    4907.6293 1534897.0000    3897.0293     133.0693     133.4212      -0.1545    6336.1555    6336.0012     133.7112         33      45.8951      -0.1020    6333.4069    6333.3048    6332.1873    6331.7908      -0.3965
    1160.0    4954.4416 1534897.0000    3897.0293     133.0678     133.4185      -0.1514    6336.1372    6335.9860     133.7094         33      46.8951      -0.1028    6333.5003    6333.3976    6332.1373    6331.7387      -0.3987
    1161.0    5011.9173 1534897.0000    3897.0293     133.0665     133.4148      -0.1505    6336.0571    6335.9068     133.7084         33      47.8951      -0.1034    6333.5305    6333.4272    6332.1396    6331.7384      -0.4013
    1162.0    5059.1758 1534897.0000    3897.0293     133.0630     133.4124      -0.1514    6336.1226    6335.9712     133.7072         33      48.8951      -0.1038    6333.4945    6333.3905    6332.1183    6331.7150      -0.4035
    1163.0    5052.3634 1534897.0000    3897.0293     133.0626     133.4108      -0.1514    6336.0959    6335.9445     133.7060         33      49.8951      -0.1053    6333.4287    6333.3234    6332.0592    6331.6537      -0.4053
    1164.0    5024.1462 1534897.0000    3897.0293     133.0605     133.4076      -0.1507    6336.0023    6335.8514     133.7048         33      50.8951      -0.1081    6333.3423    6333.2343    6332.0601    6331.6531      -0.4071
    1165.0    4971.7681 1534897.0000    3897.0293     133.0588     133.4047      -0.1514    6336.0713    6335.9199     133.7035         33      51.8951      -0.1105    6333.3940    6333.2836    6332.0933    6331.6837      -0.4095
    1166.0    4915.8730 1534897.0000    3897.0293     133.0556     133.4009      -0.1542    6336.0124    6335.8583     133.7020         33      52.8951      -0.1114    6333.3725    6333.2612    6332.1000    6331.6882      -0.4120
    1167.0    4889.4121 1534897.0000    3897.0293     133.0548     133.3989      -0.1569    6336.1105    6335.9534     133.7009         33      53.8951      -0.1114    6333.4395    6333.3281    6332.1505    6331.7361      -0.4142
    1168.0    4901.3220 1534897.0000    3897.0293     133.0536     133.3964      -0.1586    6336.2249    6336.0662     133.6996         33      54.8951      -0.1113    6333.6711    6333.5598    6332.2948    6331.8788      -0.4162
    1169.0    4947.7563 1534897.0000    3897.0293     133.0507     133.3925      -0.1602    6336.1851    6336.0247     133.6983         33      55.8951      -0.1133    6333.5591    6333.4460    6332.2683    6331.8478      -0.4206
    1170.0    5014.7636 1534897.0000    3897.0293     133.0485     133.3910      -0.1618    6336.2690    6336.1071     133.6972         33      56.8951      -0.1199    6333.5299    6333.4098    6332.2052    6331.7712      -0.4341
    1171.0    5065.8611 1534897.0000    3897.0293     133.0457     133.3880      -0.1639    6336.1970    6336.0330     133.6960         33      57.8951      -0.1348    6333.5071    6333.3725    6332.1769    6331.7123      -0.4648
    1172.0    5056.6780 1534897.0000    3897.0293     133.0445     133.3838      -0.1664    6336.0308    6335.8645     133.6944         33      58.8951      -0.1565    6333.3941    6333.2376    6332.1028    6331.5915      -0.5113
    1173.0    5051.4195 1534897.0000    3897.0293     133.0428     133.3819      -0.1677    6336.0605    6335.8926     133.6932         33      59.8951      -0.1793    6333.3242    6333.1450    6332.0662    6331.5013      -0.5648
    1174.0    4982.0754 1534897.0000    3897.0293     133.0391     133.3803      -0.1661    6336.1150    6335.9490     133.6920         33      60.8951      -0.1902    6329.3056    6329.1152    6328.1825    6327.5841      -0.5986
    1175.0    4917.6071 1534897.0000    3897.0293     133.0351     133.3765      -0.1634    6336.1357    6335.9723     133.6889         33      61.8951      -0.1913    6319.2412    6319.0501    6300.1084    6299.4829      -0.6256
    1176.0    4945.9099 1534897.0000    3897.0293     133.0287     133.3720      -0.1639    6336.2085    6336.0444     133.6867         33      62.8951      -0.1821    6282.6567    6282.4746    6281.0623    6280.4158      -0.6467
    1177.0    4899.8730 1534897.0000    3897.0293     133.0241     133.3689      -0.1664    6336.3584    6336.1919     133.6846         33      63.8951      -0.1683    6281.3413    6281.1733    6280.9219    6280.2676      -0.6545
    1178.0    4913.6928 1534897.0000    3897.0293     133.0233     133.3674      -0.1673    6336.2813    6336.1139     133.6832         33      64.8951      -0.1490    6281.1523    6281.0033    6279.7508    6279.1000      -0.6508
    1179.0    5013.5686 1534897.0000    3897.0293     133.0216     133.3620      -0.1655    6336.1025    6335.9372     133.6815         33      65.8951      -0.1318    6277.6860    6277.5543    6276.6919    6276.0496      -0.6423
    1180.0    5006.2024 1534897.0000    3897.0293     133.0191     133.3605      -0.1638    6336.2063    6336.0427     133.6792         33      66.8951      -0.1239    6273.9115    6273.7874    6272.9511    6272.3100      -0.6409
    1181.0    5001.3146 1534897.0000    3897.0293     133.0164     133.3542      -0.1639    6335.9810    6335.8169     133.6769         33      67.8951      -0.1261    6267.3062    6267.1802    6266.4336    6265.7854      -0.6482
    1182.0    5009.0561 1534897.0000    3897.0293     133.0144     133.3542      -0.1635    6335.9204    6335.7568     133.6755         33      68.8951      -0.1309    6258.1489    6258.0179    6257.2198    6256.5654      -0.6545
