~VERSION INFORMATION
VERS.           2.0   :CWLS Log ASCII Standard - VERSION 2.0
WRAP.           NO    :One Line per depth step
PROD.  Schlumberger   :LAS Producer
PROG.  DLIS to ASCII 2.2                               :LAS Program name and version
CREA.        2020/10/30 12:18                          :LAS Creation date {YYYY/MM/DD hh:mm}
SOURCE.     XPT_HRLA_TLD_MCFL_058LTP.DLIS              :DLIS File Name
FILE-ID.     XPT_HRLA_TLD_MCFL_058LTP                  :File Identification Number
#--------------------------------------------------
~WELL INFORMATION
#MNEM.UNIT      DATA             DESCRIPTION
#---- ------ --------------   -----------------------------
STRT .S         7904.0       :START TIME      
STOP .S         8100.0       :STOP TIME      
STEP .S            1.0       :STEP     
NULL .          -999.25      :NULL VALUE
COMP .        Nexus Energy                             :COMPANY
WELL .        Crux-3                                   :WELL
FLD  .        Crux                                     :FIELD
LOC  .        Easting: 656981.7mE                      :LOCATION
CNTY .        Sedco-703                                :COUNTY
STAT .        Northern Territory                       :STATE
CTRY .        Australia                                :COUNTRY
API  .                                                 :API NUMBER
UWI  .                                                 :UNIQUE WELL ID
DATE .        31-Dec-2007                              :LOG DATE {DD-MMM-YYYY}
SRVC .        Schlumberger                             :SERVICE COMPANY
LATI .DEG     12*57'32.63" S                           :LATITUDE
LONG .DEG     124*26'50.07" E                          :LONGITUDE
GDAT .                                                 :GeoDetic Datum
#-----------------------------------------------------------------------------
~PARAMETER INFORMATION
#MNEM.UNIT    VALUE                      DESCRIPTION
#---- -----   --------------------       ------------------------
RUN  .          1                        :RUN NUMBER
PDAT .        LAT                        :Permanent Datum
EPD  .M           0.000000               :Elevation of Permanent Datum above Mean Sea Level
EPD  .M           0.000000               :Elevation of tool zero above Mean Sea Level
LMF  .          DF                       :Logging Measured From (Name of Logging Elevation Reference)
APD  .M          26.400000               :Elevation of Depth Reference (LMF) above Permanent Datum
#-----------------------------------------------------------------------------
~CURVE INFORMATION
#MNEM.UNIT   API CODE                                  DESCRIPTION
#---- -----  --------                                  -----------------------
TIME .S                                                :TIME {F10.1}
TENS_SL.LBF                                            :Cable Tension {F13.4}
DEPT_SL..1IN                                           :Station logging depth {F13.4}
PDEP_XPT.M                                             :XPT Probe Depth {F13.4}
MTEP_SAP.DEGC                                          :Sapphire Gauge Manometer Temperature {F13.4}
MTEP_HYD.DEGC                                          :Hydrostatic Sapphire Gauge Manometer Temperature {F13.4}
PCO_HYD.PSI                                            :Hydrostatic Sapphire Dynamic Compensation {F13.4}
PND_HYD.PSI                                            :Hydrostatic Sapphire Pressure Without Dynamic Compensation {F13.4}
CP_HYD.PSI                                             :Hydrostatic Sapphire Pressure With Dynamic Compensation {F13.4}
MTEP_QG.DEGC                                           :CQG Manometer Temperature {F13.4}
PTNO_XPT.                                              :XPT Pretest Number {I11}
ETIM_XPT.S                                             :Elapsed Logging Time {F13.4}
PCO_SAP.PSI                                            :Sapphire Dynamic Compensation {F13.4}
PND_SAP.PSI                                            :Sapphire Pressure Without Dynamic Compensation {F13.4}
CP_SAP.PSI                                             :Sapphire Pressure With Dynamic Compensation {F13.4}
QNDP .PSI                                              :CQG Pressure Without Dynamic Compensation {F13.4}
QCP  .PSI                                              :CQG Pressure With Dynamic Compensation {F13.4}
QPCO .PSI                                              :CQG Dynamic Compensation {F13.4}
#-----------------------------------------------------------------------------
# 
#     TIME      TENS_SL      DEPT_SL      PDEP_XPT     MTEP_SAP     MTEP_HYD     PCO_HYD      PND_HYD       CP_HYD      MTEP_QG       PTNO_XPT       ETIM_XPT     PCO_SAP      PND_SAP       CP_SAP        QNDP         QCP          QPCO
#
~A  
    7904.0    5126.7039 1534397.3800    3895.7603     128.8493     129.4021       0.0000    6333.7524    6333.7524     129.5914         19       0.0000       0.0000    6330.8014    6330.8014    6328.9353    6328.9353      -0.0000
    7905.0    5144.9355 1534486.0000    3895.9854     128.8602     129.4089       0.0000    6334.0627    6334.0627     129.5980         20       0.5435       0.0000    6331.3813    6331.3813    6329.3110    6329.3110       0.0000
    7906.0    5170.3265 1534486.0000    3895.9854     128.8585     129.4094       0.0000    6333.9529    6333.9529     129.5979         20       1.5435       0.0000    6331.1468    6331.1468    6329.0872    6329.0872       0.0000
    7907.0    5163.7820 1534486.0000    3895.9854     128.8618     129.4090       0.0000    6333.8836    6333.8836     129.5976         20       2.5435       0.0000    6331.2157    6331.2157    6329.1704    6329.1704       0.0000
    7908.0    5114.0420 1534486.0000    3895.9854     128.8605     129.4075       0.0000    6333.9758    6333.9758     129.5976         20       3.5435       0.0000    6331.3678    6331.3678    6329.3011    6329.3011       0.0000
    7909.0    5034.6285 1534486.0000    3895.9854     128.8606     129.4091       0.0000    6334.1416    6334.1416     129.5974         20       4.5435       0.0000    6331.4419    6331.4419    6329.3512    6329.3512       0.0000
    7910.0    5008.1310 1534486.0000    3895.9854     128.8605     129.4097       0.0000    6334.2249    6334.2249     129.5970         20       5.5435       0.0000    6331.5492    6331.5492    6329.4664    6329.4664       0.0000
    7911.0    5005.8690 1534486.0000    3895.9854     128.8601     129.4070       0.0028    6334.3166    6334.3195     129.5964         20       6.5435      -0.0065    6331.6061    6331.5998    6329.6239    6329.5478      -0.0760
    7912.0    4973.3470 1534486.0000    3895.9854     128.8599     129.4110       0.0041    6334.6658    6334.6697     129.5967         20       7.5435      -0.0057    6331.7423    6331.7366    6329.6805    6329.6034      -0.0772
    7913.0    4991.8710 1534486.0000    3895.9854     128.8592     129.4088       0.0034    6334.4722    6334.4756     129.5961         20       8.5435      -0.0036    6331.6111    6331.6074    6329.6185    6329.5416      -0.0768
    7914.0    5095.3725 1534486.0000    3895.9854     128.8592     129.4087       0.0009    6334.4111    6334.4118     129.5959         20       9.5435      -0.0015    6331.7768    6331.7753    6329.6705    6329.5947      -0.0759
    7915.0    5131.9990 1534486.0000    3895.9854     128.8588     129.4094      -0.0012    6334.4847    6334.4837     129.5955         20      10.5435       0.0001    6331.7450    6331.7452    6329.6783    6329.6031      -0.0752
    7916.0    5118.0655 1534486.0000    3895.9854     128.8598     129.4111      -0.0012    6334.3760    6334.3747     129.5954         20      11.5435       0.0017    6331.5090    6331.5107    6329.4294    6329.3544      -0.0750
    7917.0    5114.2170 1534486.0000    3895.9854     128.8603     129.4096      -0.0003    6334.1793    6334.1788     129.5954         20      12.5435       0.0028    6331.5049    6331.5078    6329.4000    6329.3253      -0.0746
    7918.0    5098.9345 1534486.0000    3895.9854     128.8585     129.4068      -0.0006    6334.3298    6334.3294     129.5950         20      13.5435       0.0021    6331.6223    6331.6245    6329.5459    6329.4722      -0.0738
    7919.0    5027.7800 1534486.0000    3895.9854     128.8592     129.4096      -0.0004    6334.4199    6334.4194     129.5947         20      14.5435       0.0007    6331.5976    6331.5983    6329.5526    6329.4796      -0.0730
    7920.0    5019.1975 1534486.0000    3895.9854     128.8601     129.4088       0.0015    6334.3804    6334.3818     129.5946         20      15.5435       0.0009    6331.6512    6331.6522    6329.6040    6329.5313      -0.0729
    7921.0    4999.8455 1534486.0000    3895.9854     128.8620     129.4101       0.0037    6334.5586    6334.5626     129.5942         20      16.5435       0.0031    6331.8861    6331.8892    6329.7758    6329.7021      -0.0735
    7922.0    4967.8485 1534486.0000    3895.9854     128.8585     129.4090       0.0047    6334.6699    6334.6748     129.5942         20      17.5435       0.0055    6331.9818    6331.9874    6329.9127    6329.8390      -0.0736
    7923.0    4967.8690 1534486.0000    3895.9854     128.8587     129.4100       0.0038    6334.6304    6334.6344     129.5939         20      18.5435       0.0063    6331.7575    6331.7638    6329.7741    6329.7007      -0.0734
    7924.0    5025.5680 1534486.0000    3895.9854     128.8596     129.4088       0.0021    6334.6358    6334.6376     129.5937         20      19.5435       0.0061    6331.7826    6331.7885    6329.7467    6329.6739      -0.0730
    7925.0    5072.5865 1534486.0000    3895.9854     128.8611     129.4092       0.0000    6334.5398    6334.5398     129.5935         20      20.5435       0.0048    6331.7063    6331.7110    6329.6989    6329.6262      -0.0725
    7926.0    5096.1535 1534486.0000    3895.9854     128.8614     129.4114      -0.0006    6334.5849    6334.5844     129.5932         20      21.5435       0.0022    6331.8030    6331.8052    6329.6545    6329.5822      -0.0723
    7927.0    5131.6090 1534486.0000    3895.9854     128.8599     129.4088       0.0003    6334.2910    6334.2916     129.5929         20      22.5435      -0.0011    6331.4982    6331.4971    6329.5237    6329.4514      -0.0722
    7928.0    5109.7380 1534486.0000    3895.9854     128.8597     129.4091       0.0020    6334.3523    6334.3545     129.5927         20      23.5435      -0.0034    6331.7827    6331.7793    6329.6458    6329.5738      -0.0720
    7929.0    5017.5190 1534486.0000    3895.9854     128.8601     129.4092       0.0035    6334.5046    6334.5079     129.5925         20      24.5435      -0.0040    6331.8072    6331.8033    6329.7143    6329.6429      -0.0714
    7930.0    4988.2620 1534486.0000    3895.9854     128.8591     129.4087       0.0051    6334.4364    6334.4414     129.5924         20      25.5435      -0.0029    6331.7661    6331.7633    6329.6806    6329.6099      -0.0707
    7931.0    4988.0860 1534486.0000    3895.9854     128.8601     129.4103       0.0074    6334.5487    6334.5563     129.5919         20      26.5435      -0.0000    6331.8750    6331.8750    6329.7802    6329.7099      -0.0705
    7932.0    4945.1730 1534486.0000    3895.9854     128.8597     129.4099       0.0090    6334.8138    6334.8230     129.5919         20      27.5435       0.0037    6332.0326    6332.0363    6329.9486    6329.8783      -0.0705
    7933.0    4902.6295 1534486.0000    3895.9854     128.8600     129.4098       0.0079    6334.6809    6334.6887     129.5919         20      28.5435       0.0041    6331.9289    6331.9329    6329.8337    6329.7634      -0.0704
    7934.0    4954.1985 1534486.0000    3895.9854     128.8604     129.4096       0.0052    6334.6616    6334.6670     129.5914         20      29.5435       0.0024    6331.9084    6331.9108    6329.8149    6329.7441      -0.0709
    7935.0    5030.3050 1534486.0000    3895.9854     128.8597     129.4099       0.0029    6334.6273    6334.6303     129.5912         20      30.5435       0.0012    6331.8789    6331.8798    6329.7972    6329.7255      -0.0718
    7936.0    5062.4790 1534486.0000    3895.9854     128.8611     129.4114       0.0025    6334.6122    6334.6147     129.5910         20      31.5435       0.0021    6331.7382    6331.7402    6329.6728    6329.6005      -0.0722
    7937.0    5100.8270 1534486.0000    3895.9854     128.8596     129.4090       0.0019    6334.2962    6334.2981     129.5907         20      32.5435       0.0040    6331.4927    6331.4969    6329.4591    6329.3869      -0.0723
    7938.0    5130.8700 1534486.0000    3895.9854     128.8603     129.4109       0.0007    6334.3631    6334.3637     129.5907         20      33.5435       0.0048    6331.7483    6331.7532    6329.6717    6329.6003      -0.0713
