~VERSION INFORMATION
VERS.           2.0   :CWLS Log ASCII Standard - VERSION 2.0
WRAP.           NO    :One Line per depth step
PROD.  Schlumberger   :LAS Producer
PROG.  DLIS to ASCII 2.2                               :LAS Program name and version
CREA.        2020/10/30 12:18                          :LAS Creation date {YYYY/MM/DD hh:mm}
SOURCE.     XPT_HRLA_TLD_MCFL_064LTP.DLIS              :DLIS File Name
FILE-ID.     XPT_HRLA_TLD_MCFL_064LTP                  :File Identification Number
#--------------------------------------------------
~WELL INFORMATION
#MNEM.UNIT      DATA             DESCRIPTION
#---- ------ --------------   -----------------------------
STRT .S         1332.0       :START TIME      
STOP .S         1827.0       :STOP TIME      
STEP .S            1.0       :STEP     
NULL .          -999.25      :NULL VALUE
COMP .        Nexus Energy                             :COMPANY
WELL .        Crux-3                                   :WELL
FLD  .        Crux                                     :FIELD
LOC  .        Easting: 656981.7mE                      :LOCATION
CNTY .        Sedco-703                                :COUNTY
STAT .        Northern Territory                       :STATE
CTRY .        Australia                                :COUNTRY
API  .                                                 :API NUMBER
UWI  .                                                 :UNIQUE WELL ID
DATE .        31-Dec-2007                              :LOG DATE {DD-MMM-YYYY}
SRVC .        Schlumberger                             :SERVICE COMPANY
LATI .DEG     12*57'32.63" S                           :LATITUDE
LONG .DEG     124*26'50.07" E                          :LONGITUDE
GDAT .                                                 :GeoDetic Datum
#-----------------------------------------------------------------------------
~PARAMETER INFORMATION
#MNEM.UNIT    VALUE                      DESCRIPTION
#---- -----   --------------------       ------------------------
RUN  .          1                        :RUN NUMBER
PDAT .        LAT                        :Permanent Datum
EPD  .M           0.000000               :Elevation of Permanent Datum above Mean Sea Level
EPD  .M           0.000000               :Elevation of tool zero above Mean Sea Level
LMF  .          DF                       :Logging Measured From (Name of Logging Elevation Reference)
APD  .M          26.400000               :Elevation of Depth Reference (LMF) above Permanent Datum
#-----------------------------------------------------------------------------
~CURVE INFORMATION
#MNEM.UNIT   API CODE                                  DESCRIPTION
#---- -----  --------                                  -----------------------
TIME .S                                                :TIME {F10.1}
TENS_SL.LBF                                            :Cable Tension {F13.4}
DEPT_SL..1IN                                           :Station logging depth {F13.4}
PDEP_XPT.M                                             :XPT Probe Depth {F13.4}
MTEP_SAP.DEGC                                          :Sapphire Gauge Manometer Temperature {F13.4}
MTEP_HYD.DEGC                                          :Hydrostatic Sapphire Gauge Manometer Temperature {F13.4}
PCO_HYD.PSI                                            :Hydrostatic Sapphire Dynamic Compensation {F13.4}
PND_HYD.PSI                                            :Hydrostatic Sapphire Pressure Without Dynamic Compensation {F13.4}
CP_HYD.PSI                                             :Hydrostatic Sapphire Pressure With Dynamic Compensation {F13.4}
MTEP_QG.DEGC                                           :CQG Manometer Temperature {F13.4}
PTNO_XPT.                                              :XPT Pretest Number {I11}
ETIM_XPT.S                                             :Elapsed Logging Time {F13.4}
PCO_SAP.PSI                                            :Sapphire Dynamic Compensation {F13.4}
PND_SAP.PSI                                            :Sapphire Pressure Without Dynamic Compensation {F13.4}
CP_SAP.PSI                                             :Sapphire Pressure With Dynamic Compensation {F13.4}
QNDP .PSI                                              :CQG Pressure Without Dynamic Compensation {F13.4}
QCP  .PSI                                              :CQG Pressure With Dynamic Compensation {F13.4}
QPCO .PSI                                              :CQG Dynamic Compensation {F13.4}
#-----------------------------------------------------------------------------
# 
#     TIME      TENS_SL      DEPT_SL      PDEP_XPT     MTEP_SAP     MTEP_HYD     PCO_HYD      PND_HYD       CP_HYD      MTEP_QG       PTNO_XPT       ETIM_XPT     PCO_SAP      PND_SAP       CP_SAP        QNDP         QCP          QPCO
#
~A  
# ...
    1787.0    4852.4449 1496483.0000    3799.4575     127.9894     128.4232      -0.0706    6182.1411    6182.0704     129.0710         29     455.1646      -0.0836    5573.8322    5573.7486    5572.3756    5571.9316      -0.4441
    1788.0    4873.6830 1496483.0000    3799.4575     127.9861     128.4224      -0.0692    6182.1934    6182.1241     129.0697         29     456.1646      -0.0845    5573.8055    5573.7210    5572.3745    5571.9302      -0.4444
    1789.0    4870.1279 1496483.0000    3799.4575     127.9864     128.4216      -0.0657    6181.9438    6181.8782     129.0682         29     457.1646      -0.0845    5573.8752    5573.7907    5572.3768    5571.9329      -0.4440
    1790.0    4881.0612 1496483.0000    3799.4575     127.9865     128.4212      -0.0619    6181.9991    6181.9373     129.0668         29     458.1646      -0.0835    5573.9116    5573.8281    5572.3773    5571.9344      -0.4430
    1791.0    4842.8300 1496483.0000    3799.4575     127.9834     128.4186      -0.0603    6182.0757    6182.0154     129.0654         29     459.1646      -0.0837    5573.7602    5573.6765    5572.3810    5571.9389      -0.4422
    1792.0    4774.0245 1496483.0000    3799.4575     127.9802     128.4178      -0.0612    6182.1112    6182.0501     129.0639         29     460.1646      -0.0851    5573.8285    5573.7435    5572.3817    5571.9398      -0.4419
    1793.0    4759.0612 1496483.0000    3799.4575     127.9800     128.4156      -0.0631    6182.0727    6182.0096     129.0628         29     461.1646      -0.0863    5573.8234    5573.7370    5572.3837    5571.9423      -0.4416
    1794.0    4741.9020 1496483.0000    3799.4575     127.9784     128.4172      -0.0645    6182.2150    6182.1503     129.0612         29     462.1646      -0.0857    5573.7983    5573.7127    5572.3877    5571.9466      -0.4412
    1795.0    4787.4326 1496483.0000    3799.4575     127.9756     128.4152      -0.0660    6182.2907    6182.2249     129.0599         29     463.1646      -0.0842    5573.7277    5573.6437    5572.3888    5571.9474      -0.4412
    1796.0    4823.8898 1496483.0000    3799.4575     127.9759     128.4129      -0.0692    6182.2126    6182.1434     129.0584         29     464.1646      -0.0826    5573.7940    5573.7116    5572.3864    5571.9450      -0.4413
    1797.0    4863.7320 1496483.0000    3799.4575     127.9739     128.4111      -0.0729    6182.1334    6182.0606     129.0572         29     465.1646      -0.0805    5573.7920    5573.7115    5572.3887    5571.9478      -0.4410
    1798.0    4830.2504 1496483.0000    3799.4575     127.9733     128.4114      -0.0743    6182.0766    6182.0024     129.0557         29     466.1646      -0.0791    5573.7973    5573.7182    5572.3852    5571.9452      -0.4401
    1799.0    4794.6830 1496483.0000    3799.4575     127.9707     128.4091      -0.0720    6182.0519    6181.9799     129.0543         29     467.1646      -0.0798    5573.8577    5573.7779    5572.3903    5571.9510      -0.4392
    1800.0    4780.2626 1496483.0000    3799.4575     127.9681     128.4079      -0.0688    6182.0451    6181.9763     129.0531         29     468.1646      -0.0817    5573.7653    5573.6835    5572.3901    5571.9519      -0.4382
    1801.0    4743.3048 1496483.0000    3799.4575     127.9679     128.4059      -0.0668    6182.0861    6182.0192     129.0519         29     469.1646      -0.0818    5573.8438    5573.7622    5572.3930    5571.9555      -0.4376
    1802.0    4756.3170 1496483.0000    3799.4575     127.9670     128.4043      -0.0657    6182.0613    6181.9955     129.0501         29     470.1646      -0.0797    5573.7727    5573.6928    5572.3823    5571.9448      -0.4376
    1803.0    4772.7129 1496483.0000    3799.4575     127.9637     128.4048      -0.0642    6182.2746    6182.2104     129.0489         29     471.1646      -0.0558    5573.7997    5573.7441    5572.3708    5571.9794      -0.3914
    1804.0    4829.9020 1496483.0000    3799.4575     127.9632     128.4042      -0.0629    6182.1201    6182.0571     129.0477         29     472.1646       0.0472    5573.7449    5573.7923    5572.3767    5572.1756      -0.2011
    1805.0    4868.6830 1496483.0000    3799.4575     127.9631     128.4023      -0.0632    6182.1377    6182.0746     129.0459         29     473.1646       0.2726    5573.7776    5574.0501    5572.3766    5572.5667       0.1903
    1806.0    4860.0245 1496483.0000    3799.4575     127.9608     128.4009      -0.0647    6182.1330    6182.0683     129.0447         29     474.1646       0.5615    5573.7443    5574.3058    5572.3802    5573.0633       0.6831
    1807.0    4852.9632 1496483.0000    3799.4575     127.9604     128.3997      -0.0666    6182.1288    6182.0624     129.0436         29     475.1646       0.7949    5573.7976    5574.5923    5572.3828    5573.5028       1.1199
    1808.0    4856.8055 1496483.0000    3799.4575     127.9579     128.3980      -0.0682    6182.0658    6181.9979     129.0421         29     476.1646       0.8946    5575.2168    5576.1113    5573.7374    5575.1650       1.4277
    1809.0    4793.5796 1496483.0000    3799.4575     128.0541     128.3976      -0.0696    6181.7769    6181.7073     129.0692         29     477.1646       0.8675    6185.1182    6185.9856    6176.5558    6178.1819       1.6261
    1810.0    4756.7198 1496483.0000    3799.4575     128.0671     128.3965      -0.0708    6181.9700    6181.8992     129.0707         29     478.1646       0.7195    6184.2031    6184.9226    6176.2645    6177.9497       1.6852
    1811.0    4731.7075 1496483.0000    3799.4575     128.0664     128.3937      -0.0709    6182.0652    6181.9944     129.0726         29     479.1646       0.4397    6184.0133    6184.4529    6176.6455    6178.1879       1.5423
    1812.0    4713.6830 1496483.0000    3799.4575     128.0602     128.3943      -0.0698    6182.1963    6182.1267     129.0760         29     480.1646       0.0935    6183.1982    6183.2916    6176.7790    6178.0522       1.2732
    1813.0    4708.8109 1496483.0000    3799.4575     128.0521     128.3912      -0.0673    6182.0482    6181.9808     129.0795         29     481.1646      -0.1994    6182.5219    6182.3226    6177.0853    6178.1127       1.0275
    1814.0    4723.4326 1496483.0000    3799.4575     128.0453     128.3919      -0.0636    6182.1712    6182.1076     129.0826         29     482.1646      -0.3579    6181.9549    6181.5969    6177.2577    6178.1418       0.8841
    1815.0    4761.5360 1496483.0000    3799.4575     128.0365     128.3889      -0.0595    6182.0796    6182.0201     129.0856         29     483.1646      -0.4068    6181.5518    6181.1451    6177.4859    6178.2765       0.7908
    1816.0    4824.5482 1496483.0000    3799.4575     128.0284     128.3889      -0.0564    6182.1374    6182.0812     129.0878         29     484.1646      -0.4086    6181.1082    6180.6998    6177.6152    6178.2976       0.6824
    1817.0    4873.0000 1496483.0000    3799.4575     128.0201     128.3873      -0.0553    6182.0624    6182.0071     129.0901         29     485.1646      -0.3956    6180.8074    6180.4120    6177.6878    6178.2411       0.5535
    1818.0    4871.1891 1496483.0000    3799.4575     128.0145     128.3874      -0.0567    6182.1130    6182.0564     129.0916         29     486.1646      -0.3757    6180.7399    6180.3642    6177.8209    6178.2391       0.4181
    1819.0    4860.0245 1496483.0000    3799.4575     128.0063     128.3853      -0.0594    6182.0215    6181.9621     129.0925         29     487.1646      -0.3518    6180.1529    6179.8010    6177.7002    6177.9856       0.2852
    1820.0    4847.5306 1496483.0000    3799.4575     128.0001     128.3858      -0.0606    6181.9948    6181.9342     129.0931         29     488.1646      -0.3262    6180.1983    6179.8719    6177.9185    6178.0784       0.1600
    1821.0    4825.2871 1496483.0000    3799.4575     127.9960     128.3840      -0.0589    6182.0599    6182.0009     129.0934         29     489.1646      -0.3012    6180.2025    6179.9014    6178.0673    6178.1131       0.0459
