~VERSION INFORMATION
VERS.           2.0   :CWLS Log ASCII Standard - VERSION 2.0
WRAP.           NO    :One Line per depth step
PROD.  Schlumberger   :LAS Producer
PROG.  DLIS to ASCII 2.2                               :LAS Program name and version
CREA.        2020/10/30 12:18                          :LAS Creation date {YYYY/MM/DD hh:mm}
SOURCE.     XPT_HRLA_TLD_MCFL_039LTP.DLIS              :DLIS File Name
FILE-ID.     XPT_HRLA_TLD_MCFL_039LTP                  :File Identification Number
#--------------------------------------------------
~WELL INFORMATION
#MNEM.UNIT      DATA             DESCRIPTION
#---- ------ --------------   -----------------------------
STRT .S          109.0       :START TIME      
STOP .S          613.0       :STOP TIME      
STEP .S            1.0       :STEP     
NULL .          -999.25      :NULL VALUE
COMP .        Nexus Energy                             :COMPANY
WELL .        Crux-3                                   :WELL
FLD  .        Crux                                     :FIELD
LOC  .        Easting: 656981.7mE                      :LOCATION
CNTY .        Sedco-703                                :COUNTY
STAT .        Northern Territory                       :STATE
CTRY .        Australia                                :COUNTRY
API  .                                                 :API NUMBER
UWI  .                                                 :UNIQUE WELL ID
DATE .        31-Dec-2007                              :LOG DATE {DD-MMM-YYYY}
SRVC .        Schlumberger                             :SERVICE COMPANY
LATI .DEG     12*57'32.63" S                           :LATITUDE
LONG .DEG     124*26'50.07" E                          :LONGITUDE
GDAT .                                                 :GeoDetic Datum
#-----------------------------------------------------------------------------
~PARAMETER INFORMATION
#MNEM.UNIT    VALUE                      DESCRIPTION
#---- -----   --------------------       ------------------------
RUN  .          1                        :RUN NUMBER
PDAT .        LAT                        :Permanent Datum
EPD  .M           0.000000               :Elevation of Permanent Datum above Mean Sea Level
EPD  .M           0.000000               :Elevation of tool zero above Mean Sea Level
LMF  .          DF                       :Logging Measured From (Name of Logging Elevation Reference)
APD  .M          26.400000               :Elevation of Depth Reference (LMF) above Permanent Datum
#-----------------------------------------------------------------------------
~CURVE INFORMATION
#MNEM.UNIT   API CODE                                  DESCRIPTION
#---- -----  --------                                  -----------------------
TIME .S                                                :TIME {F10.1}
TENS_SL.LBF                                            :Cable Tension {F13.4}
DEPT_SL..1IN                                           :Station logging depth {F13.4}
PDEP_XPT.M                                             :XPT Probe Depth {F13.4}
MTEP_SAP.DEGC                                          :Sapphire Gauge Manometer Temperature {F13.4}
MTEP_HYD.DEGC                                          :Hydrostatic Sapphire Gauge Manometer Temperature {F13.4}
PCO_HYD.PSI                                            :Hydrostatic Sapphire Dynamic Compensation {F13.4}
PND_HYD.PSI                                            :Hydrostatic Sapphire Pressure Without Dynamic Compensation {F13.4}
CP_HYD.PSI                                             :Hydrostatic Sapphire Pressure With Dynamic Compensation {F13.4}
MTEP_QG.DEGC                                           :CQG Manometer Temperature {F13.4}
PTNO_XPT.                                              :XPT Pretest Number {I11}
ETIM_XPT.S                                             :Elapsed Logging Time {F13.4}
PCO_SAP.PSI                                            :Sapphire Dynamic Compensation {F13.4}
PND_SAP.PSI                                            :Sapphire Pressure Without Dynamic Compensation {F13.4}
CP_SAP.PSI                                             :Sapphire Pressure With Dynamic Compensation {F13.4}
QNDP .PSI                                              :CQG Pressure Without Dynamic Compensation {F13.4}
QCP  .PSI                                              :CQG Pressure With Dynamic Compensation {F13.4}
QPCO .PSI                                              :CQG Dynamic Compensation {F13.4}
#-----------------------------------------------------------------------------
# 
#     TIME      TENS_SL      DEPT_SL      PDEP_XPT     MTEP_SAP     MTEP_HYD     PCO_HYD      PND_HYD       CP_HYD      MTEP_QG       PTNO_XPT       ETIM_XPT     PCO_SAP      PND_SAP       CP_SAP        QNDP         QCP          QPCO
#
~A  
# ...
     389.0    4701.8719 1418545.0000    3601.4951     119.0184     119.5659       0.0107    5866.6314    5866.6421     119.5560          4     280.2610       0.0027    5505.0934    5505.0960    5502.2177    5502.3058       0.0881
     390.0    4725.6953 1418545.0000    3601.4951     119.0177     119.5670       0.0105    5866.5999    5866.6104     119.5563          4     281.2610       0.0052    5505.0236    5505.0287    5502.2284    5502.3133       0.0848
     391.0    4721.4781 1418545.0000    3601.4951     119.0193     119.5673       0.0109    5866.6286    5866.6394     119.5563          4     282.2610       0.0044    5505.0852    5505.0897    5502.2363    5502.3184       0.0822
     392.0    4716.8687 1418545.0000    3601.4951     119.0190     119.5686       0.0112    5866.7186    5866.7299     119.5570          4     283.2610       0.0013    5505.0747    5505.0760    5502.2530    5502.3319       0.0791
     393.0    4705.9125 1418545.0000    3601.4951     119.0182     119.5666       0.0100    5866.5957    5866.6057     119.5571          4     284.2610      -0.0024    5505.0346    5505.0321    5502.2671    5502.3428       0.0758
     394.0    4696.6078 1418545.0000    3601.4951     119.0187     119.5684       0.0087    5866.7166    5866.7254     119.5572          4     285.2610      -0.0041    5505.1455    5505.1416    5502.2698    5502.3431       0.0732
     395.0    4683.6078 1418545.0000    3601.4951     119.0172     119.5679       0.0089    5866.5579    5866.5668     119.5574          4     286.2610      -0.0030    5505.0406    5505.0378    5502.2779    5502.3496       0.0715
     396.0    4681.0453 1418545.0000    3601.4951     119.0173     119.5688       0.0094    5866.6612    5866.6705     119.5578          4     287.2610       0.0002    5505.0607    5505.0610    5502.2859    5502.3565       0.0705
     397.0    4702.5656 1418545.0000    3601.4951     119.0193     119.5679       0.0085    5866.5933    5866.6016     119.5578          4     288.2610       0.0041    5505.0949    5505.0991    5502.2957    5502.3655       0.0698
     398.0    4716.3938 1418545.0000    3601.4951     119.0173     119.5681       0.0073    5866.7140    5866.7213     119.5583          4     289.2610       0.0073    5505.1016    5505.1087    5502.2974    5502.3667       0.0693
     399.0    4751.6109 1418545.0000    3601.4951     119.0186     119.5691       0.0075    5866.6369    5866.6445     119.5585          4     290.2610       0.0101    5505.0337    5505.0437    5502.3014    5502.3703       0.0689
     400.0    4772.3469 1418545.0000    3601.4951     119.0205     119.5692       0.0090    5866.6920    5866.7012     119.5590          4     291.2610       0.0121    5505.1199    5505.1321    5502.3065    5502.3749       0.0684
     401.0    4759.6516 1418545.0000    3601.4951     119.0188     119.5689       0.0105    5866.6385    5866.6488     119.5589          4     292.2610       0.0120    5505.0497    5505.0618    5502.3081    5502.3760       0.0678
     402.0    4765.7859 1418545.0000    3601.4951     119.0179     119.5691       0.0111    5866.6323    5866.6435     119.5592          4     293.2610       0.0097    5505.0670    5505.0767    5502.3176    5502.3850       0.0672
     403.0    4803.3047 1418545.0000    3601.4951     119.0199     119.5695       0.0109    5866.6348    5866.6456     119.5592          4     294.2610       0.0075    5505.1998    5505.2072    5502.3138    5502.3803       0.0666
     404.0    4802.5641 1418545.0000    3601.4951     119.0193     119.5699       0.0097    5866.6136    5866.6233     119.5599          4     295.2610       0.0066    5505.1011    5505.1078    5502.3202    5502.3862       0.0660
     405.0    4780.6062 1418545.0000    3601.4951     119.0191     119.5697       0.0079    5866.6119    5866.6200     119.5598          4     296.2610       0.0048    5505.1048    5505.1096    5502.3263    5502.3922       0.0660
     406.0    4738.8656 1418545.0000    3601.4951     119.0195     119.5703       0.0062    5866.6177    5866.6241     119.5601          4     297.2610       0.0010    5505.1369    5505.1380    5502.3334    5502.3997       0.0662
     407.0    4697.3047 1418545.0000    3601.4951     119.0193     119.5702       0.0050    5866.5934    5866.5982     119.5603          4     298.2610      -0.0024    5505.1369    5505.1344    5502.3309    5502.3973       0.0663
     408.0    4702.5656 1418545.0000    3601.4951     119.0189     119.5695       0.0044    5866.6685    5866.6729     119.5604          4     299.2610      -0.0025    5505.1164    5505.1138    5502.3347    5502.4006       0.0659
     409.0    4709.3484 1418545.0000    3601.4951     119.0197     119.5702       0.0047    5866.7358    5866.7407     119.5606          4     300.2610      -0.0003    5505.0353    5505.0352    5502.3380    5502.4034       0.0652
     410.0    4707.1281 1418545.0000    3601.4951     119.0176     119.5702       0.0061    5866.6763    5866.6822     119.5606          4     301.2610       0.0009    5505.0442    5505.0451    5502.3392    5502.4036       0.0647
     411.0    4709.1375 1418545.0000    3601.4951     119.0198     119.5702       0.0073    5866.6763    5866.6836     119.5611          4     302.2610       0.0013    5505.0131    5505.0144    5502.3414    5502.4058       0.0644
     412.0    4783.6516 1418545.0000    3601.4951     119.0196     119.5710       0.0077    5866.6841    5866.6919     119.5616          4     303.2610       0.0025    5505.1083    5505.1107    5502.3442    5502.4082       0.0639
     413.0    4775.4344 1418545.0000    3601.4951     119.0218     119.5703       0.0077    5866.5645    5866.5723     119.5615          4     304.2610       0.0045    5505.1472    5505.1517    5502.3467    5502.4100       0.0634
     414.0    4779.0891 1418545.0000    3601.4951     119.0175     119.5716       0.0079    5866.4804    5866.4882     119.5617          4     305.2610       0.0055    5505.0444    5505.0497    5502.3488    5502.4121       0.0632
     415.0    4799.1297 1418545.0000    3601.4951     119.0192     119.5703       0.0079    5866.4986    5866.5064     119.5620          4     306.2610       0.0053    5505.1347    5505.1401    5502.3471    5502.4106       0.0637
     416.0    4774.8219 1418545.0000    3601.4951     119.0204     119.5710       0.0071    5866.5119    5866.5191     119.5622          4     307.2610       0.0069    5505.1290    5505.1359    5502.3551    5502.4190       0.0641
     417.0    4727.4344 1418545.0000    3601.4951     119.0181     119.5716       0.0065    5866.5881    5866.5944     119.5625          4     308.2610       0.0092    5505.1003    5505.1096    5502.3570    5502.4212       0.0642
     418.0    4714.3891 1418545.0000    3601.4951     119.0217     119.5717       0.0065    5866.6328    5866.6392     119.5626          4     309.2610       0.0109    5505.0830    5505.0937    5502.3567    5502.4212       0.0642
     419.0    4685.8250 1418545.0000    3601.4951     119.0197     119.5717       0.0069    5866.7575    5866.7644     119.5627          4     310.2610       0.0112    5505.0694    5505.0807    5502.3585    5502.4229       0.0643
     420.0    4675.0437 1418545.0000    3601.4951     119.0220     119.5715       0.0069    5866.7381    5866.7449     119.5630          4     311.2610       0.0111    5505.1442    5505.1554    5502.3541    5502.4181       0.0641
     421.0    4709.0516 1418545.0000    3601.4951     119.0201     119.5725       0.0072    5866.6406    5866.6479     119.5632          4     312.2610       0.0117    5505.0987    5505.1104    5502.3546    5502.4181       0.0635
     422.0    4803.0016 1418545.0000    3601.4951     119.0226     119.5713       0.0089    5866.6873    5866.6962     119.5635          4     313.2610       0.0114    5505.1428    5505.1540    5502.3578    5502.4213       0.0633
     423.0    4813.9984 1418545.0000    3601.4951     119.0221     119.5725       0.0116    5866.6406    5866.6524     119.5637          4     314.2610       0.0093    5505.1882    5505.1974    5502.3545    5502.4183       0.0637
