~VERSION INFORMATION
VERS.           2.0   :CWLS Log ASCII Standard - VERSION 2.0
WRAP.           NO    :One Line per depth step
PROD.  Schlumberger   :LAS Producer
PROG.  DLIS to ASCII 2.2                               :LAS Program name and version
CREA.        2020/10/30 12:18                          :LAS Creation date {YYYY/MM/DD hh:mm}
SOURCE.     XPT_HRLA_TLD_MCFL_056LTP.DLIS              :DLIS File Name
FILE-ID.     XPT_HRLA_TLD_MCFL_056LTP                  :File Identification Number
#--------------------------------------------------
~WELL INFORMATION
#MNEM.UNIT      DATA             DESCRIPTION
#---- ------ --------------   -----------------------------
STRT .S         6532.0       :START TIME      
STOP .S         6757.0       :STOP TIME      
STEP .S            1.0       :STEP     
NULL .          -999.25      :NULL VALUE
COMP .        Nexus Energy                             :COMPANY
WELL .        Crux-3                                   :WELL
FLD  .        Crux                                     :FIELD
LOC  .        Easting: 656981.7mE                      :LOCATION
CNTY .        Sedco-703                                :COUNTY
STAT .        Northern Territory                       :STATE
CTRY .        Australia                                :COUNTRY
API  .                                                 :API NUMBER
UWI  .                                                 :UNIQUE WELL ID
DATE .        31-Dec-2007                              :LOG DATE {DD-MMM-YYYY}
SRVC .        Schlumberger                             :SERVICE COMPANY
LATI .DEG     12*57'32.63" S                           :LATITUDE
LONG .DEG     124*26'50.07" E                          :LONGITUDE
GDAT .                                                 :GeoDetic Datum
#-----------------------------------------------------------------------------
~PARAMETER INFORMATION
#MNEM.UNIT    VALUE                      DESCRIPTION
#---- -----   --------------------       ------------------------
RUN  .          1                        :RUN NUMBER
PDAT .        LAT                        :Permanent Datum
EPD  .M           0.000000               :Elevation of Permanent Datum above Mean Sea Level
EPD  .M           0.000000               :Elevation of tool zero above Mean Sea Level
LMF  .          DF                       :Logging Measured From (Name of Logging Elevation Reference)
APD  .M          26.400000               :Elevation of Depth Reference (LMF) above Permanent Datum
#-----------------------------------------------------------------------------
~CURVE INFORMATION
#MNEM.UNIT   API CODE                                  DESCRIPTION
#---- -----  --------                                  -----------------------
TIME .S                                                :TIME {F10.1}
TENS_SL.LBF                                            :Cable Tension {F13.4}
DEPT_SL..1IN                                           :Station logging depth {F13.4}
PDEP_XPT.M                                             :XPT Probe Depth {F13.4}
MTEP_SAP.DEGC                                          :Sapphire Gauge Manometer Temperature {F13.4}
MTEP_HYD.DEGC                                          :Hydrostatic Sapphire Gauge Manometer Temperature {F13.4}
PCO_HYD.PSI                                            :Hydrostatic Sapphire Dynamic Compensation {F13.4}
PND_HYD.PSI                                            :Hydrostatic Sapphire Pressure Without Dynamic Compensation {F13.4}
CP_HYD.PSI                                             :Hydrostatic Sapphire Pressure With Dynamic Compensation {F13.4}
MTEP_QG.DEGC                                           :CQG Manometer Temperature {F13.4}
PTNO_XPT.                                              :XPT Pretest Number {I11}
ETIM_XPT.S                                             :Elapsed Logging Time {F13.4}
PCO_SAP.PSI                                            :Sapphire Dynamic Compensation {F13.4}
PND_SAP.PSI                                            :Sapphire Pressure Without Dynamic Compensation {F13.4}
CP_SAP.PSI                                             :Sapphire Pressure With Dynamic Compensation {F13.4}
QNDP .PSI                                              :CQG Pressure Without Dynamic Compensation {F13.4}
QCP  .PSI                                              :CQG Pressure With Dynamic Compensation {F13.4}
QPCO .PSI                                              :CQG Dynamic Compensation {F13.4}
#-----------------------------------------------------------------------------
# 
#     TIME      TENS_SL      DEPT_SL      PDEP_XPT     MTEP_SAP     MTEP_HYD     PCO_HYD      PND_HYD       CP_HYD      MTEP_QG       PTNO_XPT       ETIM_XPT     PCO_SAP      PND_SAP       CP_SAP        QNDP         QCP          QPCO
#
~A  
# ...
    6637.0    4983.6150 1525238.0000    3872.4954     129.7725     130.2672      -0.0757    6296.7663    6296.6906     130.2635         16     104.9950      -0.0780    6294.3888    6294.3106    6292.2780    6292.2952       0.0170
    6638.0    5036.7350 1525238.0000    3872.4954     129.7701     130.2656      -0.0800    6296.7490    6296.6691     130.2636         16     105.9950      -0.0733    6294.1932    6294.1198    6292.2545    6292.2609       0.0064
    6639.0    5030.0350 1525238.0000    3872.4954     129.7689     130.2653      -0.0829    6296.6863    6296.6035     130.2636         16     106.9950      -0.0723    6294.1650    6294.0927    6292.1929    6292.1899      -0.0032
    6640.0    5037.9600 1525238.0000    3872.4954     129.7709     130.2611      -0.0838    6296.5805    6296.4965     130.2638         16     107.9950      -0.0730    6294.1042    6294.0310    6292.1257    6292.1140      -0.0114
    6641.0    5029.0450 1525238.0000    3872.4954     129.7666     130.2618      -0.0817    6296.6535    6296.5717     130.2636         16     108.9950      -0.0741    6294.0652    6293.9913    6292.1719    6292.1537      -0.0180
    6642.0    4983.2300 1525238.0000    3872.4954     129.7668     130.2603      -0.0775    6296.6323    6296.5547     130.2635         16     109.9950      -0.0753    6294.2433    6294.1681    6292.1799    6292.1560      -0.0239
    6643.0    4916.3350 1525238.0000    3872.4954     129.7616     130.2573      -0.0731    6296.5402    6296.4670     130.2634         17     110.9950      -0.0769    6293.8041    6293.7270    6291.9197    6291.8905      -0.0291
    6644.0    4894.1100 1525238.0000    3872.4954     129.7618     130.2572      -0.0696    6296.6602    6296.5906     130.2634         17     111.9950      -0.0769    6293.7497    6293.6728    6291.7851    6291.7521      -0.0328
    6645.0    4882.0600 1525238.0000    3872.4954     129.7609     130.2551      -0.0676    6296.6479    6296.5803     130.2631         17     112.9950      -0.0732    6293.8031    6293.7298    6291.8189    6291.7834      -0.0354
    6646.0    4867.0750 1525238.0000    3872.4954     129.7612     130.2550      -0.0671    6296.7580    6296.6911     130.2631         17     113.9950      -0.0672    6293.6776    6293.6102    6291.8172    6291.7796      -0.0378
    6647.0    4888.8900 1525238.0000    3872.4954     129.7584     130.2540      -0.0684    6296.7463    6296.6778     130.2630         17     114.9950      -0.0627    6293.6383    6293.5756    6291.7411    6291.7004      -0.0406
    6648.0    4965.6150 1525238.0000    3872.4954     129.7563     130.2532      -0.0708    6296.6874    6296.6164     130.2627         17     115.9950      -0.0626    6294.1600    6294.0975    6292.3139    6292.2703      -0.0436
    6649.0    5033.6600 1525238.0000    3872.4954     129.7575     130.2504      -0.0733    6296.7076    6296.6344     130.2627         17     116.9950      -0.0647    6294.3296    6294.2647    6292.2905    6292.2446      -0.0461
    6650.0    5021.0650 1525238.0000    3872.4954     129.7551     130.2496      -0.0749    6296.6447    6296.5699     130.2627         17     117.9950      -0.0660    6294.0879    6294.0219    6292.2134    6292.1649      -0.0483
    6651.0    5024.9800 1525238.0000    3872.4954     129.7551     130.2483      -0.0757    6296.6845    6296.6088     130.2625         17     118.9950      -0.0662    6294.1292    6294.0631    6292.2021    6292.1520      -0.0503
    6652.0    5017.0400 1525238.0000    3872.4954     129.7526     130.2474      -0.0764    6296.6140    6296.5378     130.2622         17     119.9950      -0.0667    6294.1043    6294.0374    6292.2119    6292.1597      -0.0523
    6653.0    4982.1750 1525238.0000    3872.4954     129.7503     130.2451      -0.0777    6296.6445    6296.5667     130.2621         17     120.9950      -0.0671    6294.0196    6293.9527    6292.2397    6292.1858      -0.0539
    6654.0    4902.4000 1525238.0000    3872.4954     129.7516     130.2451      -0.0793    6296.7109    6296.6315     130.2619         17     121.9950      -0.0650    6294.1531    6294.0880    6292.2843    6292.2296      -0.0548
    6655.0    4939.8100 1525238.0000    3872.4954     129.7485     130.2420      -0.0806    6296.6785    6296.5979     130.2619         17     122.9950      -0.0610    6294.2434    6294.1824    6292.2946    6292.2395      -0.0551
    6656.0    4870.3500 1525238.0000    3872.4954     129.7476     130.2408      -0.0812    6296.7866    6296.7056     130.2618         17     123.9950      -0.0583    6294.2878    6294.2297    6292.3547    6292.2986      -0.0560
    6657.0    4937.6600 1525238.0000    3872.4954     129.7481     130.2393      -0.0814    6296.7698    6296.6883     130.2616         17     124.9950      -0.0598    6294.2816    6294.2219    6292.3672    6292.3103      -0.0570
    6658.0    4929.0450 1525238.0000    3872.4954     129.7466     130.2375      -0.0817    6296.6301    6296.5486     130.2611         17     125.9950      -0.0637    6294.2861    6294.2221    6292.3712    6292.3126      -0.0587
    6659.0    4943.9250 1525238.0000    3872.4954     129.7453     130.2367      -0.0816    6296.7422    6296.6606     130.2611         17     126.9950      -0.0673    6294.1673    6294.0999    6292.3385    6292.2784      -0.0601
    6660.0    5007.6800 1525238.0000    3872.4954     129.7442     130.2360      -0.0813    6296.6739    6296.5927     130.2608         17     127.9950      -0.0679    6294.1222    6294.0543    6292.2804    6292.2199      -0.0605
    6661.0    5001.0350 1525238.0000    3872.4954     129.7411     130.2333      -0.0810    6296.6147    6296.5336     130.2608         17     128.9950      -0.0682    6294.0821    6294.0138    6292.2778    6292.2168      -0.0612
    6662.0    4984.0850 1525238.0000    3872.4954     129.7401     130.2316      -0.0806    6296.5671    6296.4865     130.2603         17     129.9950      -0.0691    6294.0558    6293.9868    6292.1858    6292.1241      -0.0618
    6663.0    4989.9700 1525238.0000    3872.4954     129.7397     130.2306      -0.0790    6296.5565    6296.4776     130.2603         17     130.9950      -0.0695    6294.0160    6293.9467    6292.1654    6292.1025      -0.0628
    6664.0    5017.8600 1525238.0000    3872.4954     129.7388     130.2295      -0.0761    6296.5749    6296.4988     130.2599         17     131.9950      -0.0686    6294.0891    6294.0202    6292.2374    6292.1740      -0.0636
    6665.0    5030.9350 1525238.0000    3872.4954     129.7385     130.2278      -0.0738    6296.5838    6296.5101     130.2596         17     132.9950      -0.0677    6294.1535    6294.0856    6292.2549    6292.1903      -0.0647
    6666.0    5016.0750 1525238.0000    3872.4954     129.7364     130.2268      -0.0737    6296.6362    6296.5625     130.2598         17     133.9950      -0.0682    6294.1362    6294.0680    6292.2444    6292.1781      -0.0660
    6667.0    4950.3300 1525238.0000    3872.4954     129.7332     130.2245      -0.0755    6296.4935    6296.4178     130.2595         17     134.9950      -0.0690    6294.0650    6293.9961    6292.2573    6292.1899      -0.0675
    6668.0    4907.2150 1525238.0000    3872.4954     129.7337     130.2250      -0.0785    6296.6775    6296.5990     130.2594         17     135.9950      -0.0679    6294.1550    6294.0872    6292.2719    6292.2029      -0.0691
    6669.0    4917.9450 1525238.0000    3872.4954     129.7332     130.2220      -0.0822    6296.6455    6296.5633     130.2588         17     136.9950      -0.0650    6294.2441    6294.1790    6292.2925    6292.2219      -0.0706
    6670.0    4861.2850 1525238.0000    3872.4954     129.7313     130.2215      -0.0851    6296.6396    6296.5547     130.2587         17     137.9950      -0.0630    6294.1960    6294.1330    6292.3351    6292.2634      -0.0719
    6671.0    4893.8350 1525238.0000    3872.4954     129.7309     130.2190      -0.0852    6296.6732    6296.5879     130.2586         17     138.9950      -0.0633    6294.1920    6294.1289    6292.3213    6292.2489      -0.0726
