~VERSION INFORMATION
VERS.           2.0   :CWLS Log ASCII Standard - VERSION 2.0
WRAP.           NO    :One Line per depth step
PROD.  Schlumberger   :LAS Producer
PROG.  DLIS to ASCII 2.2                               :LAS Program name and version
CREA.        2020/10/30 12:18                          :LAS Creation date {YYYY/MM/DD hh:mm}
SOURCE.     XPT_HRLA_TLD_MCFL_048LTP.DLIS              :DLIS File Name
FILE-ID.     XPT_HRLA_TLD_MCFL_048LTP                  :File Identification Number
#--------------------------------------------------
~WELL INFORMATION
#MNEM.UNIT      DATA             DESCRIPTION
#---- ------ --------------   -----------------------------
STRT .S           91.0       :START TIME      
STOP .S          545.0       :STOP TIME      
STEP .S            1.0       :STEP     
NULL .          -999.25      :NULL VALUE
COMP .        Nexus Energy                             :COMPANY
WELL .        Crux-3                                   :WELL
FLD  .        Crux                                     :FIELD
LOC  .        Easting: 656981.7mE                      :LOCATION
CNTY .        Sedco-703                                :COUNTY
STAT .        Northern Territory                       :STATE
CTRY .        Australia                                :COUNTRY
API  .                                                 :API NUMBER
UWI  .                                                 :UNIQUE WELL ID
DATE .        31-Dec-2007                              :LOG DATE {DD-MMM-YYYY}
SRVC .        Schlumberger                             :SERVICE COMPANY
LATI .DEG     12*57'32.63" S                           :LATITUDE
LONG .DEG     124*26'50.07" E                          :LONGITUDE
GDAT .                                                 :GeoDetic Datum
#-----------------------------------------------------------------------------
~PARAMETER INFORMATION
#MNEM.UNIT    VALUE                      DESCRIPTION
#---- -----   --------------------       ------------------------
RUN  .          1                        :RUN NUMBER
PDAT .        LAT                        :Permanent Datum
EPD  .M           0.000000               :Elevation of Permanent Datum above Mean Sea Level
EPD  .M           0.000000               :Elevation of tool zero above Mean Sea Level
LMF  .          DF                       :Logging Measured From (Name of Logging Elevation Reference)
APD  .M          26.400000               :Elevation of Depth Reference (LMF) above Permanent Datum
#-----------------------------------------------------------------------------
~CURVE INFORMATION
#MNEM.UNIT   API CODE                                  DESCRIPTION
#---- -----  --------                                  -----------------------
TIME .S                                                :TIME {F10.1}
TENS_SL.LBF                                            :Cable Tension {F13.4}
DEPT_SL..1IN                                           :Station logging depth {F13.4}
PDEP_XPT.M                                             :XPT Probe Depth {F13.4}
MTEP_SAP.DEGC                                          :Sapphire Gauge Manometer Temperature {F13.4}
MTEP_HYD.DEGC                                          :Hydrostatic Sapphire Gauge Manometer Temperature {F13.4}
PCO_HYD.PSI                                            :Hydrostatic Sapphire Dynamic Compensation {F13.4}
PND_HYD.PSI                                            :Hydrostatic Sapphire Pressure Without Dynamic Compensation {F13.4}
CP_HYD.PSI                                             :Hydrostatic Sapphire Pressure With Dynamic Compensation {F13.4}
MTEP_QG.DEGC                                           :CQG Manometer Temperature {F13.4}
PTNO_XPT.                                              :XPT Pretest Number {I11}
ETIM_XPT.S                                             :Elapsed Logging Time {F13.4}
PCO_SAP.PSI                                            :Sapphire Dynamic Compensation {F13.4}
PND_SAP.PSI                                            :Sapphire Pressure Without Dynamic Compensation {F13.4}
CP_SAP.PSI                                             :Sapphire Pressure With Dynamic Compensation {F13.4}
QNDP .PSI                                              :CQG Pressure Without Dynamic Compensation {F13.4}
QCP  .PSI                                              :CQG Pressure With Dynamic Compensation {F13.4}
QPCO .PSI                                              :CQG Dynamic Compensation {F13.4}
#-----------------------------------------------------------------------------
# 
#     TIME      TENS_SL      DEPT_SL      PDEP_XPT     MTEP_SAP     MTEP_HYD     PCO_HYD      PND_HYD       CP_HYD      MTEP_QG       PTNO_XPT       ETIM_XPT     PCO_SAP      PND_SAP       CP_SAP        QNDP         QCP          QPCO
#
~A  
# ...
     406.0    4656.7669 1445909.0000    3671.0000     122.1326     122.6886       0.0137    5977.8163    5977.8298     122.6939         12     314.8206       0.0133    5529.6291    5529.6423    5526.9201    5526.9916       0.0715
     407.0    4663.6681 1445909.0000    3671.0000     122.1299     122.6902       0.0178    5977.8726    5977.8904     122.6941         12     315.8206       0.0127    5529.6356    5529.6483    5526.9184    5526.9897       0.0714
     408.0    4766.1163 1445909.0000    3671.0000     122.1334     122.6887       0.0212    5977.7813    5977.8023     122.6942         12     316.8206       0.0127    5529.6134    5529.6261    5526.9187    5526.9900       0.0714
     409.0    4797.0269 1445909.0000    3671.0000     122.1342     122.6896       0.0205    5977.7312    5977.7518     122.6945         12     317.8206       0.0142    5529.6916    5529.7058    5526.9227    5526.9939       0.0711
     410.0    4795.7175 1445909.0000    3671.0000     122.1348     122.6907       0.0164    5977.6824    5977.6989     122.6948         12     318.8206       0.0146    5529.7403    5529.7549    5526.9207    5526.9915       0.0709
     411.0    4791.7175 1445909.0000    3671.0000     122.1326     122.6917       0.0130    5977.5783    5977.5915     122.6951         12     319.8206       0.0126    5529.6895    5529.7022    5526.9232    5526.9940       0.0706
     412.0    4816.4394 1445909.0000    3671.0000     122.1346     122.6914       0.0114    5977.6906    5977.7022     122.6954         12     320.8206       0.0091    5529.7193    5529.7282    5526.9289    5526.9992       0.0703
     413.0    4779.3275 1445909.0000    3671.0000     122.1347     122.6892       0.0091    5977.6674    5977.6765     122.6956         12     321.8206       0.0055    5529.7611    5529.7667    5526.9340    5527.0043       0.0704
     414.0    4724.8656 1445909.0000    3671.0000     122.1346     122.6902       0.0063    5977.6798    5977.6861     122.6957         12     322.8206       0.0019    5529.8175    5529.8194    5526.9386    5527.0089       0.0705
     415.0    4691.2019 1445909.0000    3671.0000     122.1337     122.6917       0.0058    5977.7178    5977.7237     122.6960         12     323.8206      -0.0014    5529.6873    5529.6860    5526.9357    5527.0061       0.0702
     416.0    4693.3856 1445909.0000    3671.0000     122.1349     122.6911       0.0084    5977.8584    5977.8669     122.6959         12     324.8206      -0.0026    5529.6791    5529.6767    5526.9383    5527.0081       0.0698
     417.0    4693.3588 1445909.0000    3671.0000     122.1335     122.6910       0.0110    5977.8693    5977.8806     122.6964         12     325.8206      -0.0011    5529.6948    5529.6938    5526.9415    5527.0108       0.0695
     418.0    4733.2106 1445909.0000    3671.0000     122.1340     122.6916       0.0116    5977.8560    5977.8675     122.6966         12     326.8206       0.0010    5529.6215    5529.6226    5526.9403    5527.0099       0.0696
     419.0    4773.1838 1445909.0000    3671.0000     122.1349     122.6917       0.0110    5977.7534    5977.7643     122.6967         12     327.8206       0.0025    5529.6438    5529.6462    5526.9386    5527.0080       0.0696
     420.0    4787.3856 1445909.0000    3671.0000     122.1340     122.6918       0.0106    5977.7581    5977.7688     122.6970         12     328.8206       0.0033    5529.6140    5529.6175    5526.9458    5527.0146       0.0690
     421.0    4772.5875 1445909.0000    3671.0000     122.1353     122.6919       0.0104    5977.6797    5977.6900     122.6971         12     329.8206       0.0043    5529.6887    5529.6931    5526.9409    5527.0098       0.0688
     422.0    4693.5025 1445909.0000    3671.0000     122.1352     122.6925       0.0100    5977.7835    5977.7934     122.6976         12     330.8206       0.0050    5529.7639    5529.7688    5526.9428    5527.0117       0.0689
     423.0    4673.7175 1445909.0000    3671.0000     122.1345     122.6939       0.0094    5977.8271    5977.8364     122.6976         12     331.8206       0.0044    5529.7616    5529.7660    5526.9424    5527.0112       0.0688
     424.0    4684.4888 1445909.0000    3671.0000     122.1342     122.6925       0.0089    5977.7176    5977.7264     122.6978         12     332.8206       0.0037    5529.6854    5529.6891    5526.9435    5527.0118       0.0683
     425.0    4700.9506 1445909.0000    3671.0000     122.1344     122.6925       0.0092    5977.8367    5977.8458     122.6983         12     333.8206       0.0056    5529.6852    5529.6908    5526.9451    5527.0130       0.0678
     426.0    4778.6769 1445909.0000    3671.0000     122.1353     122.6933       0.0106    5977.7377    5977.7484     122.6983         12     334.8206       0.0107    5529.6600    5529.6708    5526.9447    5527.0125       0.0677
     427.0    4781.8700 1445909.0000    3671.0000     122.1350     122.6934       0.0111    5977.7469    5977.7579     122.6987         12     335.8206       0.0154    5529.6371    5529.6526    5526.9463    5527.0140       0.0676
     428.0    4763.4081 1445909.0000    3671.0000     122.1342     122.6935       0.0091    5977.7505    5977.7595     122.6989         12     336.8206       0.0162    5529.5401    5529.5562    5526.9448    5527.0126       0.0678
     429.0    4796.1075 1445909.0000    3671.0000     122.1354     122.6933       0.0056    5977.5585    5977.5643     122.6991         12     337.8206       0.0143    5529.5454    5529.5595    5526.9363    5527.0047       0.0683
     430.0    4791.6906 1445909.0000    3671.0000     122.1362     122.6946       0.0035    5977.7238    5977.7272     122.6993         12     338.8206       0.0119    5529.7163    5529.7283    5526.9512    5527.0198       0.0686
     431.0    4711.8612 1445909.0000    3671.0000     122.1380     122.6940       0.0041    5977.8053    5977.8095     122.6994         12     339.8206       0.0094    5529.8046    5529.8142    5526.9502    5527.0189       0.0686
     432.0    4694.1794 1445909.0000    3671.0000     122.1351     122.6925       0.0058    5977.7017    5977.7076     122.6999         12     340.8206       0.0062    5529.6236    5529.6299    5526.9541    5527.0224       0.0684
     433.0    4689.8969 1445909.0000    3671.0000     122.1361     122.6933       0.0082    5977.7935    5977.8017     122.6999         12     341.8206       0.0047    5529.6765    5529.6811    5526.9543    5527.0221       0.0680
     434.0    4670.9463 1445909.0000    3671.0000     122.1364     122.6940       0.0114    5978.0161    5978.0276     122.7002         12     342.8206       0.0073    5529.6929    5529.7003    5526.9528    5527.0198       0.0671
     435.0    4685.8744 1445909.0000    3671.0000     122.1375     122.6940       0.0142    5977.9565    5977.9707     122.7004         12     343.8206       0.0115    5529.7263    5529.7381    5526.9535    5527.0199       0.0665
     436.0    4761.3944 1445909.0000    3671.0000     122.1362     122.6958       0.0151    5977.8738    5977.8889     122.7008         12     344.8206       0.0136    5529.7306    5529.7443    5526.9521    5527.0185       0.0666
     437.0    4800.7981 1445909.0000    3671.0000     122.1375     122.6942       0.0142    5977.7194    5977.7336     122.7010         12     345.8206       0.0122    5529.7111    5529.7234    5526.9517    5527.0186       0.0668
     438.0    4824.8744 1445909.0000    3671.0000     122.1377     122.6941       0.0135    5977.7178    5977.7315     122.7010         12     346.8206       0.0090    5529.8451    5529.8542    5526.9595    5527.0264       0.0668
     439.0    4824.0763 1445909.0000    3671.0000     122.1382     122.6966       0.0139    5977.7444    5977.7582     122.7015         12     347.8206       0.0055    5529.7981    5529.8035    5526.9526    5527.0193       0.0667
     440.0    4787.7131 1445909.0000    3671.0000     122.1375     122.6942       0.0142    5977.5480    5977.5622     122.7015         12     348.8206       0.0031    5529.6814    5529.6844    5526.9541    5527.0205       0.0665
