~VERSION INFORMATION
VERS.           2.0   :CWLS Log ASCII Standard - VERSION 2.0
WRAP.           NO    :One Line per depth step
PROD.  Schlumberger   :LAS Producer
PROG.  DLIS to ASCII 2.2                               :LAS Program name and version
CREA.        2020/10/30 12:18                          :LAS Creation date {YYYY/MM/DD hh:mm}
SOURCE.     XPT_HRLA_TLD_MCFL_046LTP.DLIS              :DLIS File Name
FILE-ID.     XPT_HRLA_TLD_MCFL_046LTP                  :File Identification Number
#--------------------------------------------------
~WELL INFORMATION
#MNEM.UNIT      DATA             DESCRIPTION
#---- ------ --------------   -----------------------------
STRT .S         4617.0       :START TIME      
STOP .S         5507.0       :STOP TIME      
STEP .S            1.0       :STEP     
NULL .          -999.25      :NULL VALUE
COMP .        Nexus Energy                             :COMPANY
WELL .        Crux-3                                   :WELL
FLD  .        Crux                                     :FIELD
LOC  .        Easting: 656981.7mE                      :LOCATION
CNTY .        Sedco-703                                :COUNTY
STAT .        Northern Territory                       :STATE
CTRY .        Australia                                :COUNTRY
API  .                                                 :API NUMBER
UWI  .                                                 :UNIQUE WELL ID
DATE .        31-Dec-2007                              :LOG DATE {DD-MMM-YYYY}
SRVC .        Schlumberger                             :SERVICE COMPANY
LATI .DEG     12*57'32.63" S                           :LATITUDE
LONG .DEG     124*26'50.07" E                          :LONGITUDE
GDAT .                                                 :GeoDetic Datum
#-----------------------------------------------------------------------------
~PARAMETER INFORMATION
#MNEM.UNIT    VALUE                      DESCRIPTION
#---- -----   --------------------       ------------------------
RUN  .          1                        :RUN NUMBER
PDAT .        LAT                        :Permanent Datum
EPD  .M           0.000000               :Elevation of Permanent Datum above Mean Sea Level
EPD  .M           0.000000               :Elevation of tool zero above Mean Sea Level
LMF  .          DF                       :Logging Measured From (Name of Logging Elevation Reference)
APD  .M          26.400000               :Elevation of Depth Reference (LMF) above Permanent Datum
#-----------------------------------------------------------------------------
~CURVE INFORMATION
#MNEM.UNIT   API CODE                                  DESCRIPTION
#---- -----  --------                                  -----------------------
TIME .S                                                :TIME {F10.1}
TENS_SL.LBF                                            :Cable Tension {F13.4}
DEPT_SL..1IN                                           :Station logging depth {F13.4}
PDEP_XPT.M                                             :XPT Probe Depth {F13.4}
MTEP_SAP.DEGC                                          :Sapphire Gauge Manometer Temperature {F13.4}
MTEP_HYD.DEGC                                          :Hydrostatic Sapphire Gauge Manometer Temperature {F13.4}
PCO_HYD.PSI                                            :Hydrostatic Sapphire Dynamic Compensation {F13.4}
PND_HYD.PSI                                            :Hydrostatic Sapphire Pressure Without Dynamic Compensation {F13.4}
CP_HYD.PSI                                             :Hydrostatic Sapphire Pressure With Dynamic Compensation {F13.4}
MTEP_QG.DEGC                                           :CQG Manometer Temperature {F13.4}
PTNO_XPT.                                              :XPT Pretest Number {I11}
ETIM_XPT.S                                             :Elapsed Logging Time {F13.4}
PCO_SAP.PSI                                            :Sapphire Dynamic Compensation {F13.4}
PND_SAP.PSI                                            :Sapphire Pressure Without Dynamic Compensation {F13.4}
CP_SAP.PSI                                             :Sapphire Pressure With Dynamic Compensation {F13.4}
QNDP .PSI                                              :CQG Pressure Without Dynamic Compensation {F13.4}
QCP  .PSI                                              :CQG Pressure With Dynamic Compensation {F13.4}
QPCO .PSI                                              :CQG Dynamic Compensation {F13.4}
#-----------------------------------------------------------------------------
# 
#     TIME      TENS_SL      DEPT_SL      PDEP_XPT     MTEP_SAP     MTEP_HYD     PCO_HYD      PND_HYD       CP_HYD      MTEP_QG       PTNO_XPT       ETIM_XPT     PCO_SAP      PND_SAP       CP_SAP        QNDP         QCP          QPCO
#
~A  
# ...
    5247.0    4714.2520 1443523.0000    3664.9392     121.8852     122.4544       0.0107    5967.6849    5967.6956     122.4940         10     629.6870       0.0122    5524.5365    5524.5487    5521.8362    5521.8660       0.0298
    5248.0    4710.2520 1443523.0000    3664.9392     121.8867     122.4544       0.0094    5967.7259    5967.7354     122.4939         10     630.6870       0.0115    5524.6077    5524.6193    5521.8792    5521.9095       0.0303
    5249.0    4693.8860 1443523.0000    3664.9392     121.8864     122.4545       0.0062    5967.8565    5967.8627     122.4940         10     631.6870       0.0100    5524.5942    5524.6042    5521.9244    5521.9550       0.0306
    5250.0    4691.1220 1443523.0000    3664.9392     121.8863     122.4544       0.0033    5967.8092    5967.8127     122.4940         10     632.6870       0.0068    5524.6142    5524.6210    5521.9613    5521.9921       0.0309
    5251.0    4730.7850 1443523.0000    3664.9392     121.8861     122.4559       0.0024    5967.7627    5967.7651     122.4941         10     633.6870       0.0035    5524.5862    5524.5898    5521.9992    5522.0298       0.0305
    5252.0    4789.9070 1443523.0000    3664.9392     121.8858     122.4536       0.0026    5967.6792    5967.6816     122.4944         10     634.6870       0.0023    5524.7753    5524.7777    5522.0465    5522.0763       0.0297
    5253.0    4820.6790 1443523.0000    3664.9392     121.8875     122.4543       0.0039    5967.6842    5967.6881     122.4945         10     635.6870       0.0032    5524.7465    5524.7499    5522.0862    5522.1154       0.0293
    5254.0    4821.8780 1443523.0000    3664.9392     121.8856     122.4544       0.0079    5967.6274    5967.6353     122.4944         10     636.6870       0.0050    5524.8309    5524.8360    5522.1200    5522.1493       0.0291
    5255.0    4824.1220 1443523.0000    3664.9392     121.8860     122.4559       0.0140    5967.7031    5967.7172     122.4946         10     637.6870       0.0064    5524.7882    5524.7949    5522.1636    5522.1929       0.0293
    5256.0    4807.4510 1443523.0000    3664.9392     121.8887     122.4558       0.0185    5967.6414    5967.6599     122.4949         10     638.6870       0.0080    5525.0063    5525.0141    5522.2032    5522.2325       0.0294
    5257.0    4771.5200 1443523.0000    3664.9392     121.8862     122.4537       0.0191    5967.5781    5967.5972     122.4949         10     639.6870       0.0093    5524.8502    5524.8596    5522.2391    5522.2689       0.0298
    5258.0    4734.9550 1443523.0000    3664.9392     121.8881     122.4574       0.0187    5967.6592    5967.6777     122.4950         10     640.6870       0.0098    5524.9818    5524.9915    5522.2795    5522.3103       0.0306
    5259.0    4711.6340 1443523.0000    3664.9392     121.8871     122.4559       0.0184    5967.7022    5967.7207     122.4953         10     641.6870       0.0094    5524.8651    5524.8744    5522.3168    5522.3480       0.0313
    5260.0    4703.2520 1443523.0000    3664.9392     121.8870     122.4573       0.0173    5967.7689    5967.7862     122.4951         10     642.6870       0.0083    5524.9804    5524.9885    5522.3516    5522.3834       0.0315
    5261.0    4709.5570 1443523.0000    3664.9392     121.8870     122.4566       0.0151    5967.7295    5967.7445     122.4953         10     643.6870       0.0071    5524.9580    5524.9651    5522.3881    5522.4194       0.0315
    5262.0    4751.4720 1443523.0000    3664.9392     121.8859     122.4571       0.0133    5967.6752    5967.6884     122.4953         10     644.6870       0.0067    5525.0651    5525.0719    5522.4232    5522.4544       0.0312
    5263.0    4800.6020 1443523.0000    3664.9392     121.8881     122.4571       0.0118    5967.6133    5967.6252     122.4953         10     645.6870       0.0070    5525.1694    5525.1764    5522.4607    5522.4917       0.0310
    5264.0    4822.5570 1443523.0000    3664.9392     121.8881     122.4566       0.0095    5967.6738    5967.6833     122.4957         10     646.6870       0.0076    5525.1935    5525.2011    5522.4951    5522.5256       0.0305
    5265.0    4829.4350 1443523.0000    3664.9392     121.8874     122.4582       0.0075    5967.6670    5967.6743     122.4956         10     647.6870       0.0082    5525.1957    5525.2040    5522.5231    5522.5534       0.0302
    5266.0    4821.3820 1443523.0000    3664.9392     121.8879     122.4587       0.0070    5967.7325    5967.7393     122.4956         10     648.6870       0.0099    5525.2053    5525.2152    5522.5567    5522.5870       0.0302
    5267.0    4771.6580 1443523.0000    3664.9392     121.8885     122.4581       0.0067    5967.6299    5967.6364     122.4960         10     649.6870       0.0117    5525.1047    5525.1162    5522.5926    5522.6234       0.0307
    5268.0    4715.9630 1443523.0000    3664.9392     121.8891     122.4564       0.0054    5967.5889    5967.5943     122.4960         10     650.6870       0.0121    5525.3278    5525.3400    5522.6290    5522.6602       0.0311
    5269.0    4692.4430 1443523.0000    3664.9392     121.8883     122.4581       0.0059    5967.6881    5967.6941     122.4961         10     651.6870       0.0116    5525.3022    5525.3138    5522.6607    5522.6923       0.0316
    5270.0    4693.8090 1443523.0000    3664.9392     121.8898     122.4587       0.0089    5967.7326    5967.7415     122.4963         10     652.6870       0.0112    5525.3986    5525.4098    5522.6915    5522.7234       0.0320
    5271.0    4735.8460 1443523.0000    3664.9392     121.8882     122.4589       0.0113    5967.7659    5967.7771     122.4964         10     653.6870       0.0109    5525.4314    5525.4422    5522.7181    5522.7504       0.0321
    5272.0    4800.0290 1443523.0000    3664.9392     121.8885     122.4576       0.0113    5967.7210    5967.7322     122.4966         10     654.6870       0.0087    5525.4132    5525.4218    5522.7515    5522.7831       0.0316
    5273.0    4820.3130 1443523.0000    3664.9392     121.8901     122.4597       0.0114    5967.7131    5967.7243     122.4963         10     655.6870       0.0060    5525.4641    5525.4701    5522.7840    5522.8147       0.0308
    5274.0    4815.8780 1443523.0000    3664.9392     121.8900     122.4589       0.0132    5967.5586    5967.5717     122.4969         10     656.6870       0.0052    5525.4789    5525.4843    5522.8136    5522.8443       0.0308
    5275.0    4825.6790 1443523.0000    3664.9392     121.8899     122.4592       0.0148    5967.5969    5967.6117     122.4967         10     657.6870       0.0068    5525.5207    5525.5275    5522.8451    5522.8764       0.0313
    5276.0    4772.6050 1443523.0000    3664.9392     121.8889     122.4587       0.0148    5967.6132    5967.6279     122.4966         10     658.6870       0.0076    5525.5475    5525.5553    5522.8741    5522.9059       0.0316
    5277.0    4749.4350 1443523.0000    3664.9392     121.8889     122.4597       0.0144    5967.7430    5967.7572     122.4969         10     659.6870       0.0071    5525.5286    5525.5355    5522.9016    5522.9328       0.0313
    5278.0    4720.0850 1443523.0000    3664.9392     121.8898     122.4597       0.0153    5967.8022    5967.8175     122.4969         10     660.6870       0.0076    5525.6382    5525.6457    5522.9363    5522.9672       0.0311
    5279.0    4702.5650 1443523.0000    3664.9392     121.8914     122.4605       0.0158    5967.8041    5967.8197     122.4971         10     661.6870       0.0103    5525.7917    5525.8021    5522.9649    5522.9961       0.0314
    5280.0    4684.5120 1443523.0000    3664.9392     121.8907     122.4604       0.0148    5967.8675    5967.8822     122.4973         10     662.6870       0.0121    5525.6931    5525.7053    5522.9924    5523.0242       0.0318
    5281.0    4698.9840 1443523.0000    3664.9392     121.8897     122.4605       0.0128    5967.7007    5967.7132     122.4970         10     663.6870       0.0096    5525.7092    5525.7187    5523.0139    5523.0458       0.0319
