~VERSION INFORMATION
VERS.           2.0   :CWLS Log ASCII Standard - VERSION 2.0
WRAP.           NO    :One Line per depth step
PROD.  Schlumberger   :LAS Producer
PROG.  DLIS to ASCII 2.2                               :LAS Program name and version
CREA.        2020/10/30 12:18                          :LAS Creation date {YYYY/MM/DD hh:mm}
SOURCE.     XPT_HRLA_TLD_MCFL_037LTP.DLIS              :DLIS File Name
FILE-ID.     XPT_HRLA_TLD_MCFL_037LTP                  :File Identification Number
#--------------------------------------------------
~WELL INFORMATION
#MNEM.UNIT      DATA             DESCRIPTION
#---- ------ --------------   -----------------------------
STRT .S        35745.0       :START TIME      
STOP .S        36558.0       :STOP TIME      
STEP .S            1.0       :STEP     
NULL .          -999.25      :NULL VALUE
COMP .        Nexus Energy                             :COMPANY
WELL .        Crux-3                                   :WELL
FLD  .        Crux                                     :FIELD
LOC  .        Easting: 656981.7mE                      :LOCATION
CNTY .        Sedco-703                                :COUNTY
STAT .        Northern Territory                       :STATE
CTRY .        Australia                                :COUNTRY
API  .                                                 :API NUMBER
UWI  .                                                 :UNIQUE WELL ID
DATE .        31-Dec-2007                              :LOG DATE {DD-MMM-YYYY}
SRVC .        Schlumberger                             :SERVICE COMPANY
LATI .DEG     12*57'32.63" S                           :LATITUDE
LONG .DEG     124*26'50.07" E                          :LONGITUDE
GDAT .                                                 :GeoDetic Datum
#-----------------------------------------------------------------------------
~PARAMETER INFORMATION
#MNEM.UNIT    VALUE                      DESCRIPTION
#---- -----   --------------------       ------------------------
RUN  .          1                        :RUN NUMBER
PDAT .        LAT                        :Permanent Datum
EPD  .M           0.000000               :Elevation of Permanent Datum above Mean Sea Level
EPD  .M           0.000000               :Elevation of tool zero above Mean Sea Level
LMF  .          DF                       :Logging Measured From (Name of Logging Elevation Reference)
APD  .M          26.400000               :Elevation of Depth Reference (LMF) above Permanent Datum
#-----------------------------------------------------------------------------
~CURVE INFORMATION
#MNEM.UNIT   API CODE                                  DESCRIPTION
#---- -----  --------                                  -----------------------
TIME .S                                                :TIME {F10.1}
TENS_SL.LBF                                            :Cable Tension {F13.4}
DEPT_SL..1IN                                           :Station logging depth {F13.4}
PDEP_XPT.M                                             :XPT Probe Depth {F13.4}
MTEP_SAP.DEGC                                          :Sapphire Gauge Manometer Temperature {F13.4}
MTEP_HYD.DEGC                                          :Hydrostatic Sapphire Gauge Manometer Temperature {F13.4}
PCO_HYD.PSI                                            :Hydrostatic Sapphire Dynamic Compensation {F13.4}
PND_HYD.PSI                                            :Hydrostatic Sapphire Pressure Without Dynamic Compensation {F13.4}
CP_HYD.PSI                                             :Hydrostatic Sapphire Pressure With Dynamic Compensation {F13.4}
MTEP_QG.DEGC                                           :CQG Manometer Temperature {F13.4}
PTNO_XPT.                                              :XPT Pretest Number {I11}
ETIM_XPT.S                                             :Elapsed Logging Time {F13.4}
PCO_SAP.PSI                                            :Sapphire Dynamic Compensation {F13.4}
PND_SAP.PSI                                            :Sapphire Pressure Without Dynamic Compensation {F13.4}
CP_SAP.PSI                                             :Sapphire Pressure With Dynamic Compensation {F13.4}
QNDP .PSI                                              :CQG Pressure Without Dynamic Compensation {F13.4}
QCP  .PSI                                              :CQG Pressure With Dynamic Compensation {F13.4}
QPCO .PSI                                              :CQG Dynamic Compensation {F13.4}
#-----------------------------------------------------------------------------
# 
#     TIME      TENS_SL      DEPT_SL      PDEP_XPT     MTEP_SAP     MTEP_HYD     PCO_HYD      PND_HYD       CP_HYD      MTEP_QG       PTNO_XPT       ETIM_XPT     PCO_SAP      PND_SAP       CP_SAP        QNDP         QCP          QPCO
#
~A  
# ...
   35850.0    4705.1560 1417595.0000    3599.0823     118.7151     119.2607      -0.0015    5862.5458    5862.5444     118.8133          0     104.7480      -0.0005    5860.8955    5860.8951    5857.8825    5858.1514       0.2689
   35851.0    4681.8440 1417595.0000    3599.0823     118.7148     119.2598       0.0017    5862.5107    5862.5122     118.8142          0     105.7480       0.0013    5860.8746    5860.8758    5857.8540    5858.1226       0.2684
   35852.0    4653.5440 1417595.0000    3599.0823     118.7145     119.2591       0.0046    5862.3805    5862.3853     118.8150          0     106.7480       0.0029    5860.8837    5860.8865    5857.8034    5858.0719       0.2684
   35853.0    4683.9040 1417595.0000    3599.0823     118.7153     119.2603       0.0069    5862.4512    5862.4581     118.8158          0     107.7480       0.0027    5860.8686    5860.8715    5857.8086    5858.0771       0.2684
   35854.0    4664.5840 1417595.0000    3599.0823     118.7157     119.2613       0.0076    5862.4827    5862.4903     118.8168          0     108.7480       0.0017    5860.9437    5860.9454    5857.8679    5858.1360       0.2681
   35855.0    4659.9840 1417595.0000    3599.0823     118.7160     119.2606       0.0047    5862.5642    5862.5688     118.8175          0     109.7480       0.0016    5860.8976    5860.8990    5857.8597    5858.1273       0.2677
   35856.0    4635.8200 1417595.0000    3599.0823     118.7159     119.2602      -0.0007    5862.5596    5862.5588     118.8186          0     110.7480       0.0020    5860.9301    5860.9320    5857.8588    5858.1264       0.2675
   35857.0    4613.5360 1417595.0000    3599.0823     118.7154     119.2613      -0.0044    5862.5998    5862.5954     118.8195          0     111.7480       0.0025    5860.9997    5861.0022    5857.9391    5858.2064       0.2673
   35858.0    4600.7720 1417595.0000    3599.0823     118.7168     119.2608      -0.0043    5862.6153    5862.6109     118.8203          0     112.7480       0.0030    5860.9674    5860.9704    5857.8996    5858.1663       0.2667
   35859.0    4667.5640 1417595.0000    3599.0823     118.7169     119.2597      -0.0026    5862.4859    5862.4832     118.8211          0     113.7480       0.0040    5860.9363    5860.9403    5857.8601    5858.1262       0.2659
   35860.0    4719.4240 1417595.0000    3599.0823     118.7161     119.2594      -0.0007    5862.4922    5862.4915     118.8221          0     114.7480       0.0052    5860.9470    5860.9522    5857.8520    5858.1174       0.2653
   35861.0    4731.9920 1417595.0000    3599.0823     118.7168     119.2600       0.0024    5862.4494    5862.4517     118.8230          0     115.7480       0.0063    5860.8598    5860.8662    5857.8259    5858.0906       0.2649
   35862.0    4721.7800 1417595.0000    3599.0823     118.7163     119.2612       0.0067    5862.4425    5862.4491     118.8238          0     116.7480       0.0071    5860.8433    5860.8502    5857.7642    5858.0283       0.2642
   35863.0    4707.5280 1417595.0000    3599.0823     118.7158     119.2600       0.0092    5862.4234    5862.4326     118.8247          0     117.7480       0.0063    5860.8263    5860.8326    5857.8031    5858.0663       0.2633
   35864.0    4671.8360 1417595.0000    3599.0823     118.7158     119.2609       0.0083    5862.5010    5862.5094     118.8256          0     118.7480       0.0043    5860.9095    5860.9140    5857.8558    5858.1185       0.2626
   35865.0    4646.0400 1417595.0000    3599.0823     118.7152     119.2606       0.0054    5862.5796    5862.5849     118.8265          0     119.7480       0.0018    5861.0009    5861.0028    5857.9514    5858.2136       0.2624
   35866.0    4622.3000 1417595.0000    3599.0823     118.7176     119.2611       0.0025    5862.6591    5862.6616     118.8271          0     120.7480       0.0002    5861.1093    5861.1096    5857.9496    5858.2118       0.2623
   35867.0    4627.9680 1417595.0000    3599.0823     118.7168     119.2609       0.0004    5862.6865    5862.6871     118.8280          0     121.7480      -0.0009    5861.1557    5861.1548    5858.1202    5858.3820       0.2620
   35868.0    4619.2840 1417595.0000    3599.0823     118.7159     119.2609      -0.0006    5862.6865    5862.6860     118.8291          0     122.7480      -0.0019    5861.1854    5861.1834    5858.0592    5858.3208       0.2615
   35869.0    4617.2440 1417595.0000    3599.0823     118.7174     119.2609       0.0000    5862.6865    5862.6865     118.8300          0     123.7480      -0.0015    5860.9600    5860.9585    5857.9664    5858.2271       0.2608
   35870.0    4631.4640 1417595.0000    3599.0823     118.7150     119.2608       0.0010    5862.6192    5862.6201     118.8308          0     124.7480       0.0000    5860.9333    5860.9332    5857.8730    5858.1333       0.2602
   35871.0    4656.9440 1417595.0000    3599.0823     118.7163     119.2615       0.0017    5862.5076    5862.5091     118.8315          0     125.7480       0.0032    5860.8624    5860.8655    5857.7828    5858.0420       0.2593
   35872.0    4704.3920 1417595.0000    3599.0823     118.7165     119.2617       0.0022    5862.3970    5862.3992     118.8325          0     126.7480       0.0072    5860.6982    5860.7055    5857.6820    5857.9398       0.2577
   35873.0    4732.2120 1417595.0000    3599.0823     118.7169     119.2602       0.0025    5862.2662    5862.2686     118.8333          0     127.7480       0.0096    5860.7386    5860.7483    5857.7434    5858.0003       0.2568
   35874.0    4740.7400 1417595.0000    3599.0823     118.7170     119.2624       0.0021    5862.5695    5862.5714     118.8340          0     128.7480       0.0110    5860.8344    5860.8456    5857.8133    5858.0692       0.2560
   35875.0    4678.4200 1417595.0000    3599.0823     118.7165     119.2605      -0.0006    5862.4449    5862.4444     118.8349          0     129.7480       0.0105    5860.9511    5860.9616    5857.8387    5858.0946       0.2558
   35876.0    4648.0240 1417595.0000    3599.0823     118.7174     119.2602      -0.0045    5862.4903    5862.4857     118.8356          0     130.7480       0.0093    5860.9930    5861.0024    5857.8980    5858.1534       0.2556
   35877.0    4629.2920 1417595.0000    3599.0823     118.7173     119.2617      -0.0071    5862.5895    5862.5826     118.8368          0     131.7480       0.0075    5861.1176    5861.1249    5858.0336    5858.2890       0.2553
   35878.0    4609.0400 1417595.0000    3599.0823     118.7173     119.2604      -0.0082    5862.6064    5862.5981     118.8376          0     132.7480       0.0055    5861.0470    5861.0526    5857.9724    5858.2272       0.2549
   35879.0    4613.7240 1417595.0000    3599.0823     118.7168     119.2616      -0.0092    5862.6010    5862.5918     118.8384          0     133.7480       0.0038    5860.9319    5860.9359    5857.9432    5858.1976       0.2544
   35880.0    4668.6120 1417595.0000    3599.0823     118.7169     119.2599      -0.0102    5862.5475    5862.5373     118.8393          0     134.7480       0.0029    5861.0593    5861.0623    5857.9694    5858.2233       0.2540
   35881.0    4693.4800 1417595.0000    3599.0823     118.7176     119.2613      -0.0086    5862.5430    5862.5342     118.8401          0     135.7480       0.0028    5860.9915    5860.9945    5857.8864    5858.1400       0.2536
   35882.0    4727.4160 1417595.0000    3599.0823     118.7177     119.2597      -0.0043    5862.3442    5862.3401     118.8411          0     136.7480       0.0026    5860.7731    5860.7756    5857.7272    5857.9806       0.2535
   35883.0    4741.7400 1417595.0000    3599.0823     118.7179     119.2600       0.0003    5862.2610    5862.2612     118.8416          0     137.7480       0.0019    5860.7570    5860.7589    5857.6652    5857.9186       0.2534
   35884.0    4698.8680 1417595.0000    3599.0823     118.7170     119.2598       0.0037    5862.3775    5862.3812     118.8426          0     138.7480       0.0006    5860.8515    5860.8519    5857.8343    5858.0878       0.2534
