~VERSION INFORMATION
VERS.           2.0   :CWLS Log ASCII Standard - VERSION 2.0
WRAP.           NO    :One Line per depth step
PROD.  Schlumberger   :LAS Producer
PROG.  DLIS to ASCII 2.2                               :LAS Program name and version
CREA.        2020/10/30 12:18                          :LAS Creation date {YYYY/MM/DD hh:mm}
SOURCE.     XPT_HRLA_TLD_MCFL_037LTP.DLIS              :DLIS File Name
FILE-ID.     XPT_HRLA_TLD_MCFL_037LTP                  :File Identification Number
#--------------------------------------------------
~WELL INFORMATION
#MNEM.UNIT      DATA             DESCRIPTION
#---- ------ --------------   -----------------------------
STRT .S        35745.0       :START TIME      
STOP .S        36558.0       :STOP TIME      
STEP .S            1.0       :STEP     
NULL .          -999.25      :NULL VALUE
COMP .        Nexus Energy                             :COMPANY
WELL .        Crux-3                                   :WELL
FLD  .        Crux                                     :FIELD
LOC  .        Easting: 656981.7mE                      :LOCATION
CNTY .        Sedco-703                                :COUNTY
STAT .        Northern Territory                       :STATE
CTRY .        Australia                                :COUNTRY
API  .                                                 :API NUMBER
UWI  .                                                 :UNIQUE WELL ID
DATE .        31-Dec-2007                              :LOG DATE {DD-MMM-YYYY}
SRVC .        Schlumberger                             :SERVICE COMPANY
LATI .DEG     12*57'32.63" S                           :LATITUDE
LONG .DEG     124*26'50.07" E                          :LONGITUDE
GDAT .                                                 :GeoDetic Datum
#-----------------------------------------------------------------------------
~PARAMETER INFORMATION
#MNEM.UNIT    VALUE                      DESCRIPTION
#---- -----   --------------------       ------------------------
RUN  .          1                        :RUN NUMBER
PDAT .        LAT                        :Permanent Datum
EPD  .M           0.000000               :Elevation of Permanent Datum above Mean Sea Level
EPD  .M           0.000000               :Elevation of tool zero above Mean Sea Level
LMF  .          DF                       :Logging Measured From (Name of Logging Elevation Reference)
APD  .M          26.400000               :Elevation of Depth Reference (LMF) above Permanent Datum
#-----------------------------------------------------------------------------
~CURVE INFORMATION
#MNEM.UNIT   API CODE                                  DESCRIPTION
#---- -----  --------                                  -----------------------
TIME .S                                                :TIME {F10.1}
TENS_SL.LBF                                            :Cable Tension {F13.4}
DEPT_SL..1IN                                           :Station logging depth {F13.4}
PDEP_XPT.M                                             :XPT Probe Depth {F13.4}
MTEP_SAP.DEGC                                          :Sapphire Gauge Manometer Temperature {F13.4}
MTEP_HYD.DEGC                                          :Hydrostatic Sapphire Gauge Manometer Temperature {F13.4}
PCO_HYD.PSI                                            :Hydrostatic Sapphire Dynamic Compensation {F13.4}
PND_HYD.PSI                                            :Hydrostatic Sapphire Pressure Without Dynamic Compensation {F13.4}
CP_HYD.PSI                                             :Hydrostatic Sapphire Pressure With Dynamic Compensation {F13.4}
MTEP_QG.DEGC                                           :CQG Manometer Temperature {F13.4}
PTNO_XPT.                                              :XPT Pretest Number {I11}
ETIM_XPT.S                                             :Elapsed Logging Time {F13.4}
PCO_SAP.PSI                                            :Sapphire Dynamic Compensation {F13.4}
PND_SAP.PSI                                            :Sapphire Pressure Without Dynamic Compensation {F13.4}
CP_SAP.PSI                                             :Sapphire Pressure With Dynamic Compensation {F13.4}
QNDP .PSI                                              :CQG Pressure Without Dynamic Compensation {F13.4}
QCP  .PSI                                              :CQG Pressure With Dynamic Compensation {F13.4}
QPCO .PSI                                              :CQG Dynamic Compensation {F13.4}
#-----------------------------------------------------------------------------
# 
#     TIME      TENS_SL      DEPT_SL      PDEP_XPT     MTEP_SAP     MTEP_HYD     PCO_HYD      PND_HYD       CP_HYD      MTEP_QG       PTNO_XPT       ETIM_XPT     PCO_SAP      PND_SAP       CP_SAP        QNDP         QCP          QPCO
#
~A  
# ...
   36515.0    4710.0640 1417595.0000    3599.0823     118.7877     119.3400       0.0170    5862.5783    5862.5955     119.2082          2     769.7480      -0.0029    5860.8024    5860.7994    5858.1862    5858.1964       0.0103
   36516.0    4674.3240 1417595.0000    3599.0823     118.7881     119.3412       0.0166    5862.4973    5862.5139     119.2080          2     770.7480      -0.0010    5860.8399    5860.8390    5858.2066    5858.2179       0.0114
   36517.0    4608.9000 1417595.0000    3599.0823     118.7893     119.3402       0.0170    5862.5455    5862.5626     119.2081          2     771.7480      -0.0004    5861.0330    5861.0325    5858.3456    5858.3580       0.0126
   36518.0    4585.5120 1417595.0000    3599.0823     118.7879     119.3403       0.0174    5862.6760    5862.6936     119.2083          2     772.7480      -0.0008    5860.9927    5860.9917    5858.3477    5858.3617       0.0139
   36519.0    4572.7800 1417595.0000    3599.0823     118.7895     119.3411       0.0172    5862.6838    5862.7009     119.2082          2     773.7480      -0.0015    5861.1056    5861.1041    5858.4054    5858.4202       0.0148
   36520.0    4590.6920 1417595.0000    3599.0823     118.7886     119.3410       0.0174    5862.8501    5862.8677     119.2084          2     774.7480      -0.0017    5861.2772    5861.2752    5858.5156    5858.5307       0.0150
   36521.0    4589.7720 1417595.0000    3599.0823     118.7884     119.3429       0.0179    5862.8608    5862.8787     119.2083          2     775.7480      -0.0017    5861.0529    5861.0510    5858.4471    5858.4623       0.0153
   36522.0    4648.3360 1417595.0000    3599.0823     118.7881     119.3414       0.0179    5862.7613    5862.7793     119.2084          2     776.7480      -0.0008    5860.9952    5860.9943    5858.3325    5858.3492       0.0166
   36523.0    4654.0400 1417595.0000    3599.0823     118.7891     119.3425       0.0165    5862.6590    5862.6754     119.2084          2     777.7480       0.0016    5860.8833    5860.8848    5858.2472    5858.2660       0.0189
   36524.0    4675.1800 1417595.0000    3599.0823     118.7878     119.3421       0.0143    5862.6641    5862.6784     119.2084          2     778.7480       0.0051    5860.8660    5860.8712    5858.1846    5858.2055       0.0208
   36525.0    4711.6760 1417595.0000    3599.0823     118.7900     119.3430       0.0117    5862.4463    5862.4579     119.2088          2     779.7480       0.0082    5860.6767    5860.6851    5858.0386    5858.0612       0.0227
   36526.0    4718.7560 1417595.0000    3599.0823     118.7903     119.3427       0.0092    5862.4971    5862.5064     119.2088          2     780.7480       0.0095    5860.8350    5860.8445    5858.1570    5858.1817       0.0246
   36527.0    4714.2600 1417595.0000    3599.0823     118.7884     119.3438       0.0071    5862.5936    5862.6005     119.2088          2     781.7480       0.0090    5860.9114    5860.9203    5858.2605    5858.2872       0.0265
   36528.0    4649.4200 1417595.0000    3599.0823     118.7888     119.3435       0.0057    5862.6303    5862.6361     119.2088          2     782.7480       0.0081    5860.8998    5860.9081    5858.2726    5858.3010       0.0285
   36529.0    4607.0560 1417595.0000    3599.0823     118.7899     119.3417       0.0059    5862.6362    5862.6423     119.2090          2     783.7480       0.0076    5860.9490    5860.9566    5858.3307    5858.3607       0.0301
   36530.0    4576.8120 1417595.0000    3599.0823     118.7888     119.3431       0.0085    5862.7341    5862.7427     119.2091          2     784.7480       0.0067    5861.0647    5861.0715    5858.4400    5858.4712       0.0312
   36531.0    4571.9920 1417595.0000    3599.0823     118.7883     119.3429       0.0131    5862.8711    5862.8840     119.2089          2     785.7480       0.0054    5861.1920    5861.1974    5858.5077    5858.5399       0.0320
   36532.0    4596.9360 1417595.0000    3599.0823     118.7895     119.3437       0.0171    5862.8193    5862.8364     119.2094          2     786.7480       0.0052    5861.1086    5861.1138    5858.4446    5858.4776       0.0330
   36533.0    4584.0560 1417595.0000    3599.0823     118.7896     119.3443       0.0190    5862.7662    5862.7852     119.2094          2     787.7480       0.0068    5861.0785    5861.0853    5858.4042    5858.4383       0.0342
   36534.0    4645.0680 1417595.0000    3599.0823     118.7912     119.3458       0.0189    5862.7235    5862.7425     119.2094          2     788.7480       0.0085    5861.0212    5861.0300    5858.3315    5858.3662       0.0349
   36535.0    4670.2440 1417595.0000    3599.0823     118.7889     119.3451       0.0181    5862.5972    5862.6152     119.2098          2     789.7480       0.0077    5860.8378    5860.8453    5858.2074    5858.2433       0.0359
   36536.0    4688.2040 1417595.0000    3599.0823     118.7896     119.3451       0.0167    5862.5872    5862.6039     119.2098          2     790.7480       0.0061    5860.8399    5860.8458    5858.1478    5858.1852       0.0373
   36537.0    4699.2360 1417595.0000    3599.0823     118.7896     119.3452       0.0150    5862.5287    5862.5437     119.2101          2     791.7480       0.0063    5860.7247    5860.7311    5858.0458    5858.0850       0.0391
   36538.0    4712.2200 1417595.0000    3599.0823     118.7923     119.3451       0.0144    5862.4780    5862.4924     119.2099          2     792.7480       0.0073    5860.8381    5860.8454    5858.1261    5858.1669       0.0408
   36539.0    4724.9760 1417595.0000    3599.0823     118.7889     119.3468       0.0153    5862.5877    5862.6028     119.2103          2     793.7480       0.0067    5860.8344    5860.8412    5858.2074    5858.2498       0.0423
   36540.0    4644.2240 1417595.0000    3599.0823     118.7912     119.3473       0.0163    5862.6241    5862.6403     119.2102          2     794.7480       0.0049    5860.9966    5861.0015    5858.2819    5858.3260       0.0440
   36541.0    4607.7720 1417595.0000    3599.0823     118.7902     119.3465       0.0160    5862.6704    5862.6863     119.2104          2     795.7480       0.0055    5861.0124    5861.0177    5858.3082    5858.3534       0.0453
   36542.0    4592.2840 1417595.0000    3599.0823     118.7915     119.3469       0.0137    5862.6314    5862.6452     119.2108          2     796.7480       0.0087    5861.0374    5861.0460    5858.3776    5858.4240       0.0463
   36543.0    4579.7720 1417595.0000    3599.0823     118.7918     119.3469       0.0103    5862.7940    5862.8041     119.2109          2     797.7480       0.0120    5861.1258    5861.1377    5858.4194    5858.4668       0.0473
   36544.0    4568.7720 1417595.0000    3599.0823     118.7914     119.3474       0.0064    5862.7999    5862.8062     119.2111          2     798.7480       0.0131    5861.0526    5861.0658    5858.3662    5858.4145       0.0483
   36545.0    4593.6760 1417595.0000    3599.0823     118.7926     119.3469       0.0033    5862.7340    5862.7371     119.2112          2     799.7480       0.0128    5860.9604    5860.9732    5858.3214    5858.3706       0.0492
   36546.0    4690.5160 1417595.0000    3599.0823     118.7917     119.3489       0.0022    5862.6958    5862.6978     119.2110          2     800.7480       0.0115    5860.9559    5860.9675    5858.3082    5858.3580       0.0497
   36547.0    4731.2200 1417595.0000    3599.0823     118.7932     119.3463       0.0037    5862.5796    5862.5832     119.2115          2     801.7480       0.0091    5860.9362    5860.9455    5858.2380    5858.2885       0.0506
   36548.0    4704.3320 1417595.0000    3599.0823     118.7924     119.3475       0.0071    5862.5026    5862.5098     119.2115          2     802.7480       0.0053    5860.8345    5860.8396    5858.1340    5858.1857       0.0517
   36549.0    4660.3400 1417595.0000    3599.0823     118.7922     119.3470       0.0110    5862.4474    5862.4584     119.2118          2     803.7480       0.0019    5860.7871    5860.7890    5858.1610    5858.2137       0.0526
