~VERSION INFORMATION
VERS.           2.0   :CWLS Log ASCII Standard - VERSION 2.0
WRAP.           NO    :One Line per depth step
PROD.  Schlumberger   :LAS Producer
PROG.  DLIS to ASCII 2.2                               :LAS Program name and version
CREA.        2020/10/30 12:18                          :LAS Creation date {YYYY/MM/DD hh:mm}
SOURCE.     XPT_HRLA_TLD_MCFL_046LTP.DLIS              :DLIS File Name
FILE-ID.     XPT_HRLA_TLD_MCFL_046LTP                  :File Identification Number
#--------------------------------------------------
~WELL INFORMATION
#MNEM.UNIT      DATA             DESCRIPTION
#---- ------ --------------   -----------------------------
STRT .S         4617.0       :START TIME      
STOP .S         5507.0       :STOP TIME      
STEP .S            1.0       :STEP     
NULL .          -999.25      :NULL VALUE
COMP .        Nexus Energy                             :COMPANY
WELL .        Crux-3                                   :WELL
FLD  .        Crux                                     :FIELD
LOC  .        Easting: 656981.7mE                      :LOCATION
CNTY .        Sedco-703                                :COUNTY
STAT .        Northern Territory                       :STATE
CTRY .        Australia                                :COUNTRY
API  .                                                 :API NUMBER
UWI  .                                                 :UNIQUE WELL ID
DATE .        31-Dec-2007                              :LOG DATE {DD-MMM-YYYY}
SRVC .        Schlumberger                             :SERVICE COMPANY
LATI .DEG     12*57'32.63" S                           :LATITUDE
LONG .DEG     124*26'50.07" E                          :LONGITUDE
GDAT .                                                 :GeoDetic Datum
#-----------------------------------------------------------------------------
~PARAMETER INFORMATION
#MNEM.UNIT    VALUE                      DESCRIPTION
#---- -----   --------------------       ------------------------
RUN  .          1                        :RUN NUMBER
PDAT .        LAT                        :Permanent Datum
EPD  .M           0.000000               :Elevation of Permanent Datum above Mean Sea Level
EPD  .M           0.000000               :Elevation of tool zero above Mean Sea Level
LMF  .          DF                       :Logging Measured From (Name of Logging Elevation Reference)
APD  .M          26.400000               :Elevation of Depth Reference (LMF) above Permanent Datum
#-----------------------------------------------------------------------------
~CURVE INFORMATION
#MNEM.UNIT   API CODE                                  DESCRIPTION
#---- -----  --------                                  -----------------------
TIME .S                                                :TIME {F10.1}
TENS_SL.LBF                                            :Cable Tension {F13.4}
DEPT_SL..1IN                                           :Station logging depth {F13.4}
PDEP_XPT.M                                             :XPT Probe Depth {F13.4}
MTEP_SAP.DEGC                                          :Sapphire Gauge Manometer Temperature {F13.4}
MTEP_HYD.DEGC                                          :Hydrostatic Sapphire Gauge Manometer Temperature {F13.4}
PCO_HYD.PSI                                            :Hydrostatic Sapphire Dynamic Compensation {F13.4}
PND_HYD.PSI                                            :Hydrostatic Sapphire Pressure Without Dynamic Compensation {F13.4}
CP_HYD.PSI                                             :Hydrostatic Sapphire Pressure With Dynamic Compensation {F13.4}
MTEP_QG.DEGC                                           :CQG Manometer Temperature {F13.4}
PTNO_XPT.                                              :XPT Pretest Number {I11}
ETIM_XPT.S                                             :Elapsed Logging Time {F13.4}
PCO_SAP.PSI                                            :Sapphire Dynamic Compensation {F13.4}
PND_SAP.PSI                                            :Sapphire Pressure Without Dynamic Compensation {F13.4}
CP_SAP.PSI                                             :Sapphire Pressure With Dynamic Compensation {F13.4}
QNDP .PSI                                              :CQG Pressure Without Dynamic Compensation {F13.4}
QCP  .PSI                                              :CQG Pressure With Dynamic Compensation {F13.4}
QPCO .PSI                                              :CQG Dynamic Compensation {F13.4}
#-----------------------------------------------------------------------------
# 
#     TIME      TENS_SL      DEPT_SL      PDEP_XPT     MTEP_SAP     MTEP_HYD     PCO_HYD      PND_HYD       CP_HYD      MTEP_QG       PTNO_XPT       ETIM_XPT     PCO_SAP      PND_SAP       CP_SAP        QNDP         QCP          QPCO
#
~A  
# ...
    5177.0    4816.2440 1443523.0000    3664.9392     121.8778     122.4405       0.0101    5967.6471    5967.6571     122.4876         10     559.6870       0.0115    5519.5296    5519.5410    5516.8352    5516.8596       0.0245
    5178.0    4812.4430 1443523.0000    3664.9392     121.8766     122.4415       0.0108    5967.6123    5967.6230     122.4879         10     560.6870       0.0085    5519.7244    5519.7328    5516.9401    5516.9650       0.0248
    5179.0    4812.4350 1443523.0000    3664.9392     121.8782     122.4405       0.0121    5967.6017    5967.6139     122.4880         10     561.6870       0.0036    5519.7785    5519.7820    5517.0511    5517.0760       0.0249
    5180.0    4824.9920 1443523.0000    3664.9392     121.8767     122.4403       0.0130    5967.5995    5967.6127     122.4881         10     562.6870       0.0001    5519.8536    5519.8537    5517.1540    5517.1794       0.0252
    5181.0    4801.8330 1443523.0000    3664.9392     121.8783     122.4400       0.0131    5967.5655    5967.5786     122.4884         10     563.6870       0.0009    5520.0144    5520.0153    5517.2630    5517.2889       0.0257
    5182.0    4741.5970 1443523.0000    3664.9392     121.8764     122.4420       0.0139    5967.6947    5967.7085     122.4880         10     564.6870       0.0048    5519.9975    5520.0023    5517.3683    5517.3942       0.0260
    5183.0    4720.0000 1443523.0000    3664.9392     121.8762     122.4425       0.0153    5967.7198    5967.7352     122.4882         10     565.6870       0.0085    5520.1221    5520.1305    5517.4658    5517.4917       0.0259
    5184.0    4722.7480 1443523.0000    3664.9392     121.8773     122.4419       0.0156    5967.7386    5967.7542     122.4883         10     566.6870       0.0103    5520.2198    5520.2301    5517.5658    5517.5912       0.0253
    5185.0    4699.9550 1443523.0000    3664.9392     121.8779     122.4424       0.0144    5967.8011    5967.8156     122.4882         10     567.6870       0.0094    5520.3506    5520.3601    5517.6773    5517.7023       0.0249
    5186.0    4697.9310 1443523.0000    3664.9392     121.8780     122.4409       0.0129    5967.6887    5967.7016     122.4884         10     568.6870       0.0068    5520.5533    5520.5600    5517.7672    5517.7921       0.0248
    5187.0    4774.8220 1443523.0000    3664.9392     121.8774     122.4430       0.0134    5967.7472    5967.7604     122.4885         10     569.6870       0.0044    5520.4861    5520.4906    5517.8614    5517.8868       0.0253
    5188.0    4803.1910 1443523.0000    3664.9392     121.8787     122.4437       0.0154    5967.6958    5967.7111     122.4887         10     570.6870       0.0042    5520.5995    5520.6035    5517.9626    5517.9885       0.0261
    5189.0    4805.8090 1443523.0000    3664.9392     121.8760     122.4439       0.0160    5967.6751    5967.6912     122.4888         10     571.6870       0.0058    5520.6879    5520.6936    5518.0518    5518.0781       0.0263
    5190.0    4823.8010 1443523.0000    3664.9392     121.8778     122.4437       0.0131    5967.5214    5967.5347     122.4886         10     572.6870       0.0076    5520.8998    5520.9076    5518.1421    5518.1680       0.0261
    5191.0    4833.7480 1443523.0000    3664.9392     121.8772     122.4437       0.0080    5967.5762    5967.5840     122.4890         10     573.6870       0.0081    5520.8711    5520.8792    5518.2441    5518.2704       0.0263
    5192.0    4788.9710 1443523.0000    3664.9392     121.8787     122.4451       0.0046    5967.7588    5967.7634     122.4889         10     574.6870       0.0064    5521.0370    5521.0436    5518.3328    5518.3591       0.0263
    5193.0    4727.4670 1443523.0000    3664.9392     121.8800     122.4445       0.0036    5967.6452    5967.6486     122.4890         10     575.6870       0.0034    5520.9918    5520.9953    5518.4277    5518.4536       0.0259
    5194.0    4707.6260 1443523.0000    3664.9392     121.8792     122.4436       0.0038    5967.6432    5967.6472     122.4892         10     576.6870       0.0007    5521.1020    5521.1028    5518.5096    5518.5354       0.0257
    5195.0    4692.5730 1443523.0000    3664.9392     121.8774     122.4434       0.0040    5967.7407    5967.7446     122.4891         10     577.6870       0.0002    5521.2724    5521.2727    5518.5985    5518.6244       0.0258
    5196.0    4684.6260 1443523.0000    3664.9392     121.8760     122.4445       0.0055    5967.7046    5967.7099     122.4890         10     578.6870       0.0028    5521.3114    5521.3142    5518.6758    5518.7021       0.0262
    5197.0    4687.4350 1443523.0000    3664.9392     121.8779     122.4439       0.0076    5967.7056    5967.7130     122.4892         10     579.6870       0.0077    5521.4468    5521.4545    5518.7637    5518.7896       0.0259
    5198.0    4735.7160 1443523.0000    3664.9392     121.8785     122.4451       0.0084    5967.8049    5967.8132     122.4894         10     580.6870       0.0129    5521.5239    5521.5367    5518.8422    5518.8676       0.0256
    5199.0    4798.2200 1443523.0000    3664.9392     121.8790     122.4445       0.0071    5967.5866    5967.5935     122.4896         10     581.6870       0.0152    5521.5970    5521.6121    5518.9313    5518.9567       0.0256
    5200.0    4842.4190 1443523.0000    3664.9392     121.8796     122.4453       0.0053    5967.7368    5967.7420     122.4897         10     582.6870       0.0135    5521.7257    5521.7391    5519.0105    5519.0363       0.0258
    5201.0    4845.0690 1443523.0000    3664.9392     121.8798     122.4437       0.0054    5967.5762    5967.5817     122.4896         10     583.6870       0.0094    5521.7386    5521.7480    5519.0831    5519.1090       0.0257
    5202.0    4806.6500 1443523.0000    3664.9392     121.8801     122.4445       0.0078    5967.6440    5967.6518     122.4898         10     584.6870       0.0055    5521.8803    5521.8858    5519.1591    5519.1850       0.0257
    5203.0    4747.0320 1443523.0000    3664.9392     121.8785     122.4445       0.0109    5967.6270    5967.6379     122.4899         10     585.6870       0.0038    5521.7941    5521.7980    5519.2443    5519.2703       0.0261
    5204.0    4697.4590 1443523.0000    3664.9392     121.8790     122.4450       0.0129    5967.6680    5967.6810     122.4901         10     586.6870       0.0039    5522.0140    5522.0179    5519.3175    5519.3446       0.0271
    5205.0    4700.4880 1443523.0000    3664.9392     121.8790     122.4453       0.0143    5967.6203    5967.6344     122.4900         10     587.6870       0.0056    5522.0210    5522.0264    5519.3959    5519.4237       0.0277
    5206.0    4734.7930 1443523.0000    3664.9392     121.8792     122.4467       0.0156    5967.7089    5967.7246     122.4902         10     588.6870       0.0078    5522.1856    5522.1932    5519.4756    5519.5029       0.0274
    5207.0    4786.1590 1443523.0000    3664.9392     121.8817     122.4468       0.0168    5967.7871    5967.8037     122.4903         10     589.6870       0.0106    5522.2276    5522.2382    5519.5490    5519.5759       0.0270
    5208.0    4830.7930 1443523.0000    3664.9392     121.8783     122.4457       0.0166    5967.7756    5967.7922     122.4903         10     590.6870       0.0129    5522.1947    5522.2073    5519.6167    5519.6436       0.0271
    5209.0    4840.2520 1443523.0000    3664.9392     121.8813     122.4463       0.0157    5967.6567    5967.6723     122.4903         10     591.6870       0.0135    5522.3715    5522.3850    5519.6935    5519.7209       0.0272
    5210.0    4832.1300 1443523.0000    3664.9392     121.8806     122.4471       0.0150    5967.6480    5967.6631     122.4904         10     592.6870       0.0119    5522.4823    5522.4942    5519.7639    5519.7912       0.0273
    5211.0    4795.3370 1443523.0000    3664.9392     121.8812     122.4475       0.0141    5967.6157    5967.6299     122.4905         10     593.6870       0.0091    5522.4533    5522.4626    5519.8390    5519.8663       0.0272
