~VERSION INFORMATION
VERS.           2.0   :CWLS Log ASCII Standard - VERSION 2.0
WRAP.           NO    :One Line per depth step
PROD.  Schlumberger   :LAS Producer
PROG.  DLIS to ASCII 2.2                               :LAS Program name and version
CREA.        2020/10/30 12:18                          :LAS Creation date {YYYY/MM/DD hh:mm}
SOURCE.     XPT_HRLA_TLD_MCFL_039LTP.DLIS              :DLIS File Name
FILE-ID.     XPT_HRLA_TLD_MCFL_039LTP                  :File Identification Number
#--------------------------------------------------
~WELL INFORMATION
#MNEM.UNIT      DATA             DESCRIPTION
#---- ------ --------------   -----------------------------
STRT .S          109.0       :START TIME      
STOP .S          613.0       :STOP TIME      
STEP .S            1.0       :STEP     
NULL .          -999.25      :NULL VALUE
COMP .        Nexus Energy                             :COMPANY
WELL .        Crux-3                                   :WELL
FLD  .        Crux                                     :FIELD
LOC  .        Easting: 656981.7mE                      :LOCATION
CNTY .        Sedco-703                                :COUNTY
STAT .        Northern Territory                       :STATE
CTRY .        Australia                                :COUNTRY
API  .                                                 :API NUMBER
UWI  .                                                 :UNIQUE WELL ID
DATE .        31-Dec-2007                              :LOG DATE {DD-MMM-YYYY}
SRVC .        Schlumberger                             :SERVICE COMPANY
LATI .DEG     12*57'32.63" S                           :LATITUDE
LONG .DEG     124*26'50.07" E                          :LONGITUDE
GDAT .                                                 :GeoDetic Datum
#-----------------------------------------------------------------------------
~PARAMETER INFORMATION
#MNEM.UNIT    VALUE                      DESCRIPTION
#---- -----   --------------------       ------------------------
RUN  .          1                        :RUN NUMBER
PDAT .        LAT                        :Permanent Datum
EPD  .M           0.000000               :Elevation of Permanent Datum above Mean Sea Level
EPD  .M           0.000000               :Elevation of tool zero above Mean Sea Level
LMF  .          DF                       :Logging Measured From (Name of Logging Elevation Reference)
APD  .M          26.400000               :Elevation of Depth Reference (LMF) above Permanent Datum
#-----------------------------------------------------------------------------
~CURVE INFORMATION
#MNEM.UNIT   API CODE                                  DESCRIPTION
#---- -----  --------                                  -----------------------
TIME .S                                                :TIME {F10.1}
TENS_SL.LBF                                            :Cable Tension {F13.4}
DEPT_SL..1IN                                           :Station logging depth {F13.4}
PDEP_XPT.M                                             :XPT Probe Depth {F13.4}
MTEP_SAP.DEGC                                          :Sapphire Gauge Manometer Temperature {F13.4}
MTEP_HYD.DEGC                                          :Hydrostatic Sapphire Gauge Manometer Temperature {F13.4}
PCO_HYD.PSI                                            :Hydrostatic Sapphire Dynamic Compensation {F13.4}
PND_HYD.PSI                                            :Hydrostatic Sapphire Pressure Without Dynamic Compensation {F13.4}
CP_HYD.PSI                                             :Hydrostatic Sapphire Pressure With Dynamic Compensation {F13.4}
MTEP_QG.DEGC                                           :CQG Manometer Temperature {F13.4}
PTNO_XPT.                                              :XPT Pretest Number {I11}
ETIM_XPT.S                                             :Elapsed Logging Time {F13.4}
PCO_SAP.PSI                                            :Sapphire Dynamic Compensation {F13.4}
PND_SAP.PSI                                            :Sapphire Pressure Without Dynamic Compensation {F13.4}
CP_SAP.PSI                                             :Sapphire Pressure With Dynamic Compensation {F13.4}
QNDP .PSI                                              :CQG Pressure Without Dynamic Compensation {F13.4}
QCP  .PSI                                              :CQG Pressure With Dynamic Compensation {F13.4}
QPCO .PSI                                              :CQG Dynamic Compensation {F13.4}
#-----------------------------------------------------------------------------
# 
#     TIME      TENS_SL      DEPT_SL      PDEP_XPT     MTEP_SAP     MTEP_HYD     PCO_HYD      PND_HYD       CP_HYD      MTEP_QG       PTNO_XPT       ETIM_XPT     PCO_SAP      PND_SAP       CP_SAP        QNDP         QCP          QPCO
#
~A  
# ...
     179.0    4788.0419 1418545.0000    3601.4951     118.9952     119.5383       0.0064    5866.5893    5866.5957     119.5300          2      70.2610       0.0078    5864.9199    5864.9277    5862.0909    5862.1542       0.0633
     180.0    4758.3428 1418545.0000    3601.4951     118.9945     119.5371       0.0068    5866.4704    5866.4772     119.5300          2      71.2610       0.0067    5864.8286    5864.8352    5862.1351    5862.1983       0.0631
     181.0    4714.7829 1418545.0000    3601.4951     118.9943     119.5374       0.0074    5866.5592    5866.5665     119.5300          2      72.2610       0.0058    5864.9319    5864.9378    5862.1573    5862.2203       0.0630
     182.0    4718.3048 1418545.0000    3601.4951     118.9951     119.5372       0.0072    5866.4835    5866.4908     119.5304          2      73.2610       0.0060    5864.9121    5864.9179    5862.1697    5862.2328       0.0632
     183.0    4713.6495 1418545.0000    3601.4951     118.9955     119.5377       0.0067    5866.6318    5866.6387     119.5304          2      74.2610       0.0068    5865.0106    5865.0174    5862.2548    5862.3183       0.0636
     184.0    4708.7886 1418545.0000    3601.4951     118.9952     119.5384       0.0067    5866.6026    5866.6094     119.5306          2      75.2610       0.0072    5864.9650    5864.9723    5862.2043    5862.2682       0.0639
     185.0    4762.2610 1418545.0000    3601.4951     118.9958     119.5387       0.0067    5866.6062    5866.6130     119.5311          2      76.2610       0.0068    5865.0054    5865.0122    5862.1604    5862.2244       0.0638
     186.0    4768.2191 1418545.0000    3601.4951     118.9953     119.5369       0.0062    5866.5235    5866.5298     119.5312          2      77.2610       0.0063    5864.8858    5864.8921    5862.1682    5862.2314       0.0633
     187.0    4787.9581 1418545.0000    3601.4951     118.9966     119.5380       0.0066    5866.5291    5866.5359     119.5314          2      78.2610       0.0064    5864.9190    5864.9253    5862.0807    5862.1436       0.0628
     188.0    4795.2152 1418545.0000    3601.4951     118.9950     119.5387       0.0087    5866.4033    5866.4122     119.5314          2      79.2610       0.0069    5864.7554    5864.7623    5862.0689    5862.1314       0.0627
     189.0    4767.1276 1418545.0000    3601.4951     118.9962     119.5380       0.0109    5866.5255    5866.5365     119.5319          2      80.2610       0.0076    5864.8828    5864.8904    5862.1797    5862.2427       0.0628
     190.0    4732.8666 1418545.0000    3601.4951     118.9956     119.5384       0.0117    5866.5779    5866.5896     119.5321          2      81.2610       0.0087    5864.8554    5864.8642    5862.1469    5862.2099       0.0629
     191.0    4704.3905 1418545.0000    3601.4951     118.9959     119.5399       0.0114    5866.5828    5866.5940     119.5320          2      82.2610       0.0100    5864.8996    5864.9094    5862.1069    5862.1700       0.0632
     192.0    4695.9562 1418545.0000    3601.4951     118.9970     119.5396       0.0110    5866.6012    5866.6122     119.5325          2      83.2610       0.0113    5864.9717    5864.9829    5862.2205    5862.2842       0.0638
     193.0    4707.3524 1418545.0000    3601.4951     118.9959     119.5385       0.0099    5866.6036    5866.6134     119.5326          2      84.2610       0.0114    5865.0213    5865.0326    5862.2172    5862.2812       0.0641
     194.0    4762.3524 1418545.0000    3601.4951     118.9975     119.5399       0.0081    5866.4995    5866.5077     119.5329          2      85.2610       0.0111    5864.8502    5864.8613    5862.1315    5862.1949       0.0634
     195.0    4802.4781 1418545.0000    3601.4951     118.9960     119.5392       0.0066    5866.4464    5866.4530     119.5332          2      86.2610       0.0114    5864.9130    5864.9245    5862.1437    5862.2060       0.0623
     196.0    4800.7390 1418545.0000    3601.4951     118.9972     119.5400       0.0059    5866.5601    5866.5660     119.5331          2      87.2610       0.0133    5864.8725    5864.8856    5862.1344    5862.1959       0.0615
     197.0    4801.5657 1418545.0000    3601.4951     118.9972     119.5399       0.0057    5866.4995    5866.5053     119.5333          2      88.2610       0.0160    5864.8237    5864.8399    5862.0839    5862.1455       0.0614
     198.0    4793.2133 1418545.0000    3601.4951     118.9971     119.5399       0.0051    5866.4995    5866.5046     119.5336          2      89.2610       0.0176    5864.8069    5864.8245    5862.0715    5862.1330       0.0616
     199.0    4738.4723 1418545.0000    3601.4951     118.9983     119.5386       0.0049    5866.4298    5866.4347     119.5339          2      90.2610       0.0182    5864.9708    5864.9889    5862.1675    5862.2295       0.0618
     200.0    4688.3486 1418545.0000    3601.4951     118.9996     119.5400       0.0060    5866.5539    5866.5599     119.5341          2      91.2610       0.0174    5864.9348    5864.9523    5862.1835    5862.2455       0.0620
     201.0    4705.4381 1418545.0000    3601.4951     118.9993     119.5398       0.0082    5866.5140    5866.5223     119.5345          2      92.2610       0.0150    5864.9444    5864.9595    5862.1874    5862.2497       0.0622
     202.0    4739.1753 1418545.0000    3601.4951     118.9992     119.5400       0.0103    5866.6154    5866.6256     119.5344          2      93.2610       0.0106    5865.1320    5865.1425    5862.2939    5862.3564       0.0624
     203.0    4748.6514 1418545.0000    3601.4951     118.9994     119.5405       0.0114    5866.6188    5866.6302     119.5345          2      94.2610       0.0069    5864.9801    5864.9868    5862.2290    5862.2911       0.0623
     204.0    4759.4839 1418545.0000    3601.4951     118.9989     119.5411       0.0118    5866.5711    5866.5828     119.5350          2      95.2610       0.0058    5864.9090    5864.9149    5862.1489    5862.2109       0.0622
     205.0    4796.7352 1418545.0000    3601.4951     118.9995     119.5412       0.0116    5866.4787    5866.4904     119.5352          2      96.2610       0.0068    5864.8348    5864.8416    5862.1162    5862.1787       0.0623
     206.0    4763.5657 1418545.0000    3601.4951     118.9968     119.5405       0.0099    5866.4941    5866.5042     119.5355          2      97.2610       0.0074    5864.7953    5864.8026    5862.1235    5862.1860       0.0624
     207.0    4776.0895 1418545.0000    3601.4951     119.0006     119.5429       0.0079    5866.4557    5866.4635     119.5356          2      98.2610       0.0066    5864.8087    5864.8153    5861.9804    5862.0429       0.0623
     208.0    4803.1753 1418545.0000    3601.4951     119.0007     119.5414       0.0062    5866.3965    5866.4028     119.5359          2      99.2610       0.0050    5864.7577    5864.7626    5862.0202    5862.0826       0.0623
     209.0    4799.8647 1418545.0000    3601.4951     119.0005     119.5422       0.0053    5866.4760    5866.4812     119.5357          2     100.2610       0.0033    5864.9252    5864.9285    5862.1709    5862.2334       0.0627
     210.0    4751.5200 1418545.0000    3601.4951     119.0000     119.5411       0.0048    5866.5757    5866.5805     119.5361          2     101.2610       0.0030    5864.9303    5864.9332    5862.1639    5862.2266       0.0627
     211.0    4723.2133 1418545.0000    3601.4951     118.9997     119.5421       0.0057    5866.4888    5866.4946     119.5364          2     102.2610       0.0044    5864.8563    5864.8606    5862.1753    5862.2374       0.0621
     212.0    4680.4762 1418545.0000    3601.4951     119.0005     119.5418       0.0085    5866.5901    5866.5986     119.5366          2     103.2610       0.0073    5864.8834    5864.8908    5862.2365    5862.2986       0.0619
     213.0    4663.0438 1418545.0000    3601.4951     118.9994     119.5414       0.0118    5866.6015    5866.6133     119.5368          2     104.2610       0.0106    5865.0111    5865.0219    5862.2724    5862.3351       0.0626
