~VERSION INFORMATION
VERS.           2.0   :CWLS Log ASCII Standard - VERSION 2.0
WRAP.           NO    :One Line per depth step
PROD.  Schlumberger   :LAS Producer
PROG.  DLIS to ASCII 2.2                               :LAS Program name and version
CREA.        2020/10/30 12:18                          :LAS Creation date {YYYY/MM/DD hh:mm}
SOURCE.     XPT_HRLA_TLD_MCFL_057LTP.DLIS              :DLIS File Name
FILE-ID.     XPT_HRLA_TLD_MCFL_057LTP                  :File Identification Number
#--------------------------------------------------
~WELL INFORMATION
#MNEM.UNIT      DATA             DESCRIPTION
#---- ------ --------------   -----------------------------
STRT .S         6912.0       :START TIME      
STOP .S         7441.0       :STOP TIME      
STEP .S            1.0       :STEP     
NULL .          -999.25      :NULL VALUE
COMP .        Nexus Energy                             :COMPANY
WELL .        Crux-3                                   :WELL
FLD  .        Crux                                     :FIELD
LOC  .        Easting: 656981.7mE                      :LOCATION
CNTY .        Sedco-703                                :COUNTY
STAT .        Northern Territory                       :STATE
CTRY .        Australia                                :COUNTRY
API  .                                                 :API NUMBER
UWI  .                                                 :UNIQUE WELL ID
DATE .        31-Dec-2007                              :LOG DATE {DD-MMM-YYYY}
SRVC .        Schlumberger                             :SERVICE COMPANY
LATI .DEG     12*57'32.63" S                           :LATITUDE
LONG .DEG     124*26'50.07" E                          :LONGITUDE
GDAT .                                                 :GeoDetic Datum
#-----------------------------------------------------------------------------
~PARAMETER INFORMATION
#MNEM.UNIT    VALUE                      DESCRIPTION
#---- -----   --------------------       ------------------------
RUN  .          1                        :RUN NUMBER
PDAT .        LAT                        :Permanent Datum
EPD  .M           0.000000               :Elevation of Permanent Datum above Mean Sea Level
EPD  .M           0.000000               :Elevation of tool zero above Mean Sea Level
LMF  .          DF                       :Logging Measured From (Name of Logging Elevation Reference)
APD  .M          26.400000               :Elevation of Depth Reference (LMF) above Permanent Datum
#-----------------------------------------------------------------------------
~CURVE INFORMATION
#MNEM.UNIT   API CODE                                  DESCRIPTION
#---- -----  --------                                  -----------------------
TIME .S                                                :TIME {F10.1}
TENS_SL.LBF                                            :Cable Tension {F13.4}
DEPT_SL..1IN                                           :Station logging depth {F13.4}
PDEP_XPT.M                                             :XPT Probe Depth {F13.4}
MTEP_SAP.DEGC                                          :Sapphire Gauge Manometer Temperature {F13.4}
MTEP_HYD.DEGC                                          :Hydrostatic Sapphire Gauge Manometer Temperature {F13.4}
PCO_HYD.PSI                                            :Hydrostatic Sapphire Dynamic Compensation {F13.4}
PND_HYD.PSI                                            :Hydrostatic Sapphire Pressure Without Dynamic Compensation {F13.4}
CP_HYD.PSI                                             :Hydrostatic Sapphire Pressure With Dynamic Compensation {F13.4}
MTEP_QG.DEGC                                           :CQG Manometer Temperature {F13.4}
PTNO_XPT.                                              :XPT Pretest Number {I11}
ETIM_XPT.S                                             :Elapsed Logging Time {F13.4}
PCO_SAP.PSI                                            :Sapphire Dynamic Compensation {F13.4}
PND_SAP.PSI                                            :Sapphire Pressure Without Dynamic Compensation {F13.4}
CP_SAP.PSI                                             :Sapphire Pressure With Dynamic Compensation {F13.4}
QNDP .PSI                                              :CQG Pressure Without Dynamic Compensation {F13.4}
QCP  .PSI                                              :CQG Pressure With Dynamic Compensation {F13.4}
QPCO .PSI                                              :CQG Dynamic Compensation {F13.4}
#-----------------------------------------------------------------------------
# 
#     TIME      TENS_SL      DEPT_SL      PDEP_XPT     MTEP_SAP     MTEP_HYD     PCO_HYD      PND_HYD       CP_HYD      MTEP_QG       PTNO_XPT       ETIM_XPT     PCO_SAP      PND_SAP       CP_SAP        QNDP         QCP          QPCO
#
~A  
# ...
    7262.0    4852.6850 1526236.0000    3875.0305     129.1013     129.6041      -0.0398    6300.8633    6300.8234     129.8836         20     350.0105      -0.0429    5600.8593    5600.8164    5598.9476    5598.7468      -0.2009
    7263.0    4823.1155 1526236.0000    3875.0305     129.1005     129.6035      -0.0420    6300.8377    6300.7957     129.8831         20     351.0105      -0.0421    5600.9537    5600.9117    5598.9564    5598.7553      -0.2011
    7264.0    4834.8715 1526236.0000    3875.0305     129.1012     129.6023      -0.0453    6300.9182    6300.8730     129.8824         20     352.0105      -0.0413    5600.8986    5600.8573    5598.9600    5598.7589      -0.2011
    7265.0    4917.7455 1526236.0000    3875.0305     129.1003     129.6020      -0.0474    6300.9804    6300.9332     129.8819         20     353.0105      -0.0410    5600.9221    5600.8810    5598.9640    5598.7637      -0.2003
    7266.0    4988.0210 1526236.0000    3875.0305     129.0986     129.5997      -0.0468    6300.8259    6300.7791     129.8810         20     354.0105      -0.0420    5600.8819    5600.8399    5598.9643    5598.7651      -0.1993
    7267.0    4990.2205 1526236.0000    3875.0305     129.0982     129.5998      -0.0434    6300.8373    6300.7939     129.8806         20     355.0105      -0.0436    5600.9065    5600.8628    5598.9628    5598.7636      -0.1991
    7268.0    5010.8425 1526236.0000    3875.0305     129.0965     129.5980      -0.0386    6300.7945    6300.7559     129.8799         20     356.0105      -0.0440    5600.8769    5600.8330    5598.9687    5598.7691      -0.1995
    7269.0    4995.6220 1526236.0000    3875.0305     129.0964     129.5985      -0.0351    6300.7217    6300.6865     129.8794         20     357.0105      -0.0425    5601.0078    5600.9653    5598.9712    5598.7715      -0.1998
    7270.0    4959.4120 1526236.0000    3875.0305     129.0962     129.5977      -0.0344    6300.8185    6300.7842     129.8787         20     358.0105      -0.0406    5600.9457    5600.9049    5598.9749    5598.7747      -0.2001
    7271.0    4903.5590 1526236.0000    3875.0305     129.0952     129.5975      -0.0362    6300.8925    6300.8562     129.8780         20     359.0105      -0.0401    5600.8596    5600.8196    5598.9778    5598.7773      -0.2005
    7272.0    4861.8110 1526236.0000    3875.0305     129.0949     129.5962      -0.0392    6300.9390    6300.8999     129.8772         20     360.0105      -0.0410    5600.9442    5600.9031    5598.9809    5598.7797      -0.2010
    7273.0    4843.9475 1526236.0000    3875.0305     129.0947     129.5967      -0.0420    6300.9031    6300.8612     129.8768         20     361.0105      -0.0427    5600.9202    5600.8776    5598.9863    5598.7851      -0.2013
    7274.0    4839.1785 1526236.0000    3875.0305     129.0925     129.5935      -0.0439    6300.9099    6300.8659     129.8761         20     362.0105      -0.0448    5600.9046    5600.8598    5598.9881    5598.7869      -0.2013
    7275.0    4856.6195 1526236.0000    3875.0305     129.0916     129.5947      -0.0433    6300.9233    6300.8799     129.8755         20     363.0105      -0.0470    5600.9684    5600.9215    5598.9908    5598.7901      -0.2009
    7276.0    4915.6510 1526236.0000    3875.0305     129.0915     129.5933      -0.0402    6300.9608    6300.9206     129.8747         20     364.0105      -0.0480    5600.8845    5600.8367    5598.9921    5598.7914      -0.2006
    7277.0    4977.1995 1526236.0000    3875.0305     129.0897     129.5918      -0.0369    6300.9425    6300.9056     129.8743         20     365.0105      -0.0472    5600.9012    5600.8541    5598.9929    5598.7917      -0.2010
    7278.0    4995.9160 1526236.0000    3875.0305     129.0886     129.5917      -0.0354    6300.8899    6300.8548     129.8734         20     366.0105      -0.0455    5600.8829    5600.8375    5598.9909    5598.7892      -0.2018
    7279.0    4987.5695 1526236.0000    3875.0305     129.0886     129.5908      -0.0359    6300.8276    6300.7918     129.8729         20     367.0105      -0.0445    5600.9125    5600.8680    5598.9954    5598.7929      -0.2023
    7280.0    4946.4330 1526236.0000    3875.0305     129.0870     129.5914      -0.0363    6300.8872    6300.8510     129.8722         20     368.0105      -0.0450    5600.9130    5600.8681    5598.9964    5598.7941      -0.2022
    7281.0    4892.6535 1526236.0000    3875.0305     129.0896     129.5909      -0.0363    6300.8815    6300.8454     129.8717         20     369.0105      -0.0461    5601.0115    5600.9655    5599.0042    5598.8020      -0.2020
    7282.0    4859.9895 1526236.0000    3875.0305     129.0864     129.5885      -0.0368    6300.8559    6300.8191     129.8713         20     370.0105      -0.0477    5600.9758    5600.9282    5599.0065    5598.8048      -0.2018
    7283.0    4859.4410 1526236.0000    3875.0305     129.0863     129.5886      -0.0382    6300.9175    6300.8791     129.8706         20     371.0105      -0.0496    5601.0094    5600.9597    5599.0078    5598.8066      -0.2011
    7284.0    4901.6195 1526236.0000    3875.0305     129.0844     129.5871      -0.0390    6300.8456    6300.8066     129.8700         20     372.0105      -0.0511    5600.8737    5600.8225    5599.0119    5598.8117      -0.2003
    7285.0    4960.4305 1526236.0000    3875.0305     129.0840     129.5871      -0.0387    6300.9614    6300.9229     129.8692         20     373.0105      -0.0512    5600.9589    5600.9078    5599.0107    5598.8105      -0.2003
    7286.0    5001.1155 1526236.0000    3875.0305     129.0818     129.5876      -0.0383    6300.9457    6300.9077     129.8688         20     374.0105      -0.0483    5600.9429    5600.8946    5599.0105    5598.8098      -0.2007
    7287.0    5011.8215 1526236.0000    3875.0305     129.0807     129.5848      -0.0385    6300.8765    6300.8379     129.8683         20     375.0105      -0.0428    5600.9903    5600.9474    5599.0074    5598.8067      -0.2009
    7288.0    4994.2755 1526236.0000    3875.0305     129.0817     129.5850      -0.0384    6300.8784    6300.8400     129.8673         20     376.0105      -0.0372    5600.9758    5600.9385    5599.0089    5598.8080      -0.2009
    7289.0    4925.2545 1526236.0000    3875.0305     129.0790     129.5845      -0.0365    6300.8950    6300.8585     129.8668         20     377.0105      -0.0345    5600.9055    5600.8709    5599.0161    5598.8149      -0.2010
    7290.0    4854.5065 1526236.0000    3875.0305     129.0777     129.5836      -0.0336    6300.8330    6300.7993     129.8661         20     378.0105      -0.0356    5600.9080    5600.8723    5599.0189    5598.8177      -0.2011
    7291.0    4807.7480 1526236.0000    3875.0305     129.0798     129.5833      -0.0314    6300.9048    6300.8732     129.8656         20     379.0105      -0.0377    5600.9631    5600.9253    5599.0201    5598.8194      -0.2009
    7292.0    4784.2520 1526236.0000    3875.0305     129.0790     129.5828      -0.0308    6300.9971    6300.9664     129.8649         20     380.0105      -0.0392    5600.9055    5600.8661    5599.0250    5598.8243      -0.2008
    7293.0    4808.9765 1526236.0000    3875.0305     129.0773     129.5822      -0.0319    6301.0081    6300.9763     129.8643         20     381.0105      -0.0407    5600.9800    5600.9394    5599.0272    5598.8261      -0.2011
    7294.0    4901.9135 1526236.0000    3875.0305     129.0770     129.5815      -0.0342    6301.0000    6300.9660     129.8637         20     382.0105      -0.0434    5600.9905    5600.9471    5599.0245    5598.8234      -0.2012
    7295.0    4988.0945 1526236.0000    3875.0305     129.0754     129.5814      -0.0370    6300.9615    6300.9245     129.8628         20     383.0105      -0.0462    5601.0125    5600.9663    5599.0247    5598.8236      -0.2012
    7296.0    4997.1470 1526236.0000    3875.0305     129.0760     129.5800      -0.0394    6300.8636    6300.8241     129.8623         20     384.0105      -0.0471    5600.9524    5600.9055    5599.0231    5598.8219      -0.2010
