~VERSION INFORMATION
VERS.           2.0   :CWLS Log ASCII Standard - VERSION 2.0
WRAP.           NO    :One Line per depth step
PROD.  Schlumberger   :LAS Producer
PROG.  DLIS to ASCII 2.2                               :LAS Program name and version
CREA.        2020/10/30 12:18                          :LAS Creation date {YYYY/MM/DD hh:mm}
SOURCE.     XPT_HRLA_TLD_MCFL_066LTP.DLIS              :DLIS File Name
FILE-ID.     XPT_HRLA_TLD_MCFL_066LTP                  :File Identification Number
#--------------------------------------------------
~WELL INFORMATION
#MNEM.UNIT      DATA             DESCRIPTION
#---- ------ --------------   -----------------------------
STRT .S         3575.0       :START TIME      
STOP .S         3949.0       :STOP TIME      
STEP .S            1.0       :STEP     
NULL .          -999.25      :NULL VALUE
COMP .        Nexus Energy                             :COMPANY
WELL .        Crux-3                                   :WELL
FLD  .        Crux                                     :FIELD
LOC  .        Easting: 656981.7mE                      :LOCATION
CNTY .        Sedco-703                                :COUNTY
STAT .        Northern Territory                       :STATE
CTRY .        Australia                                :COUNTRY
API  .                                                 :API NUMBER
UWI  .                                                 :UNIQUE WELL ID
DATE .        31-Dec-2007                              :LOG DATE {DD-MMM-YYYY}
SRVC .        Schlumberger                             :SERVICE COMPANY
LATI .DEG     12*57'32.63" S                           :LATITUDE
LONG .DEG     124*26'50.07" E                          :LONGITUDE
GDAT .                                                 :GeoDetic Datum
#-----------------------------------------------------------------------------
~PARAMETER INFORMATION
#MNEM.UNIT    VALUE                      DESCRIPTION
#---- -----   --------------------       ------------------------
RUN  .          1                        :RUN NUMBER
PDAT .        LAT                        :Permanent Datum
EPD  .M           0.000000               :Elevation of Permanent Datum above Mean Sea Level
EPD  .M           0.000000               :Elevation of tool zero above Mean Sea Level
LMF  .          DF                       :Logging Measured From (Name of Logging Elevation Reference)
APD  .M          26.400000               :Elevation of Depth Reference (LMF) above Permanent Datum
#-----------------------------------------------------------------------------
~CURVE INFORMATION
#MNEM.UNIT   API CODE                                  DESCRIPTION
#---- -----  --------                                  -----------------------
TIME .S                                                :TIME {F10.1}
TENS_SL.LBF                                            :Cable Tension {F13.4}
DEPT_SL..1IN                                           :Station logging depth {F13.4}
PDEP_XPT.M                                             :XPT Probe Depth {F13.4}
MTEP_SAP.DEGC                                          :Sapphire Gauge Manometer Temperature {F13.4}
MTEP_HYD.DEGC                                          :Hydrostatic Sapphire Gauge Manometer Temperature {F13.4}
PCO_HYD.PSI                                            :Hydrostatic Sapphire Dynamic Compensation {F13.4}
PND_HYD.PSI                                            :Hydrostatic Sapphire Pressure Without Dynamic Compensation {F13.4}
CP_HYD.PSI                                             :Hydrostatic Sapphire Pressure With Dynamic Compensation {F13.4}
MTEP_QG.DEGC                                           :CQG Manometer Temperature {F13.4}
PTNO_XPT.                                              :XPT Pretest Number {I11}
ETIM_XPT.S                                             :Elapsed Logging Time {F13.4}
PCO_SAP.PSI                                            :Sapphire Dynamic Compensation {F13.4}
PND_SAP.PSI                                            :Sapphire Pressure Without Dynamic Compensation {F13.4}
CP_SAP.PSI                                             :Sapphire Pressure With Dynamic Compensation {F13.4}
QNDP .PSI                                              :CQG Pressure Without Dynamic Compensation {F13.4}
QCP  .PSI                                              :CQG Pressure With Dynamic Compensation {F13.4}
QPCO .PSI                                              :CQG Dynamic Compensation {F13.4}
#-----------------------------------------------------------------------------
# 
#     TIME      TENS_SL      DEPT_SL      PDEP_XPT     MTEP_SAP     MTEP_HYD     PCO_HYD      PND_HYD       CP_HYD      MTEP_QG       PTNO_XPT       ETIM_XPT     PCO_SAP      PND_SAP       CP_SAP        QNDP         QCP          QPCO
#
~A  
# ...
    3715.0    5004.2040 1556924.0000    3952.9780     132.4363     133.0243       0.0034    6424.8453    6424.8489     132.3027         30     140.4710       0.1281    5695.2583    5695.3865    5691.8476    5692.3825       0.5346
    3716.0    4996.9700 1556924.0000    3952.9780     132.4398     133.0245       0.0051    6424.8465    6424.8516     132.3042         30     141.4710       0.1134    5695.2230    5695.3365    5691.8253    5692.4045       0.5792
    3717.0    5082.9840 1556924.0000    3952.9780     132.4400     133.0243       0.0064    6424.7227    6424.7290     132.3062         30     142.4710       0.1015    5695.1100    5695.2114    5691.7945    5692.4088       0.6141
    3718.0    5121.9860 1556924.0000    3952.9780     132.4428     133.0250       0.0067    6424.6094    6424.6162     132.3083         30     143.4710       0.0913    5695.2169    5695.3080    5691.7850    5692.4263       0.6412
    3719.0    5098.3480 1556924.0000    3952.9780     132.4430     133.0250       0.0063    6424.5401    6424.5464     132.3103         30     144.4710       0.0825    5695.2338    5695.3164    5691.7706    5692.4329       0.6623
    3720.0    5084.4640 1556924.0000    3952.9780     132.4459     133.0257       0.0057    6424.5012    6424.5071     132.3125         30     145.4710       0.0762    5695.2504    5695.3267    5691.7639    5692.4421       0.6781
    3721.0    5082.1230 1556924.0000    3952.9780     132.4463     133.0258       0.0060    6424.5877    6424.5937     132.3145         30     146.4710       0.0722    5695.1869    5695.2589    5691.7529    5692.4425       0.6899
    3722.0    5050.8490 1556924.0000    3952.9780     132.4472     133.0248       0.0080    6424.5894    6424.5973     132.3168         30     147.4710       0.0678    5695.1586    5695.2266    5691.7474    5692.4461       0.6988
    3723.0    5016.0070 1556924.0000    3952.9780     132.4494     133.0251       0.0106    6424.6766    6424.6873     132.3191         30     148.4710       0.0616    5695.1725    5695.2342    5691.7344    5692.4403       0.7058
    3724.0    5017.4640 1556924.0000    3952.9780     132.4506     133.0250       0.0115    6424.7078    6424.7195     132.3210         30     149.4710       0.0539    5695.2730    5695.3267    5691.7389    5692.4496       0.7107
    3725.0    5018.8910 1556924.0000    3952.9780     132.4507     133.0246       0.0107    6424.8691    6424.8798     132.3232         30     150.4710       0.0469    5695.3584    5695.4055    5691.7375    5692.4515       0.7139
    3726.0    5017.7540 1556924.0000    3952.9780     132.4527     133.0268       0.0095    6424.9320    6424.9414     132.3254         30     151.4710       0.0422    5695.2472    5695.2893    5691.7340    5692.4498       0.7157
    3727.0    4986.5730 1556924.0000    3952.9780     132.4527     133.0268       0.0083    6424.8239    6424.8321     132.3277         30     152.4710       0.0397    5695.1486    5695.1884    5691.7334    5692.4497       0.7162
    3728.0    5033.8820 1556924.0000    3952.9780     132.4514     133.0264       0.0067    6424.6371    6424.6437     132.3299         30     153.4710       0.0381    5695.1015    5695.1396    5691.7369    5692.4525       0.7155
    3729.0    5092.0440 1556924.0000    3952.9780     132.4523     133.0251       0.0058    6424.6104    6424.6163     132.3321         30     154.4710       0.0368    5695.2184    5695.2551    5691.7387    5692.4522       0.7136
    3730.0    5084.7750 1556924.0000    3952.9780     132.4555     133.0267       0.0076    6424.6831    6424.6906     132.3342         30     155.4710       0.0359    5695.2113    5695.2474    5691.7392    5692.4505       0.7114
    3731.0    5087.1670 1556924.0000    3952.9780     132.4551     133.0263       0.0113    6424.4325    6424.4438     132.3365         30     156.4710       0.0346    5695.2852    5695.3196    5691.7307    5692.4396       0.7090
    3732.0    5075.0000 1556924.0000    3952.9780     132.4565     133.0258       0.0136    6424.3755    6424.3891     132.3385         30     157.4710       0.0317    5695.2728    5695.3047    5691.7397    5692.4458       0.7060
    3733.0    5087.7170 1556924.0000    3952.9780     132.4557     133.0286       0.0133    6424.6533    6424.6663     132.3408         30     158.4710       0.0277    5695.2679    5695.2955    5691.7451    5692.4474       0.7023
    3734.0    5052.5450 1556924.0000    3952.9780     132.4570     133.0273       0.0113    6424.6948    6424.7060     132.3429         30     159.4710       0.0243    5695.2630    5695.2874    5691.7434    5692.4418       0.6982
    3735.0    4995.1160 1556924.0000    3952.9780     132.4565     133.0273       0.0086    6424.6345    6424.6429     132.3451         30     160.4710       0.0224    5695.1406    5695.1631    5691.7490    5692.4430       0.6940
    3736.0    4981.6960 1556924.0000    3952.9780     132.4574     133.0273       0.0056    6424.7044    6424.7100     132.3471         30     161.4710       0.0214    5695.1714    5695.1929    5691.7549    5692.4445       0.6896
    3737.0    4984.5430 1556924.0000    3952.9780     132.4584     133.0281       0.0035    6424.7985    6424.8021     132.3493         30     162.4710       0.0209    5695.1499    5695.1709    5691.7524    5692.4374       0.6850
    3738.0    5009.0650 1556924.0000    3952.9780     132.4587     133.0273       0.0029    6424.8772    6424.8802     132.3514         30     163.4710       0.0208    5695.2360    5695.2570    5691.7618    5692.4416       0.6800
    3739.0    4996.2760 1556924.0000    3952.9780     132.4570     133.0278       0.0036    6424.8635    6424.8671     132.3533         30     164.4710       0.0212    5695.0890    5695.1101    5691.7581    5692.4330       0.6748
    3740.0    5014.4480 1556924.0000    3952.9780     132.4598     133.0279       0.0050    6424.7439    6424.7491     132.3554         30     165.4710       0.0225    5695.2357    5695.2581    5691.7616    5692.4314       0.6698
    3741.0    5096.7960 1556924.0000    3952.9780     132.4591     133.0288       0.0069    6424.7153    6424.7221     132.3576         30     166.4710       0.0235    5695.1315    5695.1550    5691.7603    5692.4251       0.6649
    3742.0    5119.5730 1556924.0000    3952.9780     132.4594     133.0275       0.0092    6424.6362    6424.6456     132.3595         30     167.4710       0.0245    5695.1986    5695.2231    5691.7676    5692.4275       0.6601
    3743.0    5088.2250 1556924.0000    3952.9780     132.4603     133.0288       0.0112    6424.6769    6424.6882     132.3616         30     168.4710       0.0263    5695.2188    5695.2452    5691.7720    5692.4274       0.6553
    3744.0    5080.1810 1556924.0000    3952.9780     132.4626     133.0285       0.0126    6424.5585    6424.5712     132.3635         30     169.4710       0.0294    5695.2214    5695.2507    5691.7781    5692.4291       0.6512
    3745.0    5088.8260 1556924.0000    3952.9780     132.4620     133.0286       0.0138    6424.5700    6424.5838     132.3654         30     170.4710       0.0313    5695.2588    5695.2900    5691.7799    5692.4276       0.6478
    3746.0    5075.9860 1556924.0000    3952.9780     132.4614     133.0289       0.0152    6424.6866    6424.7018     132.3676         30     171.4710       0.0294    5695.1553    5695.1847    5691.7816    5692.4261       0.6445
    3747.0    5041.0440 1556924.0000    3952.9780     132.4625     133.0297       0.0161    6424.6239    6424.6400     132.3696         30     172.4710       0.0250    5695.2329    5695.2580    5691.7848    5692.4256       0.6409
    3748.0    4999.8630 1556924.0000    3952.9780     132.4644     133.0294       0.0152    6424.6424    6424.6574     132.3715         30     173.4710       0.0208    5695.2425    5695.2633    5691.7926    5692.4299       0.6373
    3749.0    4962.7540 1556924.0000    3952.9780     132.4634     133.0301       0.0134    6424.7339    6424.7473     132.3736         30     174.4710       0.0170    5695.2074    5695.2244    5691.7935    5692.4269       0.6336
