~VERSION INFORMATION
VERS.           2.0   :CWLS Log ASCII Standard - VERSION 2.0
WRAP.           NO    :One Line per depth step
PROD.  Schlumberger   :LAS Producer
PROG.  DLIS to ASCII 2.2                               :LAS Program name and version
CREA.        2020/10/30 12:18                          :LAS Creation date {YYYY/MM/DD hh:mm}
SOURCE.     XPT_HRLA_TLD_MCFL_068LTP.DLIS              :DLIS File Name
FILE-ID.     XPT_HRLA_TLD_MCFL_068LTP                  :File Identification Number
#--------------------------------------------------
~WELL INFORMATION
#MNEM.UNIT      DATA             DESCRIPTION
#---- ------ --------------   -----------------------------
STRT .S           82.0       :START TIME      
STOP .S          488.0       :STOP TIME      
STEP .S            1.0       :STEP     
NULL .          -999.25      :NULL VALUE
COMP .        Nexus Energy                             :COMPANY
WELL .        Crux-3                                   :WELL
FLD  .        Crux                                     :FIELD
LOC  .        Easting: 656981.7mE                      :LOCATION
CNTY .        Sedco-703                                :COUNTY
STAT .        Northern Territory                       :STATE
CTRY .        Australia                                :COUNTRY
API  .                                                 :API NUMBER
UWI  .                                                 :UNIQUE WELL ID
DATE .        31-Dec-2007                              :LOG DATE {DD-MMM-YYYY}
SRVC .        Schlumberger                             :SERVICE COMPANY
LATI .DEG     12*57'32.63" S                           :LATITUDE
LONG .DEG     124*26'50.07" E                          :LONGITUDE
GDAT .                                                 :GeoDetic Datum
#-----------------------------------------------------------------------------
~PARAMETER INFORMATION
#MNEM.UNIT    VALUE                      DESCRIPTION
#---- -----   --------------------       ------------------------
RUN  .          1                        :RUN NUMBER
PDAT .        LAT                        :Permanent Datum
EPD  .M           0.000000               :Elevation of Permanent Datum above Mean Sea Level
EPD  .M           0.000000               :Elevation of tool zero above Mean Sea Level
LMF  .          DF                       :Logging Measured From (Name of Logging Elevation Reference)
APD  .M          26.400000               :Elevation of Depth Reference (LMF) above Permanent Datum
#-----------------------------------------------------------------------------
~CURVE INFORMATION
#MNEM.UNIT   API CODE                                  DESCRIPTION
#---- -----  --------                                  -----------------------
TIME .S                                                :TIME {F10.1}
TENS_SL.LBF                                            :Cable Tension {F13.4}
DEPT_SL..1IN                                           :Station logging depth {F13.4}
PDEP_XPT.M                                             :XPT Probe Depth {F13.4}
MTEP_SAP.DEGC                                          :Sapphire Gauge Manometer Temperature {F13.4}
MTEP_HYD.DEGC                                          :Hydrostatic Sapphire Gauge Manometer Temperature {F13.4}
PCO_HYD.PSI                                            :Hydrostatic Sapphire Dynamic Compensation {F13.4}
PND_HYD.PSI                                            :Hydrostatic Sapphire Pressure Without Dynamic Compensation {F13.4}
CP_HYD.PSI                                             :Hydrostatic Sapphire Pressure With Dynamic Compensation {F13.4}
MTEP_QG.DEGC                                           :CQG Manometer Temperature {F13.4}
PTNO_XPT.                                              :XPT Pretest Number {I11}
ETIM_XPT.S                                             :Elapsed Logging Time {F13.4}
PCO_SAP.PSI                                            :Sapphire Dynamic Compensation {F13.4}
PND_SAP.PSI                                            :Sapphire Pressure Without Dynamic Compensation {F13.4}
CP_SAP.PSI                                             :Sapphire Pressure With Dynamic Compensation {F13.4}
QNDP .PSI                                              :CQG Pressure Without Dynamic Compensation {F13.4}
QCP  .PSI                                              :CQG Pressure With Dynamic Compensation {F13.4}
QPCO .PSI                                              :CQG Dynamic Compensation {F13.4}
#-----------------------------------------------------------------------------
# 
#     TIME      TENS_SL      DEPT_SL      PDEP_XPT     MTEP_SAP     MTEP_HYD     PCO_HYD      PND_HYD       CP_HYD      MTEP_QG       PTNO_XPT       ETIM_XPT     PCO_SAP      PND_SAP       CP_SAP        QNDP         QCP          QPCO
#
~A  
# ...
     362.0    5009.8367 1566781.0000    3978.0146     132.9702     133.6156       0.0410    6464.6500    6464.6910     133.3456         33     280.1413       0.0356    5730.8983    5730.9337    5727.9222    5728.2932       0.3709
     363.0    5022.4128 1566781.0000    3978.0146     132.9699     133.6157       0.0415    6464.5795    6464.6210     133.3466         33     281.1413       0.0331    5730.7457    5730.7789    5727.9207    5728.2914       0.3707
     364.0    5031.1413 1566781.0000    3978.0146     132.9720     133.6179       0.0422    6464.6670    6464.7092     133.3478         33     282.1413       0.0341    5730.7921    5730.8263    5727.9263    5728.2967       0.3702
     365.0    5032.5651 1566781.0000    3978.0146     132.9723     133.6180       0.0429    6464.6075    6464.6505     133.3489         33     283.1413       0.0385    5730.8238    5730.8621    5727.9269    5728.2960       0.3690
     366.0    5035.4349 1566781.0000    3978.0146     132.9715     133.6194       0.0427    6464.6170    6464.6595     133.3502         33     284.1413       0.0426    5730.7573    5730.7998    5727.9280    5728.2957       0.3677
     367.0    5028.6093 1566781.0000    3978.0146     132.9721     133.6210       0.0411    6464.6392    6464.6802     133.3511         33     285.1413       0.0439    5730.8467    5730.8906    5727.9304    5728.2973       0.3669
     368.0    5002.3488 1566781.0000    3978.0146     132.9739     133.6195       0.0384    6464.6230    6464.6613     133.3524         33     286.1413       0.0441    5730.7815    5730.8254    5727.9277    5728.2939       0.3661
     369.0    4964.8918 1566781.0000    3978.0146     132.9752     133.6217       0.0361    6464.5869    6464.6230     133.3534         33     287.1413       0.0447    5730.8196    5730.8641    5727.9312    5728.2969       0.3656
     370.0    4944.8697 1566781.0000    3978.0146     132.9761     133.6221       0.0362    6464.5585    6464.5949     133.3546         33     288.1413       0.0434    5730.9003    5730.9438    5727.9331    5728.2983       0.3652
     371.0    4938.8477 1566781.0000    3978.0146     132.9776     133.6226       0.0380    6464.6008    6464.6387     133.3557         33     289.1413       0.0398    5730.7581    5730.7979    5727.9352    5728.3004       0.3652
     372.0    4948.8036 1566781.0000    3978.0146     132.9767     133.6239       0.0397    6464.6597    6464.6993     133.3567         33     290.1413       0.0367    5730.7252    5730.7619    5727.9324    5728.2977       0.3654
     373.0    4982.9448 1566781.0000    3978.0146     132.9778     133.6232       0.0408    6464.6030    6464.6438     133.3580         33     291.1413       0.0370    5730.7674    5730.8043    5727.9370    5728.3022       0.3652
     374.0    5014.5541 1566781.0000    3978.0146     132.9782     133.6243       0.0422    6464.5787    6464.6210     133.3589         33     292.1413       0.0397    5730.7870    5730.8269    5727.9387    5728.3034       0.3647
     375.0    5018.9139 1566781.0000    3978.0146     132.9782     133.6263       0.0438    6464.6283    6464.6722     133.3601         33     293.1413       0.0416    5730.6959    5730.7374    5727.9344    5728.2977       0.3635
     376.0    4980.9359 1566781.0000    3978.0146     132.9798     133.6263       0.0438    6464.6080    6464.6517     133.3614         33     294.1413       0.0421    5730.8847    5730.9267    5727.9389    5728.3009       0.3619
     377.0    4933.4790 1566781.0000    3978.0146     132.9801     133.6274       0.0421    6464.6000    6464.6421     133.3625         33     295.1413       0.0412    5730.7722    5730.8133    5727.9442    5728.3042       0.3601
     378.0    4907.2715 1566781.0000    3978.0146     132.9802     133.6276       0.0398    6464.5899    6464.6299     133.3634         33     296.1413       0.0398    5730.8527    5730.8927    5727.9458    5728.3041       0.3584
     379.0    4921.9228 1566781.0000    3978.0146     132.9819     133.6293       0.0383    6464.6409    6464.6793     133.3645         33     297.1413       0.0391    5730.7953    5730.8344    5727.9428    5728.3002       0.3573
     380.0    4976.1502 1566781.0000    3978.0146     132.9818     133.6286       0.0380    6464.6493    6464.6874     133.3657         33     298.1413       0.0399    5730.7101    5730.7501    5727.9471    5728.3036       0.3566
     381.0    5047.8808 1566781.0000    3978.0146     132.9811     133.6301       0.0389    6464.6172    6464.6559     133.3666         33     299.1413       0.0425    5730.7497    5730.7923    5727.9443    5728.3006       0.3562
     382.0    5038.6733 1566781.0000    3978.0146     132.9837     133.6312       0.0413    6464.6007    6464.6419     133.3677         33     300.1413       0.0458    5730.8160    5730.8618    5727.9445    5728.3005       0.3561
     383.0    5062.4128 1566781.0000    3978.0146     132.9868     133.6309       0.0435    6464.5610    6464.6044     133.3689         33     301.1413       0.0491    5730.7528    5730.8020    5727.9479    5728.3044       0.3566
     384.0    5058.2847 1566781.0000    3978.0146     132.9871     133.6316       0.0445    6464.4512    6464.4956     133.3700         33     302.1413       0.0512    5730.7990    5730.8502    5727.9478    5728.3047       0.3571
     385.0    4971.9580 1566781.0000    3978.0146     132.9868     133.6331       0.0448    6464.4840    6464.5290     133.3709         33     303.1413       0.0504    5730.7337    5730.7840    5727.9481    5728.3048       0.3566
     386.0    4917.7064 1566781.0000    3978.0146     132.9880     133.6348       0.0446    6464.6195    6464.6641     133.3721         33     304.1413       0.0469    5730.8332    5730.8802    5727.9478    5728.3038       0.3558
     387.0    4917.0552 1566781.0000    3978.0146     132.9888     133.6340       0.0431    6464.6859    6464.7293     133.3734         33     305.1413       0.0429    5730.6750    5730.7179    5727.9549    5728.3103       0.3553
     388.0    4899.4327 1566781.0000    3978.0146     132.9887     133.6359       0.0406    6464.7885    6464.8291     133.3742         33     306.1413       0.0408    5730.7540    5730.7948    5727.9529    5728.3079       0.3552
     389.0    4975.0000 1566781.0000    3978.0146     132.9902     133.6361       0.0390    6464.7307    6464.7697     133.3753         33     307.1413       0.0398    5730.8856    5730.9253    5727.9558    5728.3107       0.3548
     390.0    4983.9007 1566781.0000    3978.0146     132.9914     133.6370       0.0394    6464.7524    6464.7920     133.3766         33     308.1413       0.0387    5730.8411    5730.8796    5727.9549    5728.3088       0.3539
     391.0    5045.7705 1566781.0000    3978.0146     132.9907     133.6370       0.0401    6464.6309    6464.6709     133.3774         33     309.1413       0.0373    5730.7242    5730.7616    5727.9525    5728.3051       0.3527
     392.0    5089.1854 1566781.0000    3978.0146     132.9930     133.6383       0.0393    6464.5361    6464.5753     133.3785         33     310.1413       0.0372    5730.7883    5730.8255    5727.9543    5728.3064       0.3519
     393.0    5064.8697 1566781.0000    3978.0146     132.9930     133.6394       0.0382    6464.5395    6464.5776     133.3797         33     311.1413       0.0389    5730.7511    5730.7901    5727.9498    5728.3014       0.3515
     394.0    5049.9470 1566781.0000    3978.0146     132.9926     133.6400       0.0388    6464.5425    6464.5813     133.3808         33     312.1413       0.0400    5730.8187    5730.8588    5727.9561    5728.3074       0.3513
     395.0    4998.7395 1566781.0000    3978.0146     132.9930     133.6407       0.0407    6464.5986    6464.6394     133.3819         33     313.1413       0.0399    5730.8334    5730.8734    5727.9589    5728.3095       0.3505
     396.0    4984.4349 1566781.0000    3978.0146     132.9948     133.6401       0.0421    6464.4868    6464.5288     133.3830         33     314.1413       0.0393    5730.8630    5730.9025    5727.9610    5728.3106       0.3498
