~VERSION INFORMATION
VERS.           2.0   :CWLS Log ASCII Standard - VERSION 2.0
WRAP.           NO    :One Line per depth step
PROD.  Schlumberger   :LAS Producer
PROG.  DLIS to ASCII 2.2                               :LAS Program name and version
CREA.        2020/10/30 12:18                          :LAS Creation date {YYYY/MM/DD hh:mm}
SOURCE.     XPT_HRLA_TLD_MCFL_069LTP.DLIS              :DLIS File Name
FILE-ID.     XPT_HRLA_TLD_MCFL_069LTP                  :File Identification Number
#--------------------------------------------------
~WELL INFORMATION
#MNEM.UNIT      DATA             DESCRIPTION
#---- ------ --------------   -----------------------------
STRT .S         1113.0       :START TIME      
STOP .S         1454.0       :STOP TIME      
STEP .S            1.0       :STEP     
NULL .          -999.25      :NULL VALUE
COMP .        Nexus Energy                             :COMPANY
WELL .        Crux-3                                   :WELL
FLD  .        Crux                                     :FIELD
LOC  .        Easting: 656981.7mE                      :LOCATION
CNTY .        Sedco-703                                :COUNTY
STAT .        Northern Territory                       :STATE
CTRY .        Australia                                :COUNTRY
API  .                                                 :API NUMBER
UWI  .                                                 :UNIQUE WELL ID
DATE .        31-Dec-2007                              :LOG DATE {DD-MMM-YYYY}
SRVC .        Schlumberger                             :SERVICE COMPANY
LATI .DEG     12*57'32.63" S                           :LATITUDE
LONG .DEG     124*26'50.07" E                          :LONGITUDE
GDAT .                                                 :GeoDetic Datum
#-----------------------------------------------------------------------------
~PARAMETER INFORMATION
#MNEM.UNIT    VALUE                      DESCRIPTION
#---- -----   --------------------       ------------------------
RUN  .          1                        :RUN NUMBER
PDAT .        LAT                        :Permanent Datum
EPD  .M           0.000000               :Elevation of Permanent Datum above Mean Sea Level
EPD  .M           0.000000               :Elevation of tool zero above Mean Sea Level
LMF  .          DF                       :Logging Measured From (Name of Logging Elevation Reference)
APD  .M          26.400000               :Elevation of Depth Reference (LMF) above Permanent Datum
#-----------------------------------------------------------------------------
~CURVE INFORMATION
#MNEM.UNIT   API CODE                                  DESCRIPTION
#---- -----  --------                                  -----------------------
TIME .S                                                :TIME {F10.1}
TENS_SL.LBF                                            :Cable Tension {F13.4}
DEPT_SL..1IN                                           :Station logging depth {F13.4}
PDEP_XPT.M                                             :XPT Probe Depth {F13.4}
MTEP_SAP.DEGC                                          :Sapphire Gauge Manometer Temperature {F13.4}
MTEP_HYD.DEGC                                          :Hydrostatic Sapphire Gauge Manometer Temperature {F13.4}
PCO_HYD.PSI                                            :Hydrostatic Sapphire Dynamic Compensation {F13.4}
PND_HYD.PSI                                            :Hydrostatic Sapphire Pressure Without Dynamic Compensation {F13.4}
CP_HYD.PSI                                             :Hydrostatic Sapphire Pressure With Dynamic Compensation {F13.4}
MTEP_QG.DEGC                                           :CQG Manometer Temperature {F13.4}
PTNO_XPT.                                              :XPT Pretest Number {I11}
ETIM_XPT.S                                             :Elapsed Logging Time {F13.4}
PCO_SAP.PSI                                            :Sapphire Dynamic Compensation {F13.4}
PND_SAP.PSI                                            :Sapphire Pressure Without Dynamic Compensation {F13.4}
CP_SAP.PSI                                             :Sapphire Pressure With Dynamic Compensation {F13.4}
QNDP .PSI                                              :CQG Pressure Without Dynamic Compensation {F13.4}
QCP  .PSI                                              :CQG Pressure With Dynamic Compensation {F13.4}
QPCO .PSI                                              :CQG Dynamic Compensation {F13.4}
#-----------------------------------------------------------------------------
# 
#     TIME      TENS_SL      DEPT_SL      PDEP_XPT     MTEP_SAP     MTEP_HYD     PCO_HYD      PND_HYD       CP_HYD      MTEP_QG       PTNO_XPT       ETIM_XPT     PCO_SAP      PND_SAP       CP_SAP        QNDP         QCP          QPCO
#
~A  
# ...
    1218.0    4976.0709 1534897.0000    3897.0293     132.9456     133.2529      -0.1606    6336.1928    6336.0324     133.6287         33     104.8951      -0.1538    6295.0960    6294.9422    6293.9805    6293.4439      -0.5368
    1219.0    5000.6928 1534897.0000    3897.0293     132.9423     133.2498      -0.1621    6336.2028    6336.0407     133.6270         33     105.8951      -0.1992    6294.2718    6294.0725    6293.2754    6292.6263      -0.6493
    1220.0    5013.7415 1534897.0000    3897.0293     132.9403     133.2472      -0.1610    6336.1140    6335.9530     133.6253         33     106.8951      -0.3463    6294.1899    6293.8437    6293.0514    6292.1115      -0.9398
    1221.0    5028.4269 1534897.0000    3897.0293     132.9388     133.2427      -0.1586    6336.0667    6335.9081     133.6237         33     107.8951      -0.5468    6294.0533    6293.5067    6292.8540    6291.5545      -1.2995
    1222.0    5031.7903 1534897.0000    3897.0293     132.9352     133.2407      -0.1562    6336.1038    6335.9475     133.6221         33     108.8951      -0.6557    6293.9265    6293.2710    6292.6372    6291.1397      -1.4977
    1223.0    5037.3708 1534897.0000    3897.0293     132.9330     133.2366      -0.1550    6336.0153    6335.8605     133.6205         33     109.8951      -0.6054    6293.4843    6292.8788    6292.3167    6290.8215      -1.4952
    1224.0    5046.0561 1534897.0000    3897.0293     132.8920     133.2358      -0.1552    6336.0749    6335.9196     133.6060         34     110.8951      -0.5132    6009.9008    6009.3875    6014.0902    6012.5718      -1.5183
    1225.0    5043.4195 1534897.0000    3897.0293     132.8009     133.2330      -0.1564    6336.0242    6335.8679     133.5795         34     111.8951      -0.4867    5515.6202    5515.1333    5524.9627    5523.2825      -1.6802
    1226.0    5008.9852 1534897.0000    3897.0293     132.8807     133.2290      -0.1574    6336.0084    6335.8512     133.6024         34     112.8951      -0.4619    6110.9862    6110.5243    6111.6601    6109.8686      -1.7913
    1227.0    4949.5022 1534897.0000    3897.0293     132.9255     133.2277      -0.1570    6336.0672    6335.9103     133.6081         34     113.8951      -0.3627    6316.9293    6316.5668    6312.7349    6311.0050      -1.7298
    1228.0    4895.5584 1534897.0000    3897.0293     132.8868     133.2231      -0.1556    6335.9796    6335.8239     133.5907         34     114.8951      -0.2748    6002.6966    6002.4219    6003.8570    6002.1690      -1.6878
    1229.0    4848.8242 1534897.0000    3897.0293     132.8432     133.2200      -0.1533    6336.0540    6335.9008     133.5761         34     115.8951      -0.2923    5777.2923    5776.9998    5780.2278    5778.4213      -1.8066
    1230.0    4829.6780 1534897.0000    3897.0293     132.8392     133.2178      -0.1497    6336.1437    6335.9939     133.5727         34     116.8951      -0.3308    5788.2910    5787.9602    5790.7912    5788.8749      -1.9165
    1231.0    4829.7903 1534897.0000    3897.0293     132.8364     133.2170      -0.1470    6336.1575    6336.0105     133.5687         34     117.8951      -0.2557    5797.8467    5797.5912    5799.6915    5797.8800      -1.8117
    1232.0    4875.6514 1534897.0000    3897.0293     132.8425     133.2115      -0.1483    6336.1588    6336.0105     133.5647         34     118.8951      -0.0791    5804.7412    5804.6620    5805.9556    5804.4049      -1.5507
    1233.0    4973.1979 1534897.0000    3897.0293     132.8457     133.2109      -0.1534    6336.2129    6336.0593     133.5603         34     119.8951       0.0711    5810.8460    5810.9169    5811.4696    5810.1342      -1.3355
    1234.0    5056.5051 1534897.0000    3897.0293     132.8487     133.2086      -0.1586    6336.1878    6336.0292     133.5561         34     120.8951       0.1337    5816.0446    5816.1783    5816.0394    5814.8173      -1.2223
    1235.0    5015.7681 1534897.0000    3897.0293     132.8519     133.2039      -0.1610    6336.0167    6335.8556     133.5524         34     121.8951       0.1353    5819.6642    5819.7996    5819.4212    5818.2750      -1.1463
    1236.0    5027.0074 1534897.0000    3897.0293     132.8547     133.2018      -0.1620    6335.9941    6335.8322     133.5490         34     122.8951       0.1153    5823.1203    5823.2356    5822.5587    5821.4976      -1.0613
    1237.0    5028.1049 1534897.0000    3897.0293     132.8561     133.1987      -0.1630    6335.8398    6335.6767     133.5462         34     123.8951       0.0826    5826.0775    5826.1602    5825.2382    5824.2954      -0.9428
    1238.0    4981.4535 1534897.0000    3897.0293     132.8571     133.1941      -0.1630    6335.9126    6335.7495     133.5434         34     124.8951       0.0664    5828.1845    5828.2509    5827.2476    5826.3675      -0.8803
    1239.0    4917.8169 1534897.0000    3897.0293     132.8595     133.1934      -0.1620    6336.1065    6335.9447     133.5408         34     125.8951       0.0459    5830.2502    5830.2962    5829.1268    5828.3287      -0.7981
    1240.0    4949.4904 1534897.0000    3897.0293     132.8609     133.1892      -0.1603    6336.1323    6335.9722     133.5382         34     126.8951       0.0221    5832.0001    5832.0223    5830.7758    5830.0710      -0.7048
    1241.0    4882.3900 1534897.0000    3897.0293     132.8598     133.1876      -0.1594    6336.1718    6336.0123     133.5367         34     127.8951       0.0098    5833.3125    5833.3222    5832.0399    5831.3796      -0.6603
    1242.0    4929.4978 1534897.0000    3897.0293     132.8606     133.1830      -0.1574    6336.1770    6336.0196     133.5347         34     128.8951      -0.0067    5834.6516    5834.6450    5833.2144    5832.6098      -0.6046
    1243.0    4916.3072 1534897.0000    3897.0293     132.8604     133.1808      -0.1544    6336.1335    6335.9792     133.5331         34     129.8951      -0.0213    5835.7211    5835.6997    5834.2230    5833.6656      -0.5574
    1244.0    4859.3974 1534897.0000    3897.0293     132.8599     133.1776      -0.1509    6336.1617    6336.0107     133.5315         34     130.8951      -0.0340    5836.4433    5836.4093    5834.9572    5834.4401      -0.5173
    1245.0    4874.4830 1534897.0000    3897.0293     132.8587     133.1753      -0.1487    6336.1583    6336.0097     133.5298         34     131.8951      -0.0460    5837.1312    5837.0851    5835.6311    5835.1474      -0.4837
    1246.0    4955.7710 1534897.0000    3897.0293     132.8568     133.1732      -0.1478    6336.0543    6335.9063     133.5284         34     132.8951      -0.0565    5837.8069    5837.7503    5836.2220    5835.7663      -0.4558
    1247.0    5033.9246 1534897.0000    3897.0293     132.8561     133.1708      -0.1483    6336.1298    6335.9814     133.5270         34     133.8951      -0.0644    5838.2734    5838.2090    5836.6526    5836.2194      -0.4334
    1248.0    5037.5244 1534897.0000    3897.0293     132.8547     133.1672      -0.1500    6336.0109    6335.8608     133.5259         34     134.8951      -0.0699    5838.6377    5838.5679    5837.0453    5836.6300      -0.4152
    1249.0    5037.8951 1534897.0000    3897.0293     132.8531     133.1644      -0.1515    6335.8411    6335.6897     133.5244         34     135.8951      -0.0755    5839.0173    5838.9416    5837.3593    5836.9584      -0.4007
    1250.0    5030.8390 1534897.0000    3897.0293     132.8524     133.1619      -0.1518    6335.8512    6335.6993     133.5235         34     136.8951      -0.0832    5839.2718    5839.1885    5837.5796    5837.1894      -0.3900
    1251.0    5003.1462 1534897.0000    3897.0293     132.8498     133.1591      -0.1508    6336.0028    6335.8519     133.5222         34     137.8951      -0.0922    5839.3529    5839.2606    5837.7579    5837.3757      -0.3823
    1252.0    4925.7046 1534897.0000    3897.0293     132.8498     133.1553      -0.1497    6336.0446    6335.8947     133.5210         34     138.8951      -0.1004    5839.5328    5839.4323    5837.8867    5837.5093      -0.3772
