~VERSION INFORMATION
VERS.           2.0   :CWLS Log ASCII Standard - VERSION 2.0
WRAP.           NO    :One Line per depth step
PROD.  Schlumberger   :LAS Producer
PROG.  DLIS to ASCII 2.2                               :LAS Program name and version
CREA.        2020/10/30 12:18                          :LAS Creation date {YYYY/MM/DD hh:mm}
SOURCE.     XPT_HRLA_TLD_MCFL_045LTP.DLIS              :DLIS File Name
FILE-ID.     XPT_HRLA_TLD_MCFL_045LTP                  :File Identification Number
#--------------------------------------------------
~WELL INFORMATION
#MNEM.UNIT      DATA             DESCRIPTION
#---- ------ --------------   -----------------------------
STRT .S         3688.0       :START TIME      
STOP .S         4251.0       :STOP TIME      
STEP .S            1.0       :STEP     
NULL .          -999.25      :NULL VALUE
COMP .        Nexus Energy                             :COMPANY
WELL .        Crux-3                                   :WELL
FLD  .        Crux                                     :FIELD
LOC  .        Easting: 656981.7mE                      :LOCATION
CNTY .        Sedco-703                                :COUNTY
STAT .        Northern Territory                       :STATE
CTRY .        Australia                                :COUNTRY
API  .                                                 :API NUMBER
UWI  .                                                 :UNIQUE WELL ID
DATE .        31-Dec-2007                              :LOG DATE {DD-MMM-YYYY}
SRVC .        Schlumberger                             :SERVICE COMPANY
LATI .DEG     12*57'32.63" S                           :LATITUDE
LONG .DEG     124*26'50.07" E                          :LONGITUDE
GDAT .                                                 :GeoDetic Datum
#-----------------------------------------------------------------------------
~PARAMETER INFORMATION
#MNEM.UNIT    VALUE                      DESCRIPTION
#---- -----   --------------------       ------------------------
RUN  .          1                        :RUN NUMBER
PDAT .        LAT                        :Permanent Datum
EPD  .M           0.000000               :Elevation of Permanent Datum above Mean Sea Level
EPD  .M           0.000000               :Elevation of tool zero above Mean Sea Level
LMF  .          DF                       :Logging Measured From (Name of Logging Elevation Reference)
APD  .M          26.400000               :Elevation of Depth Reference (LMF) above Permanent Datum
#-----------------------------------------------------------------------------
~CURVE INFORMATION
#MNEM.UNIT   API CODE                                  DESCRIPTION
#---- -----  --------                                  -----------------------
TIME .S                                                :TIME {F10.1}
TENS_SL.LBF                                            :Cable Tension {F13.4}
DEPT_SL..1IN                                           :Station logging depth {F13.4}
PDEP_XPT.M                                             :XPT Probe Depth {F13.4}
MTEP_SAP.DEGC                                          :Sapphire Gauge Manometer Temperature {F13.4}
MTEP_HYD.DEGC                                          :Hydrostatic Sapphire Gauge Manometer Temperature {F13.4}
PCO_HYD.PSI                                            :Hydrostatic Sapphire Dynamic Compensation {F13.4}
PND_HYD.PSI                                            :Hydrostatic Sapphire Pressure Without Dynamic Compensation {F13.4}
CP_HYD.PSI                                             :Hydrostatic Sapphire Pressure With Dynamic Compensation {F13.4}
MTEP_QG.DEGC                                           :CQG Manometer Temperature {F13.4}
PTNO_XPT.                                              :XPT Pretest Number {I11}
ETIM_XPT.S                                             :Elapsed Logging Time {F13.4}
PCO_SAP.PSI                                            :Sapphire Dynamic Compensation {F13.4}
PND_SAP.PSI                                            :Sapphire Pressure Without Dynamic Compensation {F13.4}
CP_SAP.PSI                                             :Sapphire Pressure With Dynamic Compensation {F13.4}
QNDP .PSI                                              :CQG Pressure Without Dynamic Compensation {F13.4}
QCP  .PSI                                              :CQG Pressure With Dynamic Compensation {F13.4}
QPCO .PSI                                              :CQG Dynamic Compensation {F13.4}
#-----------------------------------------------------------------------------
# 
#     TIME      TENS_SL      DEPT_SL      PDEP_XPT     MTEP_SAP     MTEP_HYD     PCO_HYD      PND_HYD       CP_HYD      MTEP_QG       PTNO_XPT       ETIM_XPT     PCO_SAP      PND_SAP       CP_SAP        QNDP         QCP          QPCO
#
~A  
# ...
    4108.0    4913.1325 1440603.0000    3657.5227     121.8316     122.3744      -0.0088    5955.5444    5955.5356     122.4660          8     420.0725      -0.0122    5524.8094    5524.7971    5522.3174    5522.2930      -0.0246
    4109.0    4965.9275 1440603.0000    3657.5227     121.8322     122.3729      -0.0069    5955.5283    5955.5216     122.4659          8     421.0725      -0.0121    5524.9232    5524.9110    5522.3172    5522.2928      -0.0243
    4110.0    4963.6225 1440603.0000    3657.5227     121.8300     122.3735      -0.0032    5955.3559    5955.3529     122.4661          8     422.0725      -0.0125    5524.8611    5524.8484    5522.3164    5522.2925      -0.0241
    4111.0    4944.6225 1440603.0000    3657.5227     121.8301     122.3720       0.0009    5955.2735    5955.2743     122.4656          8     423.0725      -0.0128    5524.8476    5524.8349    5522.3130    5522.2891      -0.0241
    4112.0    4927.2175 1440603.0000    3657.5227     121.8304     122.3737       0.0043    5955.3574    5955.3616     122.4657          8     424.0725      -0.0113    5524.8348    5524.8234    5522.3227    5522.2986      -0.0241
    4113.0    4927.8250 1440603.0000    3657.5227     121.8312     122.3729       0.0058    5955.4660    5955.4718     122.4657          8     425.0725      -0.0079    5524.8594    5524.8515    5522.3223    5522.2984      -0.0238
    4114.0    4896.8100 1440603.0000    3657.5227     121.8304     122.3744       0.0057    5955.4916    5955.4973     122.4653          8     426.0725      -0.0053    5524.8956    5524.8903    5522.3232    5522.2998      -0.0236
    4115.0    4857.3775 1440603.0000    3657.5227     121.8306     122.3745       0.0045    5955.5626    5955.5672     122.4655          8     427.0725      -0.0046    5524.8837    5524.8790    5522.3258    5522.3024      -0.0235
    4116.0    4873.8400 1440603.0000    3657.5227     121.8308     122.3734       0.0014    5955.5186    5955.5201     122.4654          8     428.0725      -0.0056    5524.8645    5524.8587    5522.3273    5522.3038      -0.0235
    4117.0    4857.5500 1440603.0000    3657.5227     121.8318     122.3730      -0.0033    5955.5965    5955.5932     122.4652          8     429.0725      -0.0073    5524.9824    5524.9750    5522.3266    5522.3032      -0.0234
    4118.0    4839.6525 1440603.0000    3657.5227     121.8294     122.3731      -0.0071    5955.6331    5955.6260     122.4653          8     430.0725      -0.0092    5524.8561    5524.8470    5522.3313    5522.3078      -0.0235
    4119.0    4847.7100 1440603.0000    3657.5227     121.8306     122.3737      -0.0083    5955.6321    5955.6238     122.4651          8     431.0725      -0.0113    5524.9504    5524.9392    5522.3315    5522.3075      -0.0241
    4120.0    4852.0475 1440603.0000    3657.5227     121.8294     122.3739      -0.0083    5955.6126    5955.6043     122.4652          8     432.0725      -0.0118    5524.9228    5524.9110    5522.3313    5522.3068      -0.0246
    4121.0    4955.7250 1440603.0000    3657.5227     121.8295     122.3718      -0.0090    5955.5517    5955.5427     122.4649          8     433.0725      -0.0103    5524.8347    5524.8245    5522.3292    5522.3046      -0.0246
    4122.0    4964.7100 1440603.0000    3657.5227     121.8291     122.3729      -0.0093    5955.4688    5955.4595     122.4646          8     434.0725      -0.0071    5524.9211    5524.9141    5522.3334    5522.3090      -0.0244
    4123.0    4960.4200 1440603.0000    3657.5227     121.8287     122.3729      -0.0072    5955.3636    5955.3565     122.4647          8     435.0725      -0.0044    5524.8053    5524.8010    5522.3301    5522.3057      -0.0243
    4124.0    4953.1450 1440603.0000    3657.5227     121.8290     122.3725      -0.0043    5955.3444    5955.3401     122.4646          8     436.0725      -0.0033    5524.9205    5524.9170    5522.3293    5522.3048      -0.0244
    4125.0    4952.3175 1440603.0000    3657.5227     121.8308     122.3720      -0.0024    5955.3674    5955.3649     122.4648          8     437.0725      -0.0038    5525.0122    5525.0084    5522.3327    5522.3083      -0.0245
    4126.0    4912.9250 1440603.0000    3657.5227     121.8303     122.3721      -0.0015    5955.4009    5955.3994     122.4644          8     438.0725      -0.0059    5524.8712    5524.8652    5522.3345    5522.3101      -0.0245
    4127.0    4848.5800 1440603.0000    3657.5227     121.8288     122.3729      -0.0004    5955.5283    5955.5278     122.4646          8     439.0725      -0.0094    5524.8930    5524.8837    5522.3354    5522.3107      -0.0246
    4128.0    4856.5075 1440603.0000    3657.5227     121.8274     122.3726       0.0003    5955.6119    5955.6123     122.4645          8     440.0725      -0.0133    5524.8248    5524.8117    5522.3350    5522.3101      -0.0247
    4129.0    4861.5500 1440603.0000    3657.5227     121.8280     122.3716       0.0002    5955.5890    5955.5894     122.4641          8     441.0725      -0.0156    5524.9054    5524.8898    5522.3431    5522.3182      -0.0248
    4130.0    4843.5800 1440603.0000    3657.5227     121.8282     122.3736       0.0001    5955.6551    5955.6551     122.4643          8     442.0725      -0.0150    5524.9306    5524.9158    5522.3402    5522.3158      -0.0245
    4131.0    4850.8550 1440603.0000    3657.5227     121.8273     122.3722      -0.0002    5955.6347    5955.6347     122.4641          8     443.0725      -0.0125    5524.8209    5524.8082    5522.3364    5522.3125      -0.0242
    4132.0    4855.2350 1440603.0000    3657.5227     121.8278     122.3722      -0.0012    5955.5205    5955.5194     122.4642          8     444.0725      -0.0099    5524.8804    5524.8704    5522.3376    5522.3137      -0.0239
    4133.0    4934.8550 1440603.0000    3657.5227     121.8257     122.3736      -0.0023    5955.5355    5955.5331     122.4642          8     445.0725      -0.0085    5524.8740    5524.8655    5522.3384    5522.3147      -0.0237
    4134.0    4934.0150 1440603.0000    3657.5227     121.8279     122.3722      -0.0024    5955.4671    5955.4647     122.4640          8     446.0725      -0.0082    5524.8785    5524.8702    5522.3404    5522.3165      -0.0238
    4135.0    4948.8850 1440603.0000    3657.5227     121.8275     122.3721      -0.0008    5955.3413    5955.3405     122.4640          8     447.0725      -0.0081    5524.8769    5524.8686    5522.3310    5522.3071      -0.0239
    4136.0    4973.3625 1440603.0000    3657.5227     121.8267     122.3717       0.0012    5955.2858    5955.2870     122.4639          8     448.0725      -0.0077    5524.8741    5524.8666    5522.3365    5522.3123      -0.0242
    4137.0    4976.1875 1440603.0000    3657.5227     121.8269     122.3721       0.0023    5955.3351    5955.3376     122.4638          8     449.0725      -0.0066    5524.9262    5524.9198    5522.3383    5522.3139      -0.0242
    4138.0    4946.1850 1440603.0000    3657.5227     121.8267     122.3734       0.0022    5955.3545    5955.3568     122.4637          8     450.0725      -0.0053    5524.9300    5524.9246    5522.3403    5522.3159      -0.0242
    4139.0    4857.4050 1440603.0000    3657.5227     121.8264     122.3727       0.0012    5955.5007    5955.5019     122.4637          8     451.0725      -0.0050    5524.9224    5524.9175    5522.3423    5522.3181      -0.0242
    4140.0    4837.2175 1440603.0000    3657.5227     121.8265     122.3729      -0.0006    5955.5884    5955.5879     122.4635          8     452.0725      -0.0063    5524.8653    5524.8590    5522.3445    5522.3201      -0.0244
    4141.0    4839.0575 1440603.0000    3657.5227     121.8275     122.3723      -0.0027    5955.6483    5955.6456     122.4633          8     453.0725      -0.0089    5524.9437    5524.9346    5522.3455    5522.3211      -0.0244
    4142.0    4829.4650 1440603.0000    3657.5227     121.8269     122.3716      -0.0048    5955.5916    5955.5869     122.4633          8     454.0725      -0.0116    5524.9439    5524.9324    5522.3460    5522.3221      -0.0239
