~VERSION INFORMATION
VERS.           2.0   :CWLS Log ASCII Standard - VERSION 2.0
WRAP.           NO    :One Line per depth step
PROD.  Schlumberger   :LAS Producer
PROG.  DLIS to ASCII 2.2                               :LAS Program name and version
CREA.        2020/10/30 12:18                          :LAS Creation date {YYYY/MM/DD hh:mm}
SOURCE.     XPT_HRLA_TLD_MCFL_037LTP.DLIS              :DLIS File Name
FILE-ID.     XPT_HRLA_TLD_MCFL_037LTP                  :File Identification Number
#--------------------------------------------------
~WELL INFORMATION
#MNEM.UNIT      DATA             DESCRIPTION
#---- ------ --------------   -----------------------------
STRT .S        35745.0       :START TIME      
STOP .S        36558.0       :STOP TIME      
STEP .S            1.0       :STEP     
NULL .          -999.25      :NULL VALUE
COMP .        Nexus Energy                             :COMPANY
WELL .        Crux-3                                   :WELL
FLD  .        Crux                                     :FIELD
LOC  .        Easting: 656981.7mE                      :LOCATION
CNTY .        Sedco-703                                :COUNTY
STAT .        Northern Territory                       :STATE
CTRY .        Australia                                :COUNTRY
API  .                                                 :API NUMBER
UWI  .                                                 :UNIQUE WELL ID
DATE .        31-Dec-2007                              :LOG DATE {DD-MMM-YYYY}
SRVC .        Schlumberger                             :SERVICE COMPANY
LATI .DEG     12*57'32.63" S                           :LATITUDE
LONG .DEG     124*26'50.07" E                          :LONGITUDE
GDAT .                                                 :GeoDetic Datum
#-----------------------------------------------------------------------------
~PARAMETER INFORMATION
#MNEM.UNIT    VALUE                      DESCRIPTION
#---- -----   --------------------       ------------------------
RUN  .          1                        :RUN NUMBER
PDAT .        LAT                        :Permanent Datum
EPD  .M           0.000000               :Elevation of Permanent Datum above Mean Sea Level
EPD  .M           0.000000               :Elevation of tool zero above Mean Sea Level
LMF  .          DF                       :Logging Measured From (Name of Logging Elevation Reference)
APD  .M          26.400000               :Elevation of Depth Reference (LMF) above Permanent Datum
#-----------------------------------------------------------------------------
~CURVE INFORMATION
#MNEM.UNIT   API CODE                                  DESCRIPTION
#---- -----  --------                                  -----------------------
TIME .S                                                :TIME {F10.1}
TENS_SL.LBF                                            :Cable Tension {F13.4}
DEPT_SL..1IN                                           :Station logging depth {F13.4}
PDEP_XPT.M                                             :XPT Probe Depth {F13.4}
MTEP_SAP.DEGC                                          :Sapphire Gauge Manometer Temperature {F13.4}
MTEP_HYD.DEGC                                          :Hydrostatic Sapphire Gauge Manometer Temperature {F13.4}
PCO_HYD.PSI                                            :Hydrostatic Sapphire Dynamic Compensation {F13.4}
PND_HYD.PSI                                            :Hydrostatic Sapphire Pressure Without Dynamic Compensation {F13.4}
CP_HYD.PSI                                             :Hydrostatic Sapphire Pressure With Dynamic Compensation {F13.4}
MTEP_QG.DEGC                                           :CQG Manometer Temperature {F13.4}
PTNO_XPT.                                              :XPT Pretest Number {I11}
ETIM_XPT.S                                             :Elapsed Logging Time {F13.4}
PCO_SAP.PSI                                            :Sapphire Dynamic Compensation {F13.4}
PND_SAP.PSI                                            :Sapphire Pressure Without Dynamic Compensation {F13.4}
CP_SAP.PSI                                             :Sapphire Pressure With Dynamic Compensation {F13.4}
QNDP .PSI                                              :CQG Pressure Without Dynamic Compensation {F13.4}
QCP  .PSI                                              :CQG Pressure With Dynamic Compensation {F13.4}
QPCO .PSI                                              :CQG Dynamic Compensation {F13.4}
#-----------------------------------------------------------------------------
# 
#     TIME      TENS_SL      DEPT_SL      PDEP_XPT     MTEP_SAP     MTEP_HYD     PCO_HYD      PND_HYD       CP_HYD      MTEP_QG       PTNO_XPT       ETIM_XPT     PCO_SAP      PND_SAP       CP_SAP        QNDP         QCP          QPCO
#
~A  
# ...
   35955.0    4672.8720 1417595.0000    3599.0823     118.7076     119.2684       0.0041    5862.7042    5862.7082     118.8585          0     209.7480       0.0205    5502.8221    5502.8423    5499.5355    5499.8740       0.3385
   35956.0    4707.7000 1417595.0000    3599.0823     118.7093     119.2684       0.0041    5862.6185    5862.6226     118.8596          0     210.7480       0.0161    5502.9510    5502.9672    5499.6876    5500.0272       0.3396
   35957.0    4703.5280 1417595.0000    3599.0823     118.7103     119.2674       0.0020    5862.5392    5862.5413     118.8605          0     211.7480       0.0151    5503.1292    5503.1443    5499.8196    5500.1595       0.3398
   35958.0    4683.5440 1417595.0000    3599.0823     118.7087     119.2678      -0.0008    5862.5535    5862.5524     118.8620          0     212.7480       0.0152    5503.1784    5503.1935    5499.9390    5500.2784       0.3394
   35959.0    4694.4560 1417595.0000    3599.0823     118.7088     119.2687      -0.0019    5862.5033    5862.5014     118.8631          0     213.7480       0.0137    5503.3470    5503.3606    5500.0510    5500.3896       0.3386
   35960.0    4702.2440 1417595.0000    3599.0823     118.7091     119.2683      -0.0012    5862.5976    5862.5966     118.8642          0     214.7480       0.0120    5503.4486    5503.4604    5500.1749    5500.5119       0.3368
   35961.0    4651.3880 1417595.0000    3599.0823     118.7113     119.2686      -0.0000    5862.5959    5862.5959     118.8655          0     215.7480       0.0123    5503.6062    5503.6185    5500.2883    5500.6227       0.3345
   35962.0    4642.2280 1417595.0000    3599.0823     118.7107     119.2673       0.0007    5862.6387    5862.6394     118.8664          0     216.7480       0.0140    5503.6349    5503.6488    5500.3610    5500.6933       0.3323
   35963.0    4616.5760 1417595.0000    3599.0823     118.7099     119.2669       0.0019    5862.6040    5862.6059     118.8675          0     217.7480       0.0142    5503.7426    5503.7568    5500.4374    5500.7685       0.3311
   35964.0    4607.7480 1417595.0000    3599.0823     118.7120     119.2692       0.0046    5862.7466    5862.7511     118.8684          0     218.7480       0.0129    5503.8835    5503.8965    5500.5293    5500.8594       0.3303
   35965.0    4599.7720 1417595.0000    3599.0823     118.7110     119.2679       0.0077    5862.6887    5862.6963     118.8696          0     219.7480       0.0112    5503.9190    5503.9302    5500.6355    5500.9646       0.3291
   35966.0    4612.7080 1417595.0000    3599.0823     118.7139     119.2677       0.0090    5862.6118    5862.6210     118.8707          0     220.7480       0.0111    5504.1131    5504.1243    5500.7438    5501.0715       0.3276
   35967.0    4664.3760 1417595.0000    3599.0823     118.7119     119.2691       0.0078    5862.6262    5862.6339     118.8719          0     221.7480       0.0117    5504.1698    5504.1816    5500.8681    5501.1937       0.3258
   35968.0    4706.9280 1417595.0000    3599.0823     118.7117     119.2682       0.0051    5862.6176    5862.6225     118.8728          0     222.7480       0.0126    5504.1962    5504.2089    5500.9539    5501.2779       0.3239
   35969.0    4713.7560 1417595.0000    3599.0823     118.7099     119.2698       0.0026    5862.6332    5862.6357     118.8739          0     223.7480       0.0139    5504.2753    5504.2894    5501.0479    5501.3694       0.3215
   35970.0    4710.0080 1417595.0000    3599.0823     118.7134     119.2685       0.0014    5862.6203    5862.6217     118.8749          0     224.7480       0.0152    5504.4852    5504.5004    5501.1365    5501.4557       0.3190
   35971.0    4676.8360 1417595.0000    3599.0823     118.7130     119.2688       0.0012    5862.5882    5862.5892     118.8760          0     225.7480       0.0160    5504.4748    5504.4909    5501.2066    5501.5230       0.3164
   35972.0    4630.0960 1417595.0000    3599.0823     118.7135     119.2685       0.0015    5862.5119    5862.5134     118.8772          0     226.7480       0.0139    5504.6125    5504.6263    5501.2710    5501.5850       0.3141
   35973.0    4606.7800 1417595.0000    3599.0823     118.7132     119.2679       0.0023    5862.4994    5862.5019     118.8783          0     227.7480       0.0096    5504.5616    5504.5711    5501.3261    5501.6380       0.3119
   35974.0    4604.4960 1417595.0000    3599.0823     118.7122     119.2691       0.0037    5862.6661    5862.6697     118.8792          0     228.7480       0.0044    5504.6319    5504.6363    5501.3651    5501.6747       0.3096
   35975.0    4631.9280 1417595.0000    3599.0823     118.7136     119.2684       0.0047    5862.6196    5862.6244     118.8801          0     229.7480       0.0010    5504.7225    5504.7236    5501.4071    5501.7143       0.3072
   35976.0    4700.0920 1417595.0000    3599.0823     118.7134     119.2692       0.0041    5862.5679    5862.5722     118.8812          0     230.7480       0.0006    5504.6917    5504.6922    5501.4334    5501.7384       0.3049
   35977.0    4706.5360 1417595.0000    3599.0823     118.7138     119.2694       0.0023    5862.6301    5862.6323     118.8823          0     231.7480       0.0030    5504.6604    5504.6633    5501.4555    5501.7585       0.3030
   35978.0    4726.6840 1417595.0000    3599.0823     118.7129     119.2684       0.0005    5862.5010    5862.5015     118.8833          0     232.7480       0.0068    5504.7224    5504.7290    5501.4703    5501.7713       0.3010
   35979.0    4744.7240 1417595.0000    3599.0823     118.7136     119.2693       0.0001    5862.5005    5862.5005     118.8843          0     233.7480       0.0101    5504.7378    5504.7478    5501.4834    5501.7821       0.2988
   35980.0    4735.2840 1417595.0000    3599.0823     118.7129     119.2684       0.0012    5862.5010    5862.5022     118.8853          0     234.7480       0.0123    5504.7466    5504.7591    5501.5105    5501.8071       0.2967
   35981.0    4690.6080 1417595.0000    3599.0823     118.7141     119.2692       0.0029    5862.5679    5862.5707     118.8863          0     235.7480       0.0130    5504.8554    5504.8685    5501.5375    5501.8320       0.2947
   35982.0    4647.0800 1417595.0000    3599.0823     118.7140     119.2688       0.0035    5862.5979    5862.6013     118.8874          0     236.7480       0.0120    5504.7950    5504.8070    5501.5565    5501.8493       0.2927
   35983.0    4628.0240 1417595.0000    3599.0823     118.7149     119.2692       0.0014    5862.6274    5862.6289     118.8882          0     237.7480       0.0094    5504.8230    5504.8323    5501.5705    5501.8610       0.2906
   35984.0    4634.7240 1417595.0000    3599.0823     118.7150     119.2700      -0.0027    5862.7298    5862.7271     118.8891          0     238.7480       0.0060    5504.8286    5504.8346    5501.5967    5501.8853       0.2885
   35985.0    4611.8200 1417595.0000    3599.0823     118.7145     119.2695      -0.0062    5862.7835    5862.7775     118.8900          0     239.7480       0.0023    5504.8581    5504.8604    5501.6076    5501.8941       0.2867
   35986.0    4599.2600 1417595.0000    3599.0823     118.7151     119.2692      -0.0068    5862.6878    5862.6810     118.8910          0     240.7480      -0.0003    5504.8496    5504.8493    5501.6187    5501.9036       0.2847
   35987.0    4678.7840 1417595.0000    3599.0823     118.7156     119.2687      -0.0046    5862.6613    5862.6568     118.8922          0     241.7480      -0.0006    5504.9083    5504.9077    5501.6284    5501.9112       0.2827
   35988.0    4706.7480 1417595.0000    3599.0823     118.7149     119.2673      -0.0013    5862.4959    5862.4946     118.8928          0     242.7480       0.0012    5504.8432    5504.8443    5501.6355    5501.9166       0.2811
   35989.0    4724.2040 1417595.0000    3599.0823     118.7139     119.2681       0.0020    5862.4677    5862.4697     118.8938          0     243.7480       0.0038    5504.7949    5504.7988    5501.6404    5501.9200       0.2796
