~VERSION INFORMATION
VERS.           2.0   :CWLS Log ASCII Standard - VERSION 2.0
WRAP.           NO    :One Line per depth step
PROD.  Schlumberger   :LAS Producer
PROG.  DLIS to ASCII 2.2                               :LAS Program name and version
CREA.        2020/10/30 12:18                          :LAS Creation date {YYYY/MM/DD hh:mm}
SOURCE.     XPT_HRLA_TLD_MCFL_061LTP.DLIS              :DLIS File Name
FILE-ID.     XPT_HRLA_TLD_MCFL_061LTP                  :File Identification Number
#--------------------------------------------------
~WELL INFORMATION
#MNEM.UNIT      DATA             DESCRIPTION
#---- ------ --------------   -----------------------------
STRT .S         9381.0       :START TIME      
STOP .S         9562.0       :STOP TIME      
STEP .S            1.0       :STEP     
NULL .          -999.25      :NULL VALUE
COMP .        Nexus Energy                             :COMPANY
WELL .        Crux-3                                   :WELL
FLD  .        Crux                                     :FIELD
LOC  .        Easting: 656981.7mE                      :LOCATION
CNTY .        Sedco-703                                :COUNTY
STAT .        Northern Territory                       :STATE
CTRY .        Australia                                :COUNTRY
API  .                                                 :API NUMBER
UWI  .                                                 :UNIQUE WELL ID
DATE .        31-Dec-2007                              :LOG DATE {DD-MMM-YYYY}
SRVC .        Schlumberger                             :SERVICE COMPANY
LATI .DEG     12*57'32.63" S                           :LATITUDE
LONG .DEG     124*26'50.07" E                          :LONGITUDE
GDAT .                                                 :GeoDetic Datum
#-----------------------------------------------------------------------------
~PARAMETER INFORMATION
#MNEM.UNIT    VALUE                      DESCRIPTION
#---- -----   --------------------       ------------------------
RUN  .          1                        :RUN NUMBER
PDAT .        LAT                        :Permanent Datum
EPD  .M           0.000000               :Elevation of Permanent Datum above Mean Sea Level
EPD  .M           0.000000               :Elevation of tool zero above Mean Sea Level
LMF  .          DF                       :Logging Measured From (Name of Logging Elevation Reference)
APD  .M          26.400000               :Elevation of Depth Reference (LMF) above Permanent Datum
#-----------------------------------------------------------------------------
~CURVE INFORMATION
#MNEM.UNIT   API CODE                                  DESCRIPTION
#---- -----  --------                                  -----------------------
TIME .S                                                :TIME {F10.1}
TENS_SL.LBF                                            :Cable Tension {F13.4}
DEPT_SL..1IN                                           :Station logging depth {F13.4}
PDEP_XPT.M                                             :XPT Probe Depth {F13.4}
MTEP_SAP.DEGC                                          :Sapphire Gauge Manometer Temperature {F13.4}
MTEP_HYD.DEGC                                          :Hydrostatic Sapphire Gauge Manometer Temperature {F13.4}
PCO_HYD.PSI                                            :Hydrostatic Sapphire Dynamic Compensation {F13.4}
PND_HYD.PSI                                            :Hydrostatic Sapphire Pressure Without Dynamic Compensation {F13.4}
CP_HYD.PSI                                             :Hydrostatic Sapphire Pressure With Dynamic Compensation {F13.4}
MTEP_QG.DEGC                                           :CQG Manometer Temperature {F13.4}
PTNO_XPT.                                              :XPT Pretest Number {I11}
ETIM_XPT.S                                             :Elapsed Logging Time {F13.4}
PCO_SAP.PSI                                            :Sapphire Dynamic Compensation {F13.4}
PND_SAP.PSI                                            :Sapphire Pressure Without Dynamic Compensation {F13.4}
CP_SAP.PSI                                             :Sapphire Pressure With Dynamic Compensation {F13.4}
QNDP .PSI                                              :CQG Pressure Without Dynamic Compensation {F13.4}
QCP  .PSI                                              :CQG Pressure With Dynamic Compensation {F13.4}
QPCO .PSI                                              :CQG Dynamic Compensation {F13.4}
#-----------------------------------------------------------------------------
# 
#     TIME      TENS_SL      DEPT_SL      PDEP_XPT     MTEP_SAP     MTEP_HYD     PCO_HYD      PND_HYD       CP_HYD      MTEP_QG       PTNO_XPT       ETIM_XPT     PCO_SAP      PND_SAP       CP_SAP        QNDP         QCP          QPCO
#
~A  
    9381.0    4994.7987 1547018.6641    3927.8183     129.2300     129.7925       0.0000    6384.9327    6384.9327     129.7781         24       0.0000       0.0000    6382.3210    6382.3210    6379.8167    6379.8167       0.0000
    9382.0    5047.8700 1547081.0000    3927.9766     129.2342     129.7954       0.0000    6385.1655    6385.1655     129.7828         25       0.6220       0.0000    6382.6889    6382.6889    6380.1084    6380.1084       0.0000
    9383.0    5151.5300 1547081.0000    3927.9766     129.2336     129.7956       0.0000    6385.2633    6385.2633     129.7834         25       1.6220       0.0000    6382.6221    6382.6221    6380.1393    6380.1393       0.0000
    9384.0    5176.9620 1547081.0000    3927.9766     129.2351     129.7982       0.0000    6385.2477    6385.2477     129.7837         25       2.6220       0.0000    6382.6601    6382.6601    6380.1203    6380.1203       0.0000
    9385.0    5164.7560 1547081.0000    3927.9766     129.2353     129.7978       0.0000    6385.1311    6385.1311     129.7844         25       3.6220       0.0000    6382.4778    6382.4778    6379.9958    6379.9958       0.0000
    9386.0    5159.0240 1547081.0000    3927.9766     129.2353     129.7985       0.0000    6384.8616    6384.8616     129.7848         25       4.6220       0.0000    6382.3359    6382.3359    6379.9090    6379.9090       0.0000
    9387.0    5164.7080 1547081.0000    3927.9766     129.2364     129.7984       0.0000    6385.1382    6385.1382     129.7851         25       5.6220       0.0000    6382.4556    6382.4556    6379.9761    6379.9761       0.0000
    9388.0    5113.3980 1547081.0000    3927.9766     129.2378     129.8000       0.0421    6385.1416    6385.1836     129.7855         25       6.6220       0.0379    6382.3571    6382.3949    6379.8822    6380.0068       0.1245
    9389.0    5015.5560 1547081.0000    3927.9766     129.2378     129.8015       0.0417    6385.1436    6385.1851     129.7858         25       7.6220       0.0405    6382.5735    6382.6143    6380.1122    6380.2374       0.1252
    9390.0    4981.3540 1547081.0000    3927.9766     129.2381     129.8023       0.0428    6385.4052    6385.4480     129.7861         25       8.6220       0.0419    6382.7202    6382.7621    6380.2968    6380.4223       0.1254
    9391.0    4960.9860 1547081.0000    3927.9766     129.2376     129.8023       0.0441    6385.5376    6385.5815     129.7865         25       9.6220       0.0427    6382.6713    6382.7138    6380.3363    6380.4623       0.1261
    9392.0    4953.2200 1547081.0000    3927.9766     129.2407     129.8022       0.0456    6385.4807    6385.5265     129.7869         25      10.6220       0.0443    6382.9177    6382.9621    6380.3817    6380.5096       0.1278
    9393.0    4968.8180 1547081.0000    3927.9766     129.2416     129.8041       0.0473    6385.4789    6385.5261     129.7873         25      11.6220       0.0455    6382.9574    6383.0028    6380.4497    6380.5786       0.1290
    9394.0    5001.5020 1547081.0000    3927.9766     129.2399     129.8050       0.0492    6385.6036    6385.6529     129.7877         25      12.6220       0.0452    6382.9233    6382.9687    6380.5165    6380.6464       0.1299
    9395.0    5063.0280 1547081.0000    3927.9766     129.2424     129.8058       0.0489    6385.6402    6385.6891     129.7882         25      13.6220       0.0432    6383.0130    6383.0561    6380.5345    6380.6648       0.1303
    9396.0    5121.4780 1547081.0000    3927.9766     129.2425     129.8073       0.0477    6385.5362    6385.5837     129.7887         25      14.6220       0.0424    6382.9747    6383.0172    6380.5232    6380.6537       0.1306
    9397.0    5130.6700 1547081.0000    3927.9766     129.2446     129.8080       0.0461    6385.5107    6385.5566     129.7893         25      15.6220       0.0436    6383.0565    6383.1000    6380.5265    6380.6578       0.1311
    9398.0    5106.9620 1547081.0000    3927.9766     129.2454     129.8090       0.0446    6385.5539    6385.5984     129.7893         25      16.6220       0.0453    6382.9997    6383.0449    6380.4524    6380.5832       0.1310
    9399.0    5097.2440 1547081.0000    3927.9766     129.2453     129.8091       0.0432    6385.4057    6385.4488     129.7896         25      17.6220       0.0454    6382.9112    6382.9566    6380.4036    6380.5345       0.1307
    9400.0    5089.9140 1547081.0000    3927.9766     129.2461     129.8099       0.0428    6385.5640    6385.6069     129.7900         25      18.6220       0.0439    6382.8785    6382.9224    6380.4502    6380.5811       0.1307
    9401.0    5018.4460 1547081.0000    3927.9766     129.2471     129.8111       0.0441    6385.5772    6385.6213     129.7904         25      19.6220       0.0426    6382.9719    6383.0144    6380.5035    6380.6349       0.1313
    9402.0    4983.5980 1547081.0000    3927.9766     129.2489     129.8120       0.0454    6385.6921    6385.7373     129.7910         25      20.6220       0.0419    6383.0616    6383.1036    6380.5470    6380.6788       0.1319
    9403.0    4970.8280 1547081.0000    3927.9766     129.2501     129.8122       0.0458    6385.6494    6385.6953     129.7917         25      21.6220       0.0403    6383.2062    6383.2466    6380.6748    6380.8077       0.1328
    9404.0    4975.3060 1547081.0000    3927.9766     129.2488     129.8126       0.0466    6385.7328    6385.7794     129.7919         25      22.6220       0.0379    6383.2142    6383.2521    6380.7018    6380.8358       0.1339
    9405.0    4978.4020 1547081.0000    3927.9766     129.2510     129.8157       0.0489    6385.8162    6385.8649     129.7920         25      23.6220       0.0365    6383.1280    6383.1646    6380.6168    6380.7516       0.1348
    9406.0    4978.1100 1547081.0000    3927.9766     129.2509     129.8138       0.0507    6385.7267    6385.7775     129.7924         25      24.6220       0.0378    6383.1747    6383.2124    6380.5870    6380.7222       0.1351
    9407.0    5040.3340 1547081.0000    3927.9766     129.2520     129.8163       0.0502    6385.7036    6385.7537     129.7932         25      25.6220       0.0411    6383.0807    6383.1217    6380.5311    6380.6664       0.1354
    9408.0    5080.7320 1547081.0000    3927.9766     129.2518     129.8167       0.0478    6385.6387    6385.6867     129.7936         25      26.6220       0.0445    6382.9860    6383.0307    6380.4853    6380.6210       0.1357
    9409.0    5096.6840 1547081.0000    3927.9766     129.2536     129.8183       0.0451    6385.6510    6385.6959     129.7939         25      27.6220       0.0472    6382.7381    6382.7854    6380.2724    6380.4082       0.1355
    9410.0    5113.7080 1547081.0000    3927.9766     129.2540     129.8190       0.0445    6385.5425    6385.5869     129.7942         25      28.6220       0.0477    6382.7425    6382.7903    6380.2060    6380.3412       0.1353
    9411.0    5110.2920 1547081.0000    3927.9766     129.2553     129.8196       0.0447    6385.4275    6385.4723     129.7948         25      29.6220       0.0473    6382.8309    6382.8783    6380.3049    6380.4407       0.1357
    9412.0    5088.2060 1547081.0000    3927.9766     129.2567     129.8198       0.0457    6385.5041    6385.5500     129.7952         25      30.6220       0.0454    6383.0638    6383.1092    6380.4755    6380.6137       0.1384
    9413.0    5015.8000 1547081.0000    3927.9766     129.2559     129.8198       0.0457    6385.6113    6385.6572     129.7956         25      31.6220       0.0437    6382.9109    6382.9546    6380.4769    6380.6169       0.1401
    9414.0    4981.7320 1547081.0000    3927.9766     129.2575     129.8221       0.0454    6385.6963    6385.7417     129.7963         25      32.6220       0.0413    6383.0181    6383.0592    6380.4565    6380.5981       0.1417
    9415.0    4967.2060 1547081.0000    3927.9766     129.2571     129.8223       0.0455    6385.7631    6385.8085     129.7965         25      33.6220       0.0411    6383.1932    6383.2343    6380.6595    6380.8016       0.1421
