~VERSION INFORMATION
VERS.           2.0   :CWLS Log ASCII Standard - VERSION 2.0
WRAP.           NO    :One Line per depth step
PROD.  Schlumberger   :LAS Producer
PROG.  DLIS to ASCII 2.2                               :LAS Program name and version
CREA.        2020/10/30 12:18                          :LAS Creation date {YYYY/MM/DD hh:mm}
SOURCE.     XPT_HRLA_TLD_MCFL_046LTP.DLIS              :DLIS File Name
FILE-ID.     XPT_HRLA_TLD_MCFL_046LTP                  :File Identification Number
#--------------------------------------------------
~WELL INFORMATION
#MNEM.UNIT      DATA             DESCRIPTION
#---- ------ --------------   -----------------------------
STRT .S         4617.0       :START TIME      
STOP .S         5507.0       :STOP TIME      
STEP .S            1.0       :STEP     
NULL .          -999.25      :NULL VALUE
COMP .        Nexus Energy                             :COMPANY
WELL .        Crux-3                                   :WELL
FLD  .        Crux                                     :FIELD
LOC  .        Easting: 656981.7mE                      :LOCATION
CNTY .        Sedco-703                                :COUNTY
STAT .        Northern Territory                       :STATE
CTRY .        Australia                                :COUNTRY
API  .                                                 :API NUMBER
UWI  .                                                 :UNIQUE WELL ID
DATE .        31-Dec-2007                              :LOG DATE {DD-MMM-YYYY}
SRVC .        Schlumberger                             :SERVICE COMPANY
LATI .DEG     12*57'32.63" S                           :LATITUDE
LONG .DEG     124*26'50.07" E                          :LONGITUDE
GDAT .                                                 :GeoDetic Datum
#-----------------------------------------------------------------------------
~PARAMETER INFORMATION
#MNEM.UNIT    VALUE                      DESCRIPTION
#---- -----   --------------------       ------------------------
RUN  .          1                        :RUN NUMBER
PDAT .        LAT                        :Permanent Datum
EPD  .M           0.000000               :Elevation of Permanent Datum above Mean Sea Level
EPD  .M           0.000000               :Elevation of tool zero above Mean Sea Level
LMF  .          DF                       :Logging Measured From (Name of Logging Elevation Reference)
APD  .M          26.400000               :Elevation of Depth Reference (LMF) above Permanent Datum
#-----------------------------------------------------------------------------
~CURVE INFORMATION
#MNEM.UNIT   API CODE                                  DESCRIPTION
#---- -----  --------                                  -----------------------
TIME .S                                                :TIME {F10.1}
TENS_SL.LBF                                            :Cable Tension {F13.4}
DEPT_SL..1IN                                           :Station logging depth {F13.4}
PDEP_XPT.M                                             :XPT Probe Depth {F13.4}
MTEP_SAP.DEGC                                          :Sapphire Gauge Manometer Temperature {F13.4}
MTEP_HYD.DEGC                                          :Hydrostatic Sapphire Gauge Manometer Temperature {F13.4}
PCO_HYD.PSI                                            :Hydrostatic Sapphire Dynamic Compensation {F13.4}
PND_HYD.PSI                                            :Hydrostatic Sapphire Pressure Without Dynamic Compensation {F13.4}
CP_HYD.PSI                                             :Hydrostatic Sapphire Pressure With Dynamic Compensation {F13.4}
MTEP_QG.DEGC                                           :CQG Manometer Temperature {F13.4}
PTNO_XPT.                                              :XPT Pretest Number {I11}
ETIM_XPT.S                                             :Elapsed Logging Time {F13.4}
PCO_SAP.PSI                                            :Sapphire Dynamic Compensation {F13.4}
PND_SAP.PSI                                            :Sapphire Pressure Without Dynamic Compensation {F13.4}
CP_SAP.PSI                                             :Sapphire Pressure With Dynamic Compensation {F13.4}
QNDP .PSI                                              :CQG Pressure Without Dynamic Compensation {F13.4}
QCP  .PSI                                              :CQG Pressure With Dynamic Compensation {F13.4}
QPCO .PSI                                              :CQG Dynamic Compensation {F13.4}
#-----------------------------------------------------------------------------
# 
#     TIME      TENS_SL      DEPT_SL      PDEP_XPT     MTEP_SAP     MTEP_HYD     PCO_HYD      PND_HYD       CP_HYD      MTEP_QG       PTNO_XPT       ETIM_XPT     PCO_SAP      PND_SAP       CP_SAP        QNDP         QCP          QPCO
#
~A  
# ...
    5002.0    4799.6180 1443523.0000    3664.9392     121.8346     122.4148       0.0054    5967.5836    5967.5890     122.4619         10     384.6870      -0.2449    5381.8898    5381.6447    5380.8663    5380.2566      -0.6096
    5003.0    4799.1910 1443523.0000    3664.9392     121.8300     122.4162       0.0056    5967.5684    5967.5740     122.4597         10     385.6870      -0.2093    5354.6381    5354.4289    5353.5804    5352.9414      -0.6389
    5004.0    4777.0770 1443523.0000    3664.9392     121.8270     122.4164       0.0057    5967.6183    5967.6242     122.4575         10     386.6870      -0.1676    5329.8324    5329.6648    5328.6241    5327.9705      -0.6537
    5005.0    4756.3210 1443523.0000    3664.9392     121.8246     122.4161       0.0052    5967.5862    5967.5914     122.4554         10     387.6870      -0.1274    5309.2740    5309.1466    5308.2177    5307.5590      -0.6588
    5006.0    4759.2440 1443523.0000    3664.9392     121.8236     122.4160       0.0031    5967.6591    5967.6622     122.4531         10     388.6870      -0.0893    5289.5965    5289.5074    5288.4134    5287.7590      -0.6545
    5007.0    4798.7240 1443523.0000    3664.9392     121.8220     122.4153       0.0003    5967.6370    5967.6375     122.4505         10     389.6870      -0.0545    5272.5401    5272.4855    5271.2581    5270.6177      -0.6403
    5008.0    4832.1750 1443523.0000    3664.9392     121.8199     122.4159      -0.0002    5967.6435    5967.6432     122.4488         10     390.6870      -0.0258    5260.3172    5260.2915    5259.1337    5258.5171      -0.6166
    5009.0    4840.0000 1443523.0000    3664.9392     121.8210     122.4164       0.0024    5967.5894    5967.5917     122.4465         10     391.6870      -0.0018    5248.0076    5248.0060    5246.7088    5246.1234      -0.5853
    5010.0    4837.9390 1443523.0000    3664.9392     121.8228     122.4164       0.0054    5967.5294    5967.5348     122.4446         10     392.6870       0.0208    5236.7694    5236.7901    5235.2523    5234.7044      -0.5478
    5011.0    4798.5280 1443523.0000    3664.9392     121.8237     122.4149       0.0066    5967.5524    5967.5592     122.4431         10     393.6870       0.0426    5228.5661    5228.6088    5226.9531    5226.4485      -0.5046
    5012.0    4746.6500 1443523.0000    3664.9392     121.8222     122.4167       0.0063    5967.5923    5967.5986     122.4415         10     394.6870       0.0606    5221.6539    5221.7146    5219.9039    5219.4472      -0.4567
    5013.0    4725.5040 1443523.0000    3664.9392     121.8227     122.4171       0.0061    5967.5965    5967.6024     122.4397         10     395.6870       0.0737    5216.3084    5216.3820    5214.4922    5214.0868      -0.4054
    5014.0    4708.5730 1443523.0000    3664.9392     121.8261     122.4169       0.0065    5967.6333    5967.6398     122.4386         10     396.6870       0.0847    5214.0904    5214.1752    5211.9982    5211.6459      -0.3524
    5015.0    4710.9310 1443523.0000    3664.9392     121.8276     122.4171       0.0073    5967.6558    5967.6631     122.4376         10     397.6870       0.0945    5211.7329    5211.8275    5209.5283    5209.2298      -0.2987
    5016.0    4741.7930 1443523.0000    3664.9392     121.8302     122.4157       0.0088    5967.5837    5967.5925     122.4366         10     398.6870       0.1010    5210.1364    5210.2374    5207.7893    5207.5439      -0.2455
    5017.0    4813.0820 1443523.0000    3664.9392     121.8310     122.4163       0.0112    5967.6094    5967.6205     122.4362         10     399.6870       0.1020    5209.1881    5209.2900    5206.7462    5206.5516      -0.1947
    5018.0    4842.0610 1443523.0000    3664.9392     121.8353     122.4177       0.0135    5967.6509    5967.6644     122.4356         10     400.6870       0.0992    5209.1542    5209.2533    5206.5416    5206.3935      -0.1480
    5019.0    4832.0080 1443523.0000    3664.9392     121.8337     122.4172       0.0137    5967.5428    5967.5565     122.4353         10     401.6870       0.0952    5210.4285    5210.5238    5207.8225    5207.7170      -0.1057
    5020.0    4807.7640 1443523.0000    3664.9392     121.8373     122.4187       0.0116    5967.4937    5967.5051     122.4350         10     402.6870       0.0905    5211.5562    5211.6466    5208.8984    5208.8307      -0.0676
    5021.0    4799.0000 1443523.0000    3664.9392     121.8391     122.4180       0.0081    5967.5454    5967.5536     122.4350         10     403.6870       0.0851    5213.2831    5213.3683    5210.5134    5210.4808      -0.0328
    5022.0    4742.6660 1443523.0000    3664.9392     121.8397     122.4173       0.0041    5967.6013    5967.6052     122.4349         10     404.6870       0.0797    5212.7723    5212.8520    5209.8878    5209.8869      -0.0007
    5023.0    4734.8620 1443523.0000    3664.9392     121.8413     122.4180       0.0011    5967.6650    5967.6662     122.4350         10     405.6870       0.0767    5212.5318    5212.6085    5209.6891    5209.7193       0.0303
    5024.0    4728.5730 1443523.0000    3664.9392     121.8434     122.4165      -0.0003    5967.6494    5967.6489     122.4349         10     406.6870       0.0796    5214.2137    5214.2932    5211.2575    5211.3245       0.0668
    5025.0    4718.5650 1443523.0000    3664.9392     121.8434     122.4180       0.0002    5967.8431    5967.8431     122.4353         10     407.6870       0.0915    5216.3628    5216.4543    5213.3878    5213.5047       0.1168
    5026.0    4707.3820 1443523.0000    3664.9392     121.8460     122.4171       0.0019    5967.7070    5967.7088     122.4354         10     408.6870       0.1143    5218.9674    5219.0816    5215.8981    5216.0819       0.1837
    5027.0    4756.5860 1443523.0000    3664.9392     121.8469     122.4193       0.0047    5967.7388    5967.7435     122.4359         10     409.6870       0.1451    5221.2953    5221.4405    5218.3063    5218.5686       0.2623
    5028.0    4777.5650 1443523.0000    3664.9392     121.8478     122.4187       0.0077    5967.6155    5967.6233     122.4364         10     410.6870       0.1771    5222.9432    5223.1206    5219.8641    5220.2087       0.3447
    5029.0    4806.9150 1443523.0000    3664.9392     121.8522     122.4186       0.0095    5967.6458    5967.6552     122.4383         10     411.6870       0.2031    5254.9712    5255.1742    5251.4158    5251.8410       0.4251
    5030.0    4838.1750 1443523.0000    3664.9392     121.8580     122.4175       0.0090    5967.4025    5967.4115     122.4404         10     412.6870       0.2172    5286.9472    5287.1645    5282.8839    5283.3812       0.4975
    5031.0    4839.1300 1443523.0000    3664.9392     121.8646     122.4195       0.0071    5967.5424    5967.5492     122.4422         10     413.6870       0.2163    5311.5794    5311.7958    5307.3945    5307.9485       0.5542
    5032.0    4822.2600 1443523.0000    3664.9392     121.8677     122.4195       0.0060    5967.6038    5967.6097     122.4439         10     414.6870       0.1976    5331.7215    5331.9193    5327.4166    5328.0061       0.5896
    5033.0    4756.9180 1443523.0000    3664.9392     121.8733     122.4193       0.0055    5967.5820    5967.5874     122.4460         10     415.6870       0.1648    5349.8229    5349.9878    5345.5069    5346.1140       0.6072
    5034.0    4715.5730 1443523.0000    3664.9392     121.8733     122.4187       0.0046    5967.6103    5967.6148     122.4478         10     416.6870       0.1264    5364.4322    5364.5587    5360.1685    5360.7817       0.6133
    5035.0    4704.1910 1443523.0000    3664.9392     121.8762     122.4187       0.0037    5967.6230    5967.6269     122.4501         10     417.6870       0.0908    5376.7590    5376.8500    5372.6815    5373.2939       0.6123
    5036.0    4689.6340 1443523.0000    3664.9392     121.8778     122.4182       0.0046    5967.6906    5967.6953     122.4522         10     418.6870       0.0616    5388.7226    5388.7842    5384.6465    5385.2518       0.6052
