~VERSION INFORMATION
VERS.           2.0   :CWLS Log ASCII Standard - VERSION 2.0
WRAP.           NO    :One Line per depth step
PROD.  Schlumberger   :LAS Producer
PROG.  DLIS to ASCII 2.2                               :LAS Program name and version
CREA.        2020/10/30 12:18                          :LAS Creation date {YYYY/MM/DD hh:mm}
SOURCE.     XPT_HRLA_TLD_MCFL_040LTP.DLIS              :DLIS File Name
FILE-ID.     XPT_HRLA_TLD_MCFL_040LTP                  :File Identification Number
#--------------------------------------------------
~WELL INFORMATION
#MNEM.UNIT      DATA             DESCRIPTION
#---- ------ --------------   -----------------------------
STRT .S          916.0       :START TIME      
STOP .S         1395.0       :STOP TIME      
STEP .S            1.0       :STEP     
NULL .          -999.25      :NULL VALUE
COMP .        Nexus Energy                             :COMPANY
WELL .        Crux-3                                   :WELL
FLD  .        Crux                                     :FIELD
LOC  .        Easting: 656981.7mE                      :LOCATION
CNTY .        Sedco-703                                :COUNTY
STAT .        Northern Territory                       :STATE
CTRY .        Australia                                :COUNTRY
API  .                                                 :API NUMBER
UWI  .                                                 :UNIQUE WELL ID
DATE .        31-Dec-2007                              :LOG DATE {DD-MMM-YYYY}
SRVC .        Schlumberger                             :SERVICE COMPANY
LATI .DEG     12*57'32.63" S                           :LATITUDE
LONG .DEG     124*26'50.07" E                          :LONGITUDE
GDAT .                                                 :GeoDetic Datum
#-----------------------------------------------------------------------------
~PARAMETER INFORMATION
#MNEM.UNIT    VALUE                      DESCRIPTION
#---- -----   --------------------       ------------------------
RUN  .          1                        :RUN NUMBER
PDAT .        LAT                        :Permanent Datum
EPD  .M           0.000000               :Elevation of Permanent Datum above Mean Sea Level
EPD  .M           0.000000               :Elevation of tool zero above Mean Sea Level
LMF  .          DF                       :Logging Measured From (Name of Logging Elevation Reference)
APD  .M          26.400000               :Elevation of Depth Reference (LMF) above Permanent Datum
#-----------------------------------------------------------------------------
~CURVE INFORMATION
#MNEM.UNIT   API CODE                                  DESCRIPTION
#---- -----  --------                                  -----------------------
TIME .S                                                :TIME {F10.1}
TENS_SL.LBF                                            :Cable Tension {F13.4}
DEPT_SL..1IN                                           :Station logging depth {F13.4}
PDEP_XPT.M                                             :XPT Probe Depth {F13.4}
MTEP_SAP.DEGC                                          :Sapphire Gauge Manometer Temperature {F13.4}
MTEP_HYD.DEGC                                          :Hydrostatic Sapphire Gauge Manometer Temperature {F13.4}
PCO_HYD.PSI                                            :Hydrostatic Sapphire Dynamic Compensation {F13.4}
PND_HYD.PSI                                            :Hydrostatic Sapphire Pressure Without Dynamic Compensation {F13.4}
CP_HYD.PSI                                             :Hydrostatic Sapphire Pressure With Dynamic Compensation {F13.4}
MTEP_QG.DEGC                                           :CQG Manometer Temperature {F13.4}
PTNO_XPT.                                              :XPT Pretest Number {I11}
ETIM_XPT.S                                             :Elapsed Logging Time {F13.4}
PCO_SAP.PSI                                            :Sapphire Dynamic Compensation {F13.4}
PND_SAP.PSI                                            :Sapphire Pressure Without Dynamic Compensation {F13.4}
CP_SAP.PSI                                             :Sapphire Pressure With Dynamic Compensation {F13.4}
QNDP .PSI                                              :CQG Pressure Without Dynamic Compensation {F13.4}
QCP  .PSI                                              :CQG Pressure With Dynamic Compensation {F13.4}
QPCO .PSI                                              :CQG Dynamic Compensation {F13.4}
#-----------------------------------------------------------------------------
# 
#     TIME      TENS_SL      DEPT_SL      PDEP_XPT     MTEP_SAP     MTEP_HYD     PCO_HYD      PND_HYD       CP_HYD      MTEP_QG       PTNO_XPT       ETIM_XPT     PCO_SAP      PND_SAP       CP_SAP        QNDP         QCP          QPCO
#
~A  
# ...
    1161.0    4665.5122 1419728.0000    3604.5000     119.1453     119.7012       0.0037    5871.6029    5871.6063     119.6957          6     244.8453      -0.0182    5505.8671    5505.8487    5502.8804    5503.0531       0.1727
    1162.0    4734.2390 1419728.0000    3604.5000     119.1435     119.7011       0.0053    5871.5731    5871.5784     119.6963          6     245.8453      -0.0150    5505.8264    5505.8115    5502.9354    5503.0958       0.1603
    1163.0    4735.0117 1419728.0000    3604.5000     119.1458     119.7010       0.0072    5871.5065    5871.5138     119.6968          6     246.8453      -0.0101    5505.9821    5505.9721    5502.9159    5503.0649       0.1490
    1164.0    4728.7738 1419728.0000    3604.5000     119.1452     119.7012       0.0086    5871.4060    5871.4148     119.6973          6     247.8453      -0.0052    5506.0046    5505.9994    5502.9489    5503.0877       0.1390
    1165.0    4744.9050 1419728.0000    3604.5000     119.1446     119.7023       0.0086    5871.4356    5871.4441     119.6979          6     248.8453      -0.0017    5505.7194    5505.7179    5502.9580    5503.0880       0.1300
    1166.0    4755.6073 1419728.0000    3604.5000     119.1460     119.7018       0.0071    5871.3848    5871.3918     119.6981          6     249.8453       0.0006    5505.9167    5505.9171    5502.9651    5503.0863       0.1212
    1167.0    4691.9158 1419728.0000    3604.5000     119.1439     119.7026       0.0042    5871.4642    5871.4686     119.6985          6     250.8453       0.0012    5506.0296    5506.0306    5503.0032    5503.1145       0.1113
    1168.0    4689.2977 1419728.0000    3604.5000     119.1448     119.7027       0.0029    5871.4999    5871.5029     119.6990          6     251.8453       0.0005    5505.8869    5505.8874    5503.0101    5503.1166       0.1065
    1169.0    4683.3928 1419728.0000    3604.5000     119.1442     119.7018       0.0011    5871.5979    5871.5990     119.6993          6     252.8453      -0.0027    5505.7824    5505.7797    5502.9978    5503.0992       0.1011
    1170.0    4668.4760 1419728.0000    3604.5000     119.1459     119.7023       0.0001    5871.6480    5871.6480     119.6994          6     253.8453      -0.0082    5506.0387    5506.0304    5503.0155    5503.1112       0.0957
    1171.0    4682.9050 1419728.0000    3604.5000     119.1454     119.7010       0.0017    5871.5800    5871.5817     119.7001          6     254.8453      -0.0104    5505.9901    5505.9799    5503.0340    5503.1268       0.0928
    1172.0    4740.0960 1419728.0000    3604.5000     119.1440     119.7031       0.0063    5871.5743    5871.5804     119.7002          6     255.8453      -0.0106    5505.7807    5505.7703    5503.0358    5503.1253       0.0894
    1173.0    4769.4407 1419728.0000    3604.5000     119.1433     119.7022       0.0109    5871.5542    5871.5651     119.7002          6     256.8453      -0.0079    5505.7987    5505.7907    5503.0685    5503.1553       0.0867
    1174.0    4773.8453 1419728.0000    3604.5000     119.1451     119.7020       0.0125    5871.4431    5871.4555     119.7009          6     257.8453      -0.0048    5506.0057    5506.0010    5503.0817    5503.1665       0.0846
    1175.0    4757.9402 1419728.0000    3604.5000     119.1437     119.7029       0.0124    5871.3553    5871.3676     119.7010          6     258.8453      -0.0019    5506.0657    5506.0637    5503.0718    5503.1548       0.0829
    1176.0    4754.1547 1419728.0000    3604.5000     119.1428     119.7030       0.0109    5871.3973    5871.4079     119.7015          6     259.8453       0.0025    5505.8279    5505.8305    5503.0692    5503.1505       0.0812
    1177.0    4683.8443 1419728.0000    3604.5000     119.1437     119.7036       0.0074    5871.5196    5871.5269     119.7015          6     260.8453       0.0068    5505.8213    5505.8281    5503.0701    5503.1495       0.0794
    1178.0    4670.1547 1419728.0000    3604.5000     119.1461     119.7024       0.0024    5871.5556    5871.5582     119.7018          6     261.8453       0.0072    5506.0253    5506.0327    5503.1055    5503.1832       0.0779
    1179.0    4647.1782 1419728.0000    3604.5000     119.1445     119.7052      -0.0007    5871.6398    5871.6393     119.7019          6     262.8453       0.0037    5506.0052    5506.0089    5503.0989    5503.1755       0.0767
    1180.0    4648.0715 1419728.0000    3604.5000     119.1444     119.7031      -0.0007    5871.6682    5871.6675     119.7023          6     263.8453       0.0013    5505.9983    5505.9998    5503.1065    5503.1820       0.0755
    1181.0    4692.1078 1419728.0000    3604.5000     119.1444     119.7016       0.0008    5871.6019    5871.6028     119.7027          6     264.8453       0.0029    5505.8670    5505.8697    5503.1274    5503.2013       0.0738
    1182.0    4763.3938 1419728.0000    3604.5000     119.1446     119.7038       0.0033    5871.6294    5871.6325     119.7030          6     265.8453       0.0052    5505.8198    5505.8251    5503.1275    5503.1997       0.0723
    1183.0    4774.1547 1419728.0000    3604.5000     119.1450     119.7020       0.0060    5871.5419    5871.5477     119.7031          6     266.8453       0.0059    5506.0751    5506.0809    5503.1318    5503.2031       0.0714
    1184.0    4757.0950 1419728.0000    3604.5000     119.1472     119.7045       0.0073    5871.4590    5871.4663     119.7031          6     267.8453       0.0073    5506.1878    5506.1950    5503.1399    5503.2108       0.0710
    1185.0    4771.7503 1419728.0000    3604.5000     119.1438     119.7031       0.0065    5871.4029    5871.4092     119.7033          6     268.8453       0.0098    5505.9387    5505.9486    5503.1576    5503.2279       0.0704
    1186.0    4758.0950 1419728.0000    3604.5000     119.1448     119.7042       0.0047    5871.4753    5871.4799     119.7037          6     269.8453       0.0099    5505.7998    5505.8098    5503.1629    5503.2327       0.0699
    1187.0    4691.6062 1419728.0000    3604.5000     119.1450     119.7045       0.0039    5871.5186    5871.5225     119.7039          6     270.8453       0.0072    5505.9234    5505.9304    5503.1705    5503.2408       0.0704
    1188.0    4680.0000 1419728.0000    3604.5000     119.1466     119.7031       0.0044    5871.5543    5871.5587     119.7043          6     271.8453       0.0050    5506.1379    5506.1428    5503.1803    5503.2512       0.0710
    1189.0    4665.6308 1419728.0000    3604.5000     119.1472     119.7035       0.0063    5871.5275    5871.5339     119.7043          6     272.8453       0.0057    5506.1296    5506.1352    5503.1913    5503.2626       0.0713
    1190.0    4680.7503 1419728.0000    3604.5000     119.1441     119.7048       0.0097    5871.6409    5871.6505     119.7045          6     273.8453       0.0066    5505.9296    5505.9364    5503.1973    5503.2681       0.0706
    1191.0    4667.9402 1419728.0000    3604.5000     119.1447     119.7041       0.0127    5871.5646    5871.5774     119.7050          6     274.8453       0.0061    5505.8517    5505.8580    5503.2308    5503.3011       0.0704
    1192.0    4688.6670 1419728.0000    3604.5000     119.1466     119.7038       0.0131    5871.4512    5871.4641     119.7050          6     275.8453       0.0055    5506.0904    5506.0958    5503.2493    5503.3196       0.0702
    1193.0    4746.2508 1419728.0000    3604.5000     119.1483     119.7060       0.0110    5871.5938    5871.6047     119.7057          6     276.8453       0.0047    5506.2060    5506.2109    5503.2500    5503.3199       0.0699
    1194.0    4750.0832 1419728.0000    3604.5000     119.1478     119.7053       0.0075    5871.4921    5871.4997     119.7054          6     277.8453       0.0035    5506.1298    5506.1332    5503.2541    5503.3234       0.0692
    1195.0    4743.0832 1419728.0000    3604.5000     119.1444     119.7052       0.0041    5871.4954    5871.4993     119.7059          6     278.8453       0.0022    5505.9745    5505.9767    5503.2529    5503.3212       0.0683
