~VERSION INFORMATION
VERS.           2.0   :CWLS Log ASCII Standard - VERSION 2.0
WRAP.           NO    :One Line per depth step
PROD.  Schlumberger   :LAS Producer
PROG.  DLIS to ASCII 2.2                               :LAS Program name and version
CREA.        2020/10/30 12:18                          :LAS Creation date {YYYY/MM/DD hh:mm}
SOURCE.     XPT_HRLA_TLD_MCFL_066LTP.DLIS              :DLIS File Name
FILE-ID.     XPT_HRLA_TLD_MCFL_066LTP                  :File Identification Number
#--------------------------------------------------
~WELL INFORMATION
#MNEM.UNIT      DATA             DESCRIPTION
#---- ------ --------------   -----------------------------
STRT .S         3575.0       :START TIME      
STOP .S         3949.0       :STOP TIME      
STEP .S            1.0       :STEP     
NULL .          -999.25      :NULL VALUE
COMP .        Nexus Energy                             :COMPANY
WELL .        Crux-3                                   :WELL
FLD  .        Crux                                     :FIELD
LOC  .        Easting: 656981.7mE                      :LOCATION
CNTY .        Sedco-703                                :COUNTY
STAT .        Northern Territory                       :STATE
CTRY .        Australia                                :COUNTRY
API  .                                                 :API NUMBER
UWI  .                                                 :UNIQUE WELL ID
DATE .        31-Dec-2007                              :LOG DATE {DD-MMM-YYYY}
SRVC .        Schlumberger                             :SERVICE COMPANY
LATI .DEG     12*57'32.63" S                           :LATITUDE
LONG .DEG     124*26'50.07" E                          :LONGITUDE
GDAT .                                                 :GeoDetic Datum
#-----------------------------------------------------------------------------
~PARAMETER INFORMATION
#MNEM.UNIT    VALUE                      DESCRIPTION
#---- -----   --------------------       ------------------------
RUN  .          1                        :RUN NUMBER
PDAT .        LAT                        :Permanent Datum
EPD  .M           0.000000               :Elevation of Permanent Datum above Mean Sea Level
EPD  .M           0.000000               :Elevation of tool zero above Mean Sea Level
LMF  .          DF                       :Logging Measured From (Name of Logging Elevation Reference)
APD  .M          26.400000               :Elevation of Depth Reference (LMF) above Permanent Datum
#-----------------------------------------------------------------------------
~CURVE INFORMATION
#MNEM.UNIT   API CODE                                  DESCRIPTION
#---- -----  --------                                  -----------------------
TIME .S                                                :TIME {F10.1}
TENS_SL.LBF                                            :Cable Tension {F13.4}
DEPT_SL..1IN                                           :Station logging depth {F13.4}
PDEP_XPT.M                                             :XPT Probe Depth {F13.4}
MTEP_SAP.DEGC                                          :Sapphire Gauge Manometer Temperature {F13.4}
MTEP_HYD.DEGC                                          :Hydrostatic Sapphire Gauge Manometer Temperature {F13.4}
PCO_HYD.PSI                                            :Hydrostatic Sapphire Dynamic Compensation {F13.4}
PND_HYD.PSI                                            :Hydrostatic Sapphire Pressure Without Dynamic Compensation {F13.4}
CP_HYD.PSI                                             :Hydrostatic Sapphire Pressure With Dynamic Compensation {F13.4}
MTEP_QG.DEGC                                           :CQG Manometer Temperature {F13.4}
PTNO_XPT.                                              :XPT Pretest Number {I11}
ETIM_XPT.S                                             :Elapsed Logging Time {F13.4}
PCO_SAP.PSI                                            :Sapphire Dynamic Compensation {F13.4}
PND_SAP.PSI                                            :Sapphire Pressure Without Dynamic Compensation {F13.4}
CP_SAP.PSI                                             :Sapphire Pressure With Dynamic Compensation {F13.4}
QNDP .PSI                                              :CQG Pressure Without Dynamic Compensation {F13.4}
QCP  .PSI                                              :CQG Pressure With Dynamic Compensation {F13.4}
QPCO .PSI                                              :CQG Dynamic Compensation {F13.4}
#-----------------------------------------------------------------------------
# 
#     TIME      TENS_SL      DEPT_SL      PDEP_XPT     MTEP_SAP     MTEP_HYD     PCO_HYD      PND_HYD       CP_HYD      MTEP_QG       PTNO_XPT       ETIM_XPT     PCO_SAP      PND_SAP       CP_SAP        QNDP         QCP          QPCO
#
~A  
# ...
    3750.0    4957.4780 1556924.0000    3952.9780     132.4651     133.0306       0.0116    6424.7310    6424.7428     132.3755         30     175.4710       0.0132    5695.2002    5695.2135    5691.7983    5692.4283       0.6298
    3751.0    4984.8980 1556924.0000    3952.9780     132.4639     133.0307       0.0090    6424.8290    6424.8380     132.3775         30     176.4710       0.0100    5695.1525    5695.1626    5691.7967    5692.4224       0.6256
    3752.0    5000.2900 1556924.0000    3952.9780     132.4639     133.0310       0.0045    6424.8425    6424.8471     132.3792         30     177.4710       0.0093    5695.2080    5695.2173    5691.8057    5692.4269       0.6213
    3753.0    5005.3620 1556924.0000    3952.9780     132.4640     133.0302      -0.0003    6424.6649    6424.6646     132.3810         30     178.4710       0.0118    5695.1790    5695.1907    5691.8009    5692.4186       0.6177
    3754.0    5061.2740 1556924.0000    3952.9780     132.4648     133.0314      -0.0022    6424.6639    6424.6616     132.3832         30     179.4710       0.0149    5695.1306    5695.1454    5691.8063    5692.4203       0.6142
    3755.0    5095.9280 1556924.0000    3952.9780     132.4651     133.0305      -0.0011    6424.7037    6424.7025     132.3848         30     180.4710       0.0160    5695.1617    5695.1779    5691.8121    5692.4226       0.6105
    3756.0    5095.0140 1556924.0000    3952.9780     132.4646     133.0303       0.0009    6424.6603    6424.6613     132.3868         30     181.4710       0.0149    5695.1324    5695.1471    5691.8103    5692.4174       0.6069
    3757.0    5109.7030 1556924.0000    3952.9780     132.4656     133.0296       0.0027    6424.5376    6424.5403     132.3886         30     182.4710       0.0145    5695.1058    5695.1204    5691.8135    5692.4173       0.6038
    3758.0    5103.1740 1556924.0000    3952.9780     132.4669     133.0299       0.0050    6424.4541    6424.4590     132.3904         30     183.4710       0.0156    5695.2045    5695.2199    5691.8215    5692.4225       0.6010
    3759.0    5087.2830 1556924.0000    3952.9780     132.4650     133.0304       0.0071    6424.6072    6424.6145     132.3924         30     184.4710       0.0157    5695.1052    5695.1209    5691.8255    5692.4228       0.5974
    3760.0    5025.9000 1556924.0000    3952.9780     132.4663     133.0319       0.0070    6424.6836    6424.6907     132.3941         30     185.4710       0.0134    5695.1761    5695.1895    5691.8250    5692.4185       0.5936
    3761.0    4979.5940 1556924.0000    3952.9780     132.4664     133.0311       0.0048    6424.7358    6424.7407     132.3961         30     186.4710       0.0113    5695.1348    5695.1460    5691.8284    5692.4187       0.5901
    3762.0    4972.3990 1556924.0000    3952.9780     132.4675     133.0318       0.0025    6424.7437    6424.7462     132.3976         30     187.4710       0.0117    5695.2259    5695.2375    5691.8351    5692.4221       0.5868
    3763.0    4974.3690 1556924.0000    3952.9780     132.4666     133.0319       0.0015    6424.8729    6424.8744     132.3995         30     188.4710       0.0135    5695.0947    5695.1081    5691.8412    5692.4245       0.5832
    3764.0    4982.7540 1556924.0000    3952.9780     132.4651     133.0304       0.0007    6424.8491    6424.8498     132.4014         30     189.4710       0.0151    5695.0756    5695.0905    5691.8408    5692.4201       0.5793
    3765.0    4992.0790 1556924.0000    3952.9780     132.4682     133.0304       0.0002    6424.8487    6424.8487     132.4031         30     190.4710       0.0125    5695.1493    5695.1617    5691.8396    5692.4067       0.5669
    3766.0    5055.6800 1556924.0000    3952.9780     132.4676     133.0311       0.0007    6424.6753    6424.6759     132.4049         30     191.4710      -0.0136    5695.0346    5695.0211    5691.8438    5692.3508       0.5071
    3767.0    5082.4570 1556924.0000    3952.9780     132.4676     133.0317       0.0023    6424.6811    6424.6833     132.4067         30     192.4710      -0.0909    5695.1190    5695.0282    5691.8472    5692.2046       0.3575
    3768.0    5085.7240 1556924.0000    3952.9780     132.4693     133.0314       0.0038    6424.6417    6424.6456     132.4084         30     193.4710      -0.2205    5695.1771    5694.9566    5691.8483    5691.9719       0.1239
    3769.0    5113.7100 1556924.0000    3952.9780     132.4695     133.0305       0.0050    6424.5796    6424.5846     132.4100         30     194.4710      -0.3637    5695.1595    5694.7958    5691.8513    5691.7167      -0.1346
    3770.0    5123.7100 1556924.0000    3952.9780     132.4685     133.0318       0.0077    6424.4741    6424.4818     132.4117         30     195.4710      -0.4660    5695.1485    5694.6825    5691.8555    5691.5082      -0.3474
    3771.0    5120.0510 1556924.0000    3952.9780     132.4434     133.0303       0.0115    6424.4849    6424.4964     132.4053         30     196.4710      -0.4822    5519.8678    5519.3856    5519.6621    5519.2037      -0.4583
    3772.0    5085.5080 1556924.0000    3952.9780     132.4192     133.0313       0.0149    6424.5701    6424.5850     132.4010         31     197.4710      -0.3741    5411.2527    5410.8787    5411.6448    5411.2409      -0.4037
    3773.0    5042.4570 1556924.0000    3952.9780     132.4112     133.0322       0.0165    6424.6266    6424.6432     132.3995         31     198.4710      -0.1384    5379.0539    5378.9156    5379.3148    5379.1506      -0.1642
    3774.0    5017.9350 1556924.0000    3952.9780     132.4077     133.0322       0.0163    6424.6544    6424.6705     132.3983         31     199.4710       0.1688    5365.2543    5365.4229    5365.0912    5365.2839       0.1925
    3775.0    5009.0580 1556924.0000    3952.9780     132.4101     133.0330       0.0142    6424.6353    6424.6494     132.3976         31     200.4710       0.4470    5358.3439    5358.7910    5357.8123    5358.3568       0.5447
    3776.0    5012.7100 1556924.0000    3952.9780     132.4418     133.0334       0.0108    6424.6131    6424.6238     132.4052         31     201.4710       0.6199    5542.4657    5543.0857    5538.1579    5538.9721       0.8143
    3777.0    5030.7170 1556924.0000    3952.9780     132.4692     133.0337       0.0079    6424.6373    6424.6452     132.4108         31     202.4710       0.6640    5660.7420    5661.4062    5655.1459    5656.1262       0.9805
    3778.0    5049.7100 1556924.0000    3952.9780     132.4832     133.0333       0.0069    6424.7362    6424.7431     132.4131         31     203.4710       0.5866    5688.7816    5689.3682    5683.0327    5684.0679       1.0353
    3779.0    5035.6890 1556924.0000    3952.9780     132.4880     133.0335       0.0072    6424.5798    6424.5871     132.4152         31     204.4710       0.4234    5693.6789    5694.1022    5688.1385    5689.1333       0.9950
    3780.0    4996.5730 1556924.0000    3952.9780     132.4903     133.0326       0.0074    6424.6313    6424.6387     132.4175         31     205.4710       0.2355    5694.5749    5694.8106    5689.3912    5690.3094       0.9180
    3781.0    4976.0580 1556924.0000    3952.9780     132.4874     133.0331       0.0078    6424.5987    6424.6067     132.4200         31     206.4710       0.0879    5694.7032    5694.7910    5689.9597    5690.8305       0.8706
    3782.0    4983.4780 1556924.0000    3952.9780     132.4895     133.0347       0.0094    6424.6969    6424.7064     132.4229         31     207.4710       0.0049    5694.7041    5694.7088    5690.2974    5691.1630       0.8655
    3783.0    4996.2970 1556924.0000    3952.9780     132.4855     133.0342       0.0105    6424.7573    6424.7680     132.4258         31     208.4710      -0.0301    5694.7796    5694.7495    5690.5225    5691.3955       0.8731
    3784.0    5033.4410 1556924.0000    3952.9780     132.4847     133.0334       0.0078    6424.5786    6424.5866     132.4286         31     209.4710      -0.0431    5694.7555    5694.7126    5690.7275    5691.5957       0.8683
