~VERSION INFORMATION
VERS.           2.0   :CWLS Log ASCII Standard - VERSION 2.0
WRAP.           NO    :One Line per depth step
PROD.  Schlumberger   :LAS Producer
PROG.  DLIS to ASCII 2.2                               :LAS Program name and version
CREA.        2020/10/30 12:18                          :LAS Creation date {YYYY/MM/DD hh:mm}
SOURCE.     XPT_HRLA_TLD_MCFL_039LTP.DLIS              :DLIS File Name
FILE-ID.     XPT_HRLA_TLD_MCFL_039LTP                  :File Identification Number
#--------------------------------------------------
~WELL INFORMATION
#MNEM.UNIT      DATA             DESCRIPTION
#---- ------ --------------   -----------------------------
STRT .S          109.0       :START TIME      
STOP .S          613.0       :STOP TIME      
STEP .S            1.0       :STEP     
NULL .          -999.25      :NULL VALUE
COMP .        Nexus Energy                             :COMPANY
WELL .        Crux-3                                   :WELL
FLD  .        Crux                                     :FIELD
LOC  .        Easting: 656981.7mE                      :LOCATION
CNTY .        Sedco-703                                :COUNTY
STAT .        Northern Territory                       :STATE
CTRY .        Australia                                :COUNTRY
API  .                                                 :API NUMBER
UWI  .                                                 :UNIQUE WELL ID
DATE .        31-Dec-2007                              :LOG DATE {DD-MMM-YYYY}
SRVC .        Schlumberger                             :SERVICE COMPANY
LATI .DEG     12*57'32.63" S                           :LATITUDE
LONG .DEG     124*26'50.07" E                          :LONGITUDE
GDAT .                                                 :GeoDetic Datum
#-----------------------------------------------------------------------------
~PARAMETER INFORMATION
#MNEM.UNIT    VALUE                      DESCRIPTION
#---- -----   --------------------       ------------------------
RUN  .          1                        :RUN NUMBER
PDAT .        LAT                        :Permanent Datum
EPD  .M           0.000000               :Elevation of Permanent Datum above Mean Sea Level
EPD  .M           0.000000               :Elevation of tool zero above Mean Sea Level
LMF  .          DF                       :Logging Measured From (Name of Logging Elevation Reference)
APD  .M          26.400000               :Elevation of Depth Reference (LMF) above Permanent Datum
#-----------------------------------------------------------------------------
~CURVE INFORMATION
#MNEM.UNIT   API CODE                                  DESCRIPTION
#---- -----  --------                                  -----------------------
TIME .S                                                :TIME {F10.1}
TENS_SL.LBF                                            :Cable Tension {F13.4}
DEPT_SL..1IN                                           :Station logging depth {F13.4}
PDEP_XPT.M                                             :XPT Probe Depth {F13.4}
MTEP_SAP.DEGC                                          :Sapphire Gauge Manometer Temperature {F13.4}
MTEP_HYD.DEGC                                          :Hydrostatic Sapphire Gauge Manometer Temperature {F13.4}
PCO_HYD.PSI                                            :Hydrostatic Sapphire Dynamic Compensation {F13.4}
PND_HYD.PSI                                            :Hydrostatic Sapphire Pressure Without Dynamic Compensation {F13.4}
CP_HYD.PSI                                             :Hydrostatic Sapphire Pressure With Dynamic Compensation {F13.4}
MTEP_QG.DEGC                                           :CQG Manometer Temperature {F13.4}
PTNO_XPT.                                              :XPT Pretest Number {I11}
ETIM_XPT.S                                             :Elapsed Logging Time {F13.4}
PCO_SAP.PSI                                            :Sapphire Dynamic Compensation {F13.4}
PND_SAP.PSI                                            :Sapphire Pressure Without Dynamic Compensation {F13.4}
CP_SAP.PSI                                             :Sapphire Pressure With Dynamic Compensation {F13.4}
QNDP .PSI                                              :CQG Pressure Without Dynamic Compensation {F13.4}
QCP  .PSI                                              :CQG Pressure With Dynamic Compensation {F13.4}
QPCO .PSI                                              :CQG Dynamic Compensation {F13.4}
#-----------------------------------------------------------------------------
# 
#     TIME      TENS_SL      DEPT_SL      PDEP_XPT     MTEP_SAP     MTEP_HYD     PCO_HYD      PND_HYD       CP_HYD      MTEP_QG       PTNO_XPT       ETIM_XPT     PCO_SAP      PND_SAP       CP_SAP        QNDP         QCP          QPCO
#
~A  
# ...
     424.0    4800.6531 1418545.0000    3601.4951     119.0221     119.5717       0.0135    5866.4541    5866.4677     119.5639          4     315.2610       0.0057    5505.0574    5505.0630    5502.3565    5502.4209       0.0642
     425.0    4804.4766 1418545.0000    3601.4951     119.0218     119.5713       0.0132    5866.4616    5866.4747     119.5639          4     316.2610       0.0031    5505.1472    5505.1502    5502.3577    5502.4222       0.0643
     426.0    4760.4281 1418545.0000    3601.4951     119.0218     119.5732       0.0127    5866.6103    5866.6230     119.5642          4     317.2610       0.0016    5505.0891    5505.0908    5502.3605    5502.4250       0.0643
     427.0    4689.5656 1418545.0000    3601.4951     119.0215     119.5732       0.0131    5866.6810    5866.6941     119.5644          4     318.2610      -0.0001    5505.1620    5505.1621    5502.3641    5502.4281       0.0640
     428.0    4692.9563 1418545.0000    3601.4951     119.0196     119.5740       0.0128    5866.7401    5866.7527     119.5649          4     319.2610      -0.0014    5505.0804    5505.0789    5502.3605    5502.4240       0.0636
     429.0    4688.4344 1418545.0000    3601.4951     119.0210     119.5723       0.0096    5866.7613    5866.7708     119.5648          4     320.2610       0.0003    5505.1539    5505.1542    5502.3652    5502.4282       0.0629
     430.0    4683.2172 1418545.0000    3601.4951     119.0213     119.5732       0.0050    5866.8852    5866.8903     119.5652          4     321.2610       0.0042    5505.1492    5505.1534    5502.3595    5502.4220       0.0623
     431.0    4681.7828 1418545.0000    3601.4951     119.0190     119.5748       0.0018    5866.8189    5866.8208     119.5652          4     322.2610       0.0064    5504.8743    5504.8806    5502.3568    5502.4189       0.0622
     432.0    4708.0063 1418545.0000    3601.4951     119.0217     119.5744       0.0003    5866.6599    5866.6601     119.5656          4     323.2610       0.0063    5505.1192    5505.1256    5502.3638    5502.4263       0.0625
     433.0    4776.0000 1418545.0000    3601.4951     119.0235     119.5725      -0.0003    5866.5965    5866.5960     119.5656          4     324.2610       0.0068    5505.1726    5505.1793    5502.3620    5502.4250       0.0630
     434.0    4777.0437 1418545.0000    3601.4951     119.0231     119.5737       0.0010    5866.5814    5866.5825     119.5658          4     325.2610       0.0071    5505.0823    5505.0895    5502.3677    5502.4306       0.0631
     435.0    4786.7844 1418545.0000    3601.4951     119.0208     119.5740       0.0044    5866.5052    5866.5096     119.5661          4     326.2610       0.0049    5505.0620    5505.0668    5502.3647    5502.4274       0.0627
     436.0    4804.4344 1418545.0000    3601.4951     119.0220     119.5725       0.0080    5866.4619    5866.4701     119.5665          4     327.2610       0.0018    5505.1157    5505.1173    5502.3695    5502.4320       0.0624
     437.0    4790.6062 1418545.0000    3601.4951     119.0237     119.5748       0.0114    5866.6045    5866.6159     119.5664          4     328.2610       0.0013    5505.1174    5505.1189    5502.3642    5502.4262       0.0622
     438.0    4744.4297 1418545.0000    3601.4951     119.0229     119.5746       0.0152    5866.5889    5866.6040     119.5668          4     329.2610       0.0028    5505.1719    5505.1746    5502.3655    5502.4275       0.0621
     439.0    4689.0000 1418545.0000    3601.4951     119.0196     119.5748       0.0184    5866.6563    5866.6747     119.5667          4     330.2610       0.0033    5504.9542    5504.9576    5502.3661    5502.4285       0.0622
     440.0    4690.3047 1418545.0000    3601.4951     119.0221     119.5740       0.0178    5866.5492    5866.5671     119.5675          4     331.2610       0.0040    5505.1445    5505.1485    5502.3739    5502.4369       0.0628
     441.0    4691.9125 1418545.0000    3601.4951     119.0228     119.5752       0.0139    5866.6225    5866.6364     119.5673          4     332.2610       0.0062    5505.1014    5505.1076    5502.3773    5502.4410       0.0637
     442.0    4691.4797 1418545.0000    3601.4951     119.0217     119.5755       0.0101    5866.8462    5866.8565     119.5675          4     333.2610       0.0080    5505.1611    5505.1689    5502.3812    5502.4452       0.0638
     443.0    4708.5656 1418545.0000    3601.4951     119.0215     119.5770       0.0080    5866.7471    5866.7553     119.5678          4     334.2610       0.0075    5505.0304    5505.0377    5502.3726    5502.4360       0.0637
     444.0    4732.8313 1418545.0000    3601.4951     119.0250     119.5753       0.0058    5866.6833    5866.6891     119.5680          4     335.2610       0.0066    5505.1007    5505.1072    5502.3727    5502.4359       0.0634
     445.0    4783.2594 1418545.0000    3601.4951     119.0211     119.5762       0.0032    5866.6787    5866.6817     119.5682          4     336.2610       0.0064    5505.0918    5505.0981    5502.3773    5502.4403       0.0631
     446.0    4758.1281 1418545.0000    3601.4951     119.0215     119.5755       0.0027    5866.6123    5866.6148     119.5683          4     337.2610       0.0068    5505.0875    5505.0943    5502.3782    5502.4406       0.0622
     447.0    4739.2625 1418545.0000    3601.4951     119.0222     119.5763       0.0055    5866.6201    5866.6255     119.5686          4     338.2610       0.0066    5505.0817    5505.0883    5502.3742    5502.4354       0.0613
     448.0    4765.8719 1418545.0000    3601.4951     119.0249     119.5763       0.0095    5866.5015    5866.5111     119.5686          4     339.2610       0.0053    5505.1845    5505.1899    5502.3833    5502.4443       0.0608
     449.0    4787.0859 1418545.0000    3601.4951     119.0240     119.5758       0.0118    5866.5681    5866.5798     119.5689          4     340.2610       0.0036    5505.2075    5505.2113    5502.3811    5502.4422       0.0610
     450.0    4755.6469 1418545.0000    3601.4951     119.0235     119.5763       0.0113    5866.6201    5866.6316     119.5691          4     341.2610       0.0029    5505.1570    5505.1599    5502.3833    5502.4443       0.0612
     451.0    4690.9547 1418545.0000    3601.4951     119.0256     119.5770       0.0092    5866.6284    5866.6378     119.5693          4     342.2610       0.0043    5505.2167    5505.2211    5502.3808    5502.4418       0.0613
     452.0    4673.6094 1418545.0000    3601.4951     119.0217     119.5770       0.0070    5866.6996    5866.7067     119.5695          4     343.2610       0.0064    5505.0326    5505.0390    5502.3822    5502.4436       0.0613
     453.0    4678.9125 1418545.0000    3601.4951     119.0225     119.5772       0.0053    5866.7492    5866.7545     119.5697          4     344.2610       0.0079    5505.0527    5505.0608    5502.3844    5502.4457       0.0613
     454.0    4673.2609 1418545.0000    3601.4951     119.0244     119.5769       0.0041    5866.8393    5866.8433     119.5701          4     345.2610       0.0093    5505.0999    5505.1092    5502.3839    5502.4454       0.0614
     455.0    4673.7391 1418545.0000    3601.4951     119.0241     119.5763       0.0039    5866.7354    5866.7394     119.5702          4     346.2610       0.0100    5505.1086    5505.1184    5502.3862    5502.4476       0.0613
     456.0    4691.2656 1418545.0000    3601.4951     119.0246     119.5769       0.0062    5866.6743    5866.6807     119.5705          4     347.2610       0.0089    5505.1033    5505.1124    5502.3859    5502.4475       0.0613
     457.0    4747.1750 1418545.0000    3601.4951     119.0241     119.5775       0.0101    5866.6069    5866.6170     119.5708          4     348.2610       0.0060    5505.0861    5505.0921    5502.3815    5502.4430       0.0615
     458.0    4763.1750 1418545.0000    3601.4951     119.0253     119.5770       0.0133    5866.5685    5866.5818     119.5709          4     349.2610       0.0035    5505.1214    5505.1247    5502.3861    5502.4477       0.0615
