~VERSION INFORMATION
VERS.           2.0   :CWLS Log ASCII Standard - VERSION 2.0
WRAP.           NO    :One Line per depth step
PROD.  Schlumberger   :LAS Producer
PROG.  DLIS to ASCII 2.2                               :LAS Program name and version
CREA.        2020/10/30 12:18                          :LAS Creation date {YYYY/MM/DD hh:mm}
SOURCE.     XPT_HRLA_TLD_MCFL_048LTP.DLIS              :DLIS File Name
FILE-ID.     XPT_HRLA_TLD_MCFL_048LTP                  :File Identification Number
#--------------------------------------------------
~WELL INFORMATION
#MNEM.UNIT      DATA             DESCRIPTION
#---- ------ --------------   -----------------------------
STRT .S           91.0       :START TIME      
STOP .S          545.0       :STOP TIME      
STEP .S            1.0       :STEP     
NULL .          -999.25      :NULL VALUE
COMP .        Nexus Energy                             :COMPANY
WELL .        Crux-3                                   :WELL
FLD  .        Crux                                     :FIELD
LOC  .        Easting: 656981.7mE                      :LOCATION
CNTY .        Sedco-703                                :COUNTY
STAT .        Northern Territory                       :STATE
CTRY .        Australia                                :COUNTRY
API  .                                                 :API NUMBER
UWI  .                                                 :UNIQUE WELL ID
DATE .        31-Dec-2007                              :LOG DATE {DD-MMM-YYYY}
SRVC .        Schlumberger                             :SERVICE COMPANY
LATI .DEG     12*57'32.63" S                           :LATITUDE
LONG .DEG     124*26'50.07" E                          :LONGITUDE
GDAT .                                                 :GeoDetic Datum
#-----------------------------------------------------------------------------
~PARAMETER INFORMATION
#MNEM.UNIT    VALUE                      DESCRIPTION
#---- -----   --------------------       ------------------------
RUN  .          1                        :RUN NUMBER
PDAT .        LAT                        :Permanent Datum
EPD  .M           0.000000               :Elevation of Permanent Datum above Mean Sea Level
EPD  .M           0.000000               :Elevation of tool zero above Mean Sea Level
LMF  .          DF                       :Logging Measured From (Name of Logging Elevation Reference)
APD  .M          26.400000               :Elevation of Depth Reference (LMF) above Permanent Datum
#-----------------------------------------------------------------------------
~CURVE INFORMATION
#MNEM.UNIT   API CODE                                  DESCRIPTION
#---- -----  --------                                  -----------------------
TIME .S                                                :TIME {F10.1}
TENS_SL.LBF                                            :Cable Tension {F13.4}
DEPT_SL..1IN                                           :Station logging depth {F13.4}
PDEP_XPT.M                                             :XPT Probe Depth {F13.4}
MTEP_SAP.DEGC                                          :Sapphire Gauge Manometer Temperature {F13.4}
MTEP_HYD.DEGC                                          :Hydrostatic Sapphire Gauge Manometer Temperature {F13.4}
PCO_HYD.PSI                                            :Hydrostatic Sapphire Dynamic Compensation {F13.4}
PND_HYD.PSI                                            :Hydrostatic Sapphire Pressure Without Dynamic Compensation {F13.4}
CP_HYD.PSI                                             :Hydrostatic Sapphire Pressure With Dynamic Compensation {F13.4}
MTEP_QG.DEGC                                           :CQG Manometer Temperature {F13.4}
PTNO_XPT.                                              :XPT Pretest Number {I11}
ETIM_XPT.S                                             :Elapsed Logging Time {F13.4}
PCO_SAP.PSI                                            :Sapphire Dynamic Compensation {F13.4}
PND_SAP.PSI                                            :Sapphire Pressure Without Dynamic Compensation {F13.4}
CP_SAP.PSI                                             :Sapphire Pressure With Dynamic Compensation {F13.4}
QNDP .PSI                                              :CQG Pressure Without Dynamic Compensation {F13.4}
QCP  .PSI                                              :CQG Pressure With Dynamic Compensation {F13.4}
QPCO .PSI                                              :CQG Dynamic Compensation {F13.4}
#-----------------------------------------------------------------------------
# 
#     TIME      TENS_SL      DEPT_SL      PDEP_XPT     MTEP_SAP     MTEP_HYD     PCO_HYD      PND_HYD       CP_HYD      MTEP_QG       PTNO_XPT       ETIM_XPT     PCO_SAP      PND_SAP       CP_SAP        QNDP         QCP          QPCO
#
~A  
# ...
     336.0    4790.3050 1445909.0000    3671.0000     122.1112     122.6774       0.0104    5977.6409    5977.6512     122.6676         12     244.8206       0.0390    5452.3214    5452.3606    5449.9489    5449.8881      -0.0610
     337.0    4748.2513 1445909.0000    3671.0000     122.1096     122.6779       0.0104    5977.6808    5977.6913     122.6677         12     245.8206       0.0673    5451.4396    5451.5068    5449.0784    5449.0609      -0.0175
     338.0    4712.0988 1445909.0000    3671.0000     122.1109     122.6788       0.0110    5977.6774    5977.6885     122.6672         12     246.8206       0.1018    5449.1215    5449.2233    5446.6857    5446.7319       0.0463
     339.0    4679.7400 1445909.0000    3671.0000     122.1114     122.6790       0.0107    5977.7400    5977.7507     122.6670         12     247.8206       0.1405    5447.9070    5448.0474    5445.4340    5445.5551       0.1210
     340.0    4678.9237 1445909.0000    3671.0000     122.1120     122.6779       0.0092    5977.6930    5977.7021     122.6669         12     248.8206       0.1694    5446.0973    5446.2666    5443.5848    5443.7727       0.1878
     341.0    4702.9775 1445909.0000    3671.0000     122.1211     122.6790       0.0074    5977.7240    5977.7315     122.6692         12     249.8206       0.1809    5496.7240    5496.9049    5493.0420    5493.2838       0.2418
     342.0    4762.9819 1445909.0000    3671.0000     122.1282     122.6789       0.0058    5977.7010    5977.7068     122.6708         12     250.8206       0.1732    5528.0384    5528.2118    5524.3810    5524.6608       0.2798
     343.0    4834.0850 1445909.0000    3671.0000     122.1314     122.6792       0.0037    5977.7414    5977.7452     122.6712         12     251.8206       0.1392    5529.1546    5529.2938    5525.4937    5525.7867       0.2931
     344.0    4819.0988 1445909.0000    3671.0000     122.1315     122.6794       0.0018    5977.6999    5977.7016     122.6718         12     252.8206       0.0873    5529.3082    5529.3955    5525.8362    5526.1149       0.2786
     345.0    4767.0450 1445909.0000    3671.0000     122.1310     122.6794       0.0012    5977.6465    5977.6475     122.6728         12     253.8206       0.0489    5529.4965    5529.5454    5526.0310    5526.2928       0.2620
     346.0    4753.7175 1445909.0000    3671.0000     122.1323     122.6783       0.0020    5977.6549    5977.6568     122.6737         12     254.8206       0.0081    5529.5379    5529.5461    5526.1990    5526.4451       0.2462
     347.0    4705.4038 1445909.0000    3671.0000     122.1305     122.6789       0.0041    5977.7224    5977.7264     122.6744         12     255.8206      -0.0121    5529.5141    5529.5019    5526.3067    5526.5466       0.2398
     348.0    4700.7444 1445909.0000    3671.0000     122.1319     122.6792       0.0059    5977.7407    5977.7466     122.6751         12     256.8206      -0.0171    5529.6415    5529.6244    5526.4042    5526.6394       0.2354
     349.0    4707.7444 1445909.0000    3671.0000     122.1303     122.6792       0.0082    5977.7651    5977.7733     122.6760         12     257.8206      -0.0165    5529.6035    5529.5868    5526.4522    5526.6786       0.2263
     350.0    4731.1569 1445909.0000    3671.0000     122.1312     122.6798       0.0100    5977.9058    5977.9159     122.6768         12     258.8206      -0.0138    5529.5524    5529.5386    5526.4790    5526.6938       0.2147
     351.0    4735.1794 1445909.0000    3671.0000     122.1308     122.6796       0.0115    5977.8630    5977.8747     122.6771         12     259.8206      -0.0134    5529.4750    5529.4618    5526.5286    5526.7305       0.2021
     352.0    4725.9731 1445909.0000    3671.0000     122.1292     122.6796       0.0123    5977.7461    5977.7583     122.6782         12     260.8206      -0.0155    5529.4922    5529.4766    5526.5826    5526.7720       0.1894
     353.0    4782.2644 1445909.0000    3671.0000     122.1299     122.6809       0.0126    5977.8297    5977.8424     122.6788         12     261.8206      -0.0168    5529.5948    5529.5782    5526.5976    5526.7748       0.1770
     354.0    4785.1525 1445909.0000    3671.0000     122.1310     122.6796       0.0125    5977.6264    5977.6391     122.6790         12     262.8206      -0.0153    5529.5024    5529.4873    5526.6153    5526.7806       0.1655
     355.0    4760.8431 1445909.0000    3671.0000     122.1268     122.6819       0.0121    5977.6504    5977.6626     122.6798         12     263.8206      -0.0119    5529.4713    5529.4595    5526.6383    5526.7934       0.1550
     356.0    4760.9237 1445909.0000    3671.0000     122.1287     122.6811       0.0111    5977.6472    5977.6581     122.6804         12     264.8206      -0.0078    5529.4591    5529.4514    5526.6635    5526.8088       0.1453
     357.0    4806.3138 1445909.0000    3671.0000     122.1265     122.6803       0.0089    5977.5225    5977.5313     122.6803         12     265.8206      -0.0036    5529.5467    5529.5434    5526.6794    5526.8154       0.1361
     358.0    4806.1525 1445909.0000    3671.0000     122.1270     122.6819       0.0074    5977.6504    5977.6577     122.6811         12     266.8206      -0.0006    5529.5805    5529.5799    5526.6945    5526.8225       0.1278
     359.0    4719.4756 1445909.0000    3671.0000     122.1298     122.6812       0.0081    5977.5886    5977.5968     122.6815         12     267.8206       0.0004    5529.6539    5529.6544    5526.7208    5526.8414       0.1205
     360.0    4690.3319 1445909.0000    3671.0000     122.1296     122.6819       0.0106    5977.8237    5977.8345     122.6817         12     268.8206      -0.0013    5529.6018    5529.6008    5526.7363    5526.8509       0.1144
     361.0    4688.8206 1445909.0000    3671.0000     122.1285     122.6810       0.0129    5977.6650    5977.6779     122.6822         12     269.8206      -0.0037    5529.5098    5529.5062    5526.7506    5526.8599       0.1094
     362.0    4674.2288 1445909.0000    3671.0000     122.1290     122.6819       0.0142    5977.7918    5977.8060     122.6824         12     270.8206      -0.0052    5529.5545    5529.5492    5526.7563    5526.8615       0.1052
     363.0    4716.1344 1445909.0000    3671.0000     122.1271     122.6819       0.0151    5977.8296    5977.8447     122.6828         12     271.8206      -0.0054    5529.4939    5529.4886    5526.7667    5526.8687       0.1018
     364.0    4772.7756 1445909.0000    3671.0000     122.1272     122.6828       0.0144    5977.8390    5977.8534     122.6832         12     272.8206      -0.0046    5529.5103    5529.5056    5526.7805    5526.8792       0.0986
     365.0    4777.2556 1445909.0000    3671.0000     122.1283     122.6829       0.0117    5977.6987    5977.7104     122.6834         12     273.8206      -0.0020    5529.5527    5529.5506    5526.7899    5526.8858       0.0958
     366.0    4776.0000 1445909.0000    3671.0000     122.1294     122.6813       0.0081    5977.5888    5977.5971     122.6836         12     274.8206       0.0031    5529.6277    5529.6307    5526.7964    5526.8896       0.0934
     367.0    4789.9506 1445909.0000    3671.0000     122.1271     122.6833       0.0065    5977.7243    5977.7306     122.6842         12     275.8206       0.0088    5529.5747    5529.5836    5526.7966    5526.8877       0.0911
     368.0    4791.3588 1445909.0000    3671.0000     122.1272     122.6826       0.0071    5977.5702    5977.5774     122.6844         12     276.8206       0.0117    5529.3846    5529.3962    5526.7813    5526.8703       0.0889
     369.0    4774.5875 1445909.0000    3671.0000     122.1273     122.6832       0.0080    5977.6644    5977.6723     122.6846         12     277.8206       0.0125    5529.4902    5529.5029    5526.7572    5526.8440       0.0869
     370.0    4712.7356 1445909.0000    3671.0000     122.1285     122.6834       0.0082    5977.7617    5977.7700     122.6852         12     278.8206       0.0134    5529.5046    5529.5180    5526.7490    5526.8348       0.0857
