~VERSION INFORMATION
VERS.           2.0   :CWLS Log ASCII Standard - VERSION 2.0
WRAP.           NO    :One Line per depth step
PROD.  Schlumberger   :LAS Producer
PROG.  DLIS to ASCII 2.2                               :LAS Program name and version
CREA.        2020/10/30 12:18                          :LAS Creation date {YYYY/MM/DD hh:mm}
SOURCE.     XPT_HRLA_TLD_MCFL_063LTP.DLIS              :DLIS File Name
FILE-ID.     XPT_HRLA_TLD_MCFL_063LTP                  :File Identification Number
#--------------------------------------------------
~WELL INFORMATION
#MNEM.UNIT      DATA             DESCRIPTION
#---- ------ --------------   -----------------------------
STRT .S          150.0       :START TIME      
STOP .S          316.0       :STOP TIME      
STEP .S            1.0       :STEP     
NULL .          -999.25      :NULL VALUE
COMP .        Nexus Energy                             :COMPANY
WELL .        Crux-3                                   :WELL
FLD  .        Crux                                     :FIELD
LOC  .        Easting: 656981.7mE                      :LOCATION
CNTY .        Sedco-703                                :COUNTY
STAT .        Northern Territory                       :STATE
CTRY .        Australia                                :COUNTRY
API  .                                                 :API NUMBER
UWI  .                                                 :UNIQUE WELL ID
DATE .        31-Dec-2007                              :LOG DATE {DD-MMM-YYYY}
SRVC .        Schlumberger                             :SERVICE COMPANY
LATI .DEG     12*57'32.63" S                           :LATITUDE
LONG .DEG     124*26'50.07" E                          :LONGITUDE
GDAT .                                                 :GeoDetic Datum
#-----------------------------------------------------------------------------
~PARAMETER INFORMATION
#MNEM.UNIT    VALUE                      DESCRIPTION
#---- -----   --------------------       ------------------------
RUN  .          1                        :RUN NUMBER
PDAT .        LAT                        :Permanent Datum
EPD  .M           0.000000               :Elevation of Permanent Datum above Mean Sea Level
EPD  .M           0.000000               :Elevation of tool zero above Mean Sea Level
LMF  .          DF                       :Logging Measured From (Name of Logging Elevation Reference)
APD  .M          26.400000               :Elevation of Depth Reference (LMF) above Permanent Datum
#-----------------------------------------------------------------------------
~CURVE INFORMATION
#MNEM.UNIT   API CODE                                  DESCRIPTION
#---- -----  --------                                  -----------------------
TIME .S                                                :TIME {F10.1}
TENS_SL.LBF                                            :Cable Tension {F13.4}
DEPT_SL..1IN                                           :Station logging depth {F13.4}
PDEP_XPT.M                                             :XPT Probe Depth {F13.4}
MTEP_SAP.DEGC                                          :Sapphire Gauge Manometer Temperature {F13.4}
MTEP_HYD.DEGC                                          :Hydrostatic Sapphire Gauge Manometer Temperature {F13.4}
PCO_HYD.PSI                                            :Hydrostatic Sapphire Dynamic Compensation {F13.4}
PND_HYD.PSI                                            :Hydrostatic Sapphire Pressure Without Dynamic Compensation {F13.4}
CP_HYD.PSI                                             :Hydrostatic Sapphire Pressure With Dynamic Compensation {F13.4}
MTEP_QG.DEGC                                           :CQG Manometer Temperature {F13.4}
PTNO_XPT.                                              :XPT Pretest Number {I11}
ETIM_XPT.S                                             :Elapsed Logging Time {F13.4}
PCO_SAP.PSI                                            :Sapphire Dynamic Compensation {F13.4}
PND_SAP.PSI                                            :Sapphire Pressure Without Dynamic Compensation {F13.4}
CP_SAP.PSI                                             :Sapphire Pressure With Dynamic Compensation {F13.4}
QNDP .PSI                                              :CQG Pressure Without Dynamic Compensation {F13.4}
QCP  .PSI                                              :CQG Pressure With Dynamic Compensation {F13.4}
QPCO .PSI                                              :CQG Dynamic Compensation {F13.4}
#-----------------------------------------------------------------------------
# 
#     TIME      TENS_SL      DEPT_SL      PDEP_XPT     MTEP_SAP     MTEP_HYD     PCO_HYD      PND_HYD       CP_HYD      MTEP_QG       PTNO_XPT       ETIM_XPT     PCO_SAP      PND_SAP       CP_SAP        QNDP         QCP          QPCO
#
~A  
# ...
     185.0    5126.4534 1528190.0000    3879.9937     129.5627     130.0626      -0.0492    6309.5382    6309.4888     130.2748         26      35.3493      -0.0408    6306.8885    6306.8479    6305.0445    6304.9146      -0.1297
     186.0    5063.3774 1528190.0000    3879.9937     129.5619     130.0612      -0.0474    6309.4929    6309.4457     130.2744         26      36.3493      -0.0405    6306.8864    6306.8459    6305.1007    6304.9709      -0.1298
     187.0    5030.6648 1528190.0000    3879.9937     129.5627     130.0610      -0.0463    6309.4511    6309.4047     130.2742         26      37.3493      -0.0418    6306.8557    6306.8140    6305.0959    6304.9660      -0.1299
     188.0    5027.8282 1528190.0000    3879.9937     129.5595     130.0590      -0.0472    6309.6343    6309.5870     130.2738         26      38.3493      -0.0438    6307.0461    6307.0023    6305.1345    6305.0042      -0.1301
     189.0    5036.1239 1528190.0000    3879.9937     129.5622     130.0597      -0.0494    6309.6484    6309.5990     130.2732         26      39.3493      -0.0459    6307.0711    6307.0251    6305.1647    6305.0342      -0.1306
     190.0    5040.5466 1528190.0000    3879.9937     129.5592     130.0590      -0.0521    6309.7154    6309.6631     130.2728         26      40.3493      -0.0482    6306.9252    6306.8769    6305.1604    6305.0291      -0.1313
     191.0    5090.6986 1528190.0000    3879.9937     129.5582     130.0568      -0.0562    6309.6170    6309.5606     130.2724         26      41.3493      -0.0508    6306.9331    6306.8824    6305.0837    6304.9520      -0.1317
     192.0    5103.8761 1528190.0000    3879.9937     129.5581     130.0544      -0.0611    6309.5308    6309.4696     130.2719         26      42.3493      -0.0521    6306.9094    6306.8571    6305.0716    6304.9397      -0.1320
     193.0    5134.3831 1528190.0000    3879.9937     129.5571     130.0551      -0.0634    6309.4785    6309.4150     130.2715         26      43.3493      -0.0511    6306.9202    6306.8692    6305.0528    6304.9205      -0.1324
     194.0    5138.4732 1528190.0000    3879.9937     129.5553     130.0537      -0.0621    6309.4130    6309.3509     130.2711         26      44.3493      -0.0485    6306.8049    6306.7564    6304.9967    6304.8638      -0.1330
     195.0    5102.3295 1528190.0000    3879.9937     129.5551     130.0520      -0.0598    6309.3946    6309.3346     130.2709         26      45.3493      -0.0464    6306.8598    6306.8135    6305.0140    6304.8807      -0.1334
     196.0    5077.4451 1528190.0000    3879.9937     129.5530     130.0508      -0.0585    6309.4920    6309.4336     130.2703         26      46.3493      -0.0453    6306.8649    6306.8195    6305.1287    6304.9954      -0.1335
     197.0    5077.4591 1528190.0000    3879.9937     129.5532     130.0504      -0.0561    6309.4880    6309.4317     130.2699         26      47.3493      -0.0449    6306.9957    6306.9508    6305.1336    6304.9999      -0.1336
     198.0    5052.9323 1528190.0000    3879.9937     129.5526     130.0498      -0.0512    6309.4864    6309.4354     130.2694         26      48.3493      -0.0451    6307.0663    6307.0213    6305.1578    6305.0241      -0.1340
     199.0    5048.8480 1528190.0000    3879.9937     129.5521     130.0479      -0.0467    6309.5369    6309.4902     130.2691         26      49.3493      -0.0462    6306.9002    6306.8540    6305.1057    6304.9712      -0.1345
     200.0    5097.6986 1528190.0000    3879.9937     129.5510     130.0475      -0.0463    6309.5067    6309.4604     130.2685         26      50.3493      -0.0475    6307.0236    6306.9762    6305.0916    6304.9568      -0.1349
     201.0    5112.2733 1528190.0000    3879.9937     129.5506     130.0473      -0.0496    6309.4544    6309.4048     130.2682         26      51.3493      -0.0485    6306.9167    6306.8683    6305.0834    6304.9486      -0.1348
     202.0    5142.5887 1528190.0000    3879.9937     129.5495     130.0460      -0.0530    6309.4711    6309.4181     130.2679         26      52.3493      -0.0485    6306.8449    6306.7966    6304.9928    6304.8575      -0.1351
     203.0    5149.5070 1528190.0000    3879.9937     129.5483     130.0463      -0.0543    6309.4443    6309.3901     130.2676         26      53.3493      -0.0480    6306.8643    6306.8164    6305.0210    6304.8853      -0.1359
     204.0    5133.5690 1528190.0000    3879.9937     129.5473     130.0444      -0.0537    6309.3625    6309.3088     130.2670         26      54.3493      -0.0472    6306.7833    6306.7361    6305.0146    6304.8783      -0.1365
     205.0    5077.9266 1528190.0000    3879.9937     129.5465     130.0418      -0.0535    6309.3958    6309.3424     130.2667         26      55.3493      -0.0464    6306.9057    6306.8594    6305.0892    6304.9525      -0.1368
     206.0    5024.4648 1528190.0000    3879.9937     129.5461     130.0418      -0.0527    6309.3961    6309.3433     130.2660         26      56.3493      -0.0457    6306.9786    6306.9327    6305.1177    6304.9805      -0.1371
     207.0    5057.6986 1528190.0000    3879.9937     129.5438     130.0407      -0.0502    6309.5044    6309.4543     130.2657         26      57.3493      -0.0449    6306.9993    6306.9545    6305.1606    6305.0228      -0.1379
     208.0    5051.3155 1528190.0000    3879.9937     129.5442     130.0411      -0.0463    6309.6593    6309.6129     130.2653         26      58.3493      -0.0430    6307.2143    6307.1713    6305.3292    6305.1905      -0.1385
     209.0    5044.3352 1528190.0000    3879.9937     129.5426     130.0396      -0.0453    6309.6739    6309.6285     130.2649         26      59.3493      -0.0413    6307.0907    6307.0495    6305.2472    6305.1085      -0.1388
     210.0    5085.5945 1528190.0000    3879.9937     129.5417     130.0381      -0.0474    6309.5983    6309.5508     130.2642         26      60.3493      -0.0401    6306.9438    6306.9037    6305.1632    6305.0245      -0.1388
     211.0    5132.4591 1528190.0000    3879.9937     129.5423     130.0371      -0.0504    6309.4504    6309.4001     130.2640         26      61.3493      -0.0408    6306.9254    6306.8849    6305.1130    6304.9743      -0.1385
     212.0    5121.2056 1528190.0000    3879.9937     129.5419     130.0376      -0.0515    6309.5322    6309.4810     130.2635         26      62.3493      -0.0431    6306.8925    6306.8493    6305.1199    6304.9800      -0.1401
     213.0    5120.8902 1528190.0000    3879.9937     129.5398     130.0361      -0.0514    6309.4303    6309.3790     130.2630         26      63.3493      -0.0505    6306.8647    6306.8143    6305.0091    6304.8582      -0.1508
     214.0    5109.3915 1528190.0000    3879.9937     129.5389     130.0341      -0.0513    6309.4331    6309.3818     130.2628         26      64.3493      -0.0678    6306.8862    6306.8183    6305.0568    6304.8779      -0.1787
     215.0    5075.8902 1528190.0000    3879.9937     129.5380     130.0340      -0.0513    6309.4824    6309.4311     130.2622         26      65.3493      -0.0958    6306.9876    6306.8920    6305.1647    6304.9420      -0.2227
     216.0    5069.6309 1528190.0000    3879.9937     129.5363     130.0323      -0.0523    6309.4751    6309.4228     130.2618         26      66.3493      -0.1262    6306.9453    6306.8191    6305.0968    6304.8254      -0.2715
     217.0    5042.0479 1528190.0000    3879.9937     129.5378     130.0315      -0.0557    6309.5268    6309.4712     130.2612         26      67.3493      -0.1473    6301.9226    6301.7754    6300.1676    6299.8524      -0.3152
     218.0    5067.4029 1528190.0000    3879.9937     129.5323     130.0320      -0.0600    6309.5324    6309.4725     130.2597         26      68.3493      -0.1548    6282.3812    6282.2265    6280.9943    6280.6430      -0.3513
     219.0    5109.6028 1528190.0000    3879.9937     129.5249     130.0316      -0.0621    6309.5874    6309.5254     130.2575         26      69.3493      -0.1509    6245.6776    6245.5267    6244.5323    6244.1529      -0.3792
