~VERSION INFORMATION
VERS.           2.0   :CWLS Log ASCII Standard - VERSION 2.0
WRAP.           NO    :One Line per depth step
PROD.  Schlumberger   :LAS Producer
PROG.  DLIS to ASCII 2.2                               :LAS Program name and version
CREA.        2020/10/30 12:18                          :LAS Creation date {YYYY/MM/DD hh:mm}
SOURCE.     XPT_HRLA_TLD_MCFL_060LTP.DLIS              :DLIS File Name
FILE-ID.     XPT_HRLA_TLD_MCFL_060LTP                  :File Identification Number
#--------------------------------------------------
~WELL INFORMATION
#MNEM.UNIT      DATA             DESCRIPTION
#---- ------ --------------   -----------------------------
STRT .S         8759.0       :START TIME      
STOP .S         8943.0       :STOP TIME      
STEP .S            1.0       :STEP     
NULL .          -999.25      :NULL VALUE
COMP .        Nexus Energy                             :COMPANY
WELL .        Crux-3                                   :WELL
FLD  .        Crux                                     :FIELD
LOC  .        Easting: 656981.7mE                      :LOCATION
CNTY .        Sedco-703                                :COUNTY
STAT .        Northern Territory                       :STATE
CTRY .        Australia                                :COUNTRY
API  .                                                 :API NUMBER
UWI  .                                                 :UNIQUE WELL ID
DATE .        31-Dec-2007                              :LOG DATE {DD-MMM-YYYY}
SRVC .        Schlumberger                             :SERVICE COMPANY
LATI .DEG     12*57'32.63" S                           :LATITUDE
LONG .DEG     124*26'50.07" E                          :LONGITUDE
GDAT .                                                 :GeoDetic Datum
#-----------------------------------------------------------------------------
~PARAMETER INFORMATION
#MNEM.UNIT    VALUE                      DESCRIPTION
#---- -----   --------------------       ------------------------
RUN  .          1                        :RUN NUMBER
PDAT .        LAT                        :Permanent Datum
EPD  .M           0.000000               :Elevation of Permanent Datum above Mean Sea Level
EPD  .M           0.000000               :Elevation of tool zero above Mean Sea Level
LMF  .          DF                       :Logging Measured From (Name of Logging Elevation Reference)
APD  .M          26.400000               :Elevation of Depth Reference (LMF) above Permanent Datum
#-----------------------------------------------------------------------------
~CURVE INFORMATION
#MNEM.UNIT   API CODE                                  DESCRIPTION
#---- -----  --------                                  -----------------------
TIME .S                                                :TIME {F10.1}
TENS_SL.LBF                                            :Cable Tension {F13.4}
DEPT_SL..1IN                                           :Station logging depth {F13.4}
PDEP_XPT.M                                             :XPT Probe Depth {F13.4}
MTEP_SAP.DEGC                                          :Sapphire Gauge Manometer Temperature {F13.4}
MTEP_HYD.DEGC                                          :Hydrostatic Sapphire Gauge Manometer Temperature {F13.4}
PCO_HYD.PSI                                            :Hydrostatic Sapphire Dynamic Compensation {F13.4}
PND_HYD.PSI                                            :Hydrostatic Sapphire Pressure Without Dynamic Compensation {F13.4}
CP_HYD.PSI                                             :Hydrostatic Sapphire Pressure With Dynamic Compensation {F13.4}
MTEP_QG.DEGC                                           :CQG Manometer Temperature {F13.4}
PTNO_XPT.                                              :XPT Pretest Number {I11}
ETIM_XPT.S                                             :Elapsed Logging Time {F13.4}
PCO_SAP.PSI                                            :Sapphire Dynamic Compensation {F13.4}
PND_SAP.PSI                                            :Sapphire Pressure Without Dynamic Compensation {F13.4}
CP_SAP.PSI                                             :Sapphire Pressure With Dynamic Compensation {F13.4}
QNDP .PSI                                              :CQG Pressure Without Dynamic Compensation {F13.4}
QCP  .PSI                                              :CQG Pressure With Dynamic Compensation {F13.4}
QPCO .PSI                                              :CQG Dynamic Compensation {F13.4}
#-----------------------------------------------------------------------------
# 
#     TIME      TENS_SL      DEPT_SL      PDEP_XPT     MTEP_SAP     MTEP_HYD     PCO_HYD      PND_HYD       CP_HYD      MTEP_QG       PTNO_XPT       ETIM_XPT     PCO_SAP      PND_SAP       CP_SAP        QNDP         QCP          QPCO
#
~A  
# ...
    8864.0    5137.9900 1538425.0000    3905.9902     129.0672     129.6121       0.0246    6350.3992    6350.4237     129.6335         24     105.0020       0.2836    6346.2104    6346.4941    6342.2885    6342.7730       0.4843
    8865.0    5132.9620 1538425.0000    3905.9902     129.0695     129.6142       0.0245    6350.4683    6350.4927     129.6343         24     106.0020       0.2460    6348.7336    6348.9796    6344.8122    6345.3146       0.5025
    8866.0    5113.9440 1538425.0000    3905.9902     129.0699     129.6152       0.0242    6350.3711    6350.3952     129.6350         24     107.0020       0.1695    6348.3442    6348.5137    6344.7546    6345.2203       0.4657
    8867.0    5085.9380 1538425.0000    3905.9902     129.0699     129.6129       0.0241    6350.4081    6350.4320     129.6364         24     108.0020       0.0814    6348.4140    6348.4954    6344.9297    6345.3374       0.4077
    8868.0    5054.9480 1538425.0000    3905.9902     129.0700     129.6136       0.0241    6350.4885    6350.5125     129.6375         24     109.0020       0.0159    6348.2243    6348.2401    6344.9780    6345.3473       0.3691
    8869.0    5028.9820 1538425.0000    3905.9902     129.0699     129.6149       0.0233    6350.5292    6350.5523     129.6387         24     110.0020      -0.0165    6348.1949    6348.1785    6345.0745    6345.4295       0.3550
    8870.0    5020.0020 1538425.0000    3905.9902     129.0680     129.6144       0.0224    6350.4844    6350.5069     129.6399         24     111.0020      -0.0266    6348.1557    6348.1288    6345.1550    6345.5021       0.3471
    8871.0    5021.0320 1538425.0000    3905.9902     129.0693     129.6165       0.0228    6350.6276    6350.6502     129.6407         24     112.0020      -0.0285    6348.1181    6348.0897    6345.2120    6345.5425       0.3306
    8872.0    5037.0420 1538425.0000    3905.9902     129.0681     129.6170       0.0243    6350.6320    6350.6563     129.6421         24     113.0020      -0.0279    6347.9365    6347.9085    6345.2187    6345.5275       0.3090
    8873.0    5058.0140 1538425.0000    3905.9902     129.0662     129.6148       0.0244    6350.4578    6350.4822     129.6430         24     114.0020      -0.0266    6347.9573    6347.9304    6345.2560    6345.5406       0.2849
    8874.0    5065.0020 1538425.0000    3905.9902     129.0661     129.6170       0.0231    6350.6116    6350.6349     129.6438         24     115.0020      -0.0252    6347.9258    6347.9006    6345.2822    6345.5424       0.2603
    8875.0    5065.9800 1538425.0000    3905.9902     129.0663     129.6177       0.0214    6350.5399    6350.5616     129.6444         24     116.0020      -0.0236    6347.8672    6347.8436    6345.2841    6345.5207       0.2366
    8876.0    5055.9820 1538425.0000    3905.9902     129.0650     129.6186       0.0186    6350.5589    6350.5774     129.6452         24     117.0020      -0.0218    6347.8856    6347.8636    6345.3096    6345.5244       0.2148
    8877.0    5046.9660 1538425.0000    3905.9902     129.0656     129.6182       0.0142    6350.5457    6350.5598     129.6457         24     118.0020      -0.0188    6347.9204    6347.9017    6345.3387    6345.5339       0.1952
    8878.0    5029.9700 1538425.0000    3905.9902     129.0661     129.6185       0.0105    6350.6078    6350.6182     129.6464         24     119.0020      -0.0145    6347.8764    6347.8617    6345.3637    6345.5416       0.1778
    8879.0    5014.9940 1538425.0000    3905.9902     129.0654     129.6198       0.0108    6350.5415    6350.5523     129.6469         24     120.0020      -0.0095    6347.7985    6347.7893    6345.3146    6345.4772       0.1624
    8880.0    5011.9960 1538425.0000    3905.9902     129.0641     129.6177       0.0143    6350.5402    6350.5543     129.6474         24     121.0020      -0.0048    6347.8462    6347.8413    6345.3669    6345.5161       0.1491
    8881.0    5010.0500 1538425.0000    3905.9902     129.0655     129.6177       0.0186    6350.5995    6350.6180     129.6478         24     122.0020       0.0001    6347.8517    6347.8517    6345.3478    6345.4852       0.1373
    8882.0    5035.0960 1538425.0000    3905.9902     129.0639     129.6197       0.0236    6350.4204    6350.4439     129.6482         24     123.0020       0.0048    6347.8742    6347.8791    6345.4249    6345.5508       0.1261
    8883.0    5083.0600 1538425.0000    3905.9902     129.0650     129.6208       0.0292    6350.5925    6350.6218     129.6486         24     124.0020       0.0082    6347.8552    6347.8635    6345.4439    6345.5567       0.1130
    8884.0    5113.0120 1538425.0000    3905.9902     129.0667     129.6204       0.0302    6350.5286    6350.5589     129.6488         24     125.0020       0.0085    6347.8719    6347.8803    6345.4270    6345.5320       0.1050
    8885.0    5118.9400 1538425.0000    3905.9902     129.0672     129.6220       0.0269    6350.5659    6350.5927     129.6491         24     126.0020       0.0074    6347.8777    6347.8850    6345.4359    6345.5321       0.0963
    8886.0    5088.9860 1538425.0000    3905.9902     129.0650     129.6210       0.0202    6350.5550    6350.5751     129.6495         24     127.0020       0.0060    6347.8149    6347.8208    6345.4187    6345.5061       0.0875
    8887.0    5081.9260 1538425.0000    3905.9902     129.0649     129.6228       0.0168    6350.5236    6350.5405     129.6497         24     128.0020       0.0056    6346.1433    6346.1488    6343.8051    6343.8872       0.0824
    8888.0    5044.9380 1538425.0000    3905.9902     129.0646     129.6228       0.0145    6350.4538    6350.4684     129.6499         25     129.0020       0.0061    6342.9946    6343.0005    6340.7122    6340.7898       0.0775
    8889.0    5013.9220 1538425.0000    3905.9902     129.0666     129.6220       0.0132    6350.5059    6350.5190     129.6501         25     130.0020       0.0076    6345.3117    6345.3192    6342.8662    6342.9413       0.0751
    8890.0    4975.0200 1538425.0000    3905.9902     129.0654     129.6229       0.0130    6350.5151    6350.5281     129.6503         25     131.0020       0.0098    6344.1906    6344.2005    6341.8731    6341.9478       0.0745
    8891.0    4984.9720 1538425.0000    3905.9902     129.0667     129.6213       0.0152    6350.4376    6350.4528     129.6505         25     132.0020       0.0122    6345.3857    6345.3979    6343.0086    6343.0828       0.0744
    8892.0    4971.0120 1538425.0000    3905.9902     129.0654     129.6243       0.0192    6350.4697    6350.4891     129.6510         25     133.0020       0.0148    6345.3126    6345.3275    6342.9807    6343.0549       0.0743
    8893.0    4977.1860 1538425.0000    3905.9902     129.0666     129.6243       0.0224    6350.5908    6350.6131     129.6510         25     134.0020       0.0175    6345.3846    6345.4024    6342.9672    6343.0418       0.0745
    8894.0    5070.1580 1538425.0000    3905.9902     129.0653     129.6228       0.0232    6350.4537    6350.4771     129.6514         25     135.0020       0.0208    6345.3115    6345.3325    6342.9648    6343.0400       0.0752
    8895.0    5148.9100 1538425.0000    3905.9902     129.0664     129.6251       0.0236    6350.5489    6350.5725     129.6517         25     136.0020       0.0240    6345.3205    6345.3443    6342.9869    6343.0632       0.0765
    8896.0    5103.9240 1538425.0000    3905.9902     129.0668     129.6258       0.0246    6350.4660    6350.4908     129.6519         25     137.0020       0.0261    6345.2583    6345.2845    6342.8970    6342.9758       0.0786
    8897.0    5065.9960 1538425.0000    3905.9902     129.0668     129.6251       0.0245    6350.3566    6350.3810     129.6521         25     138.0020       0.0260    6345.8395    6345.8654    6343.4523    6343.5333       0.0812
    8898.0    5063.8460 1538425.0000    3905.9902     129.0696     129.6253       0.0227    6350.3705    6350.3933     129.6523         25     139.0020       0.0236    6347.8514    6347.8750    6345.3761    6345.4593       0.0830
