~VERSION INFORMATION
VERS.           2.0   :CWLS Log ASCII Standard - VERSION 2.0
WRAP.           NO    :One Line per depth step
PROD.  Schlumberger   :LAS Producer
PROG.  DLIS to ASCII 2.2                               :LAS Program name and version
CREA.        2020/10/30 12:18                          :LAS Creation date {YYYY/MM/DD hh:mm}
SOURCE.     XPT_HRLA_TLD_MCFL_046LTP.DLIS              :DLIS File Name
FILE-ID.     XPT_HRLA_TLD_MCFL_046LTP                  :File Identification Number
#--------------------------------------------------
~WELL INFORMATION
#MNEM.UNIT      DATA             DESCRIPTION
#---- ------ --------------   -----------------------------
STRT .S         4617.0       :START TIME      
STOP .S         5507.0       :STOP TIME      
STEP .S            1.0       :STEP     
NULL .          -999.25      :NULL VALUE
COMP .        Nexus Energy                             :COMPANY
WELL .        Crux-3                                   :WELL
FLD  .        Crux                                     :FIELD
LOC  .        Easting: 656981.7mE                      :LOCATION
CNTY .        Sedco-703                                :COUNTY
STAT .        Northern Territory                       :STATE
CTRY .        Australia                                :COUNTRY
API  .                                                 :API NUMBER
UWI  .                                                 :UNIQUE WELL ID
DATE .        31-Dec-2007                              :LOG DATE {DD-MMM-YYYY}
SRVC .        Schlumberger                             :SERVICE COMPANY
LATI .DEG     12*57'32.63" S                           :LATITUDE
LONG .DEG     124*26'50.07" E                          :LONGITUDE
GDAT .                                                 :GeoDetic Datum
#-----------------------------------------------------------------------------
~PARAMETER INFORMATION
#MNEM.UNIT    VALUE                      DESCRIPTION
#---- -----   --------------------       ------------------------
RUN  .          1                        :RUN NUMBER
PDAT .        LAT                        :Permanent Datum
EPD  .M           0.000000               :Elevation of Permanent Datum above Mean Sea Level
EPD  .M           0.000000               :Elevation of tool zero above Mean Sea Level
LMF  .          DF                       :Logging Measured From (Name of Logging Elevation Reference)
APD  .M          26.400000               :Elevation of Depth Reference (LMF) above Permanent Datum
#-----------------------------------------------------------------------------
~CURVE INFORMATION
#MNEM.UNIT   API CODE                                  DESCRIPTION
#---- -----  --------                                  -----------------------
TIME .S                                                :TIME {F10.1}
TENS_SL.LBF                                            :Cable Tension {F13.4}
DEPT_SL..1IN                                           :Station logging depth {F13.4}
PDEP_XPT.M                                             :XPT Probe Depth {F13.4}
MTEP_SAP.DEGC                                          :Sapphire Gauge Manometer Temperature {F13.4}
MTEP_HYD.DEGC                                          :Hydrostatic Sapphire Gauge Manometer Temperature {F13.4}
PCO_HYD.PSI                                            :Hydrostatic Sapphire Dynamic Compensation {F13.4}
PND_HYD.PSI                                            :Hydrostatic Sapphire Pressure Without Dynamic Compensation {F13.4}
CP_HYD.PSI                                             :Hydrostatic Sapphire Pressure With Dynamic Compensation {F13.4}
MTEP_QG.DEGC                                           :CQG Manometer Temperature {F13.4}
PTNO_XPT.                                              :XPT Pretest Number {I11}
ETIM_XPT.S                                             :Elapsed Logging Time {F13.4}
PCO_SAP.PSI                                            :Sapphire Dynamic Compensation {F13.4}
PND_SAP.PSI                                            :Sapphire Pressure Without Dynamic Compensation {F13.4}
CP_SAP.PSI                                             :Sapphire Pressure With Dynamic Compensation {F13.4}
QNDP .PSI                                              :CQG Pressure Without Dynamic Compensation {F13.4}
QCP  .PSI                                              :CQG Pressure With Dynamic Compensation {F13.4}
QPCO .PSI                                              :CQG Dynamic Compensation {F13.4}
#-----------------------------------------------------------------------------
# 
#     TIME      TENS_SL      DEPT_SL      PDEP_XPT     MTEP_SAP     MTEP_HYD     PCO_HYD      PND_HYD       CP_HYD      MTEP_QG       PTNO_XPT       ETIM_XPT     PCO_SAP      PND_SAP       CP_SAP        QNDP         QCP          QPCO
#
~A  
# ...
    4827.0    4751.6180 1443523.0000    3664.9392     121.8528     122.4028       0.0070    5967.5063    5967.5132     122.4258          9     209.6870      -0.0107    5426.4884    5426.4777    5422.9178    5423.4015       0.4837
    4828.0    4731.9550 1443523.0000    3664.9392     121.8558     122.4038       0.0068    5967.6535    5967.6603     122.4276          9     210.6870      -0.0098    5431.2931    5431.2834    5427.7143    5428.1699       0.4557
    4829.0    4718.2520 1443523.0000    3664.9392     121.8550     122.4031       0.0060    5967.6742    5967.6800     122.4289          9     211.6870      -0.0112    5435.6339    5435.6226    5432.0717    5432.5009       0.4292
    4830.0    4703.9470 1443523.0000    3664.9392     121.8560     122.4058       0.0057    5967.7773    5967.7832     122.4302          9     212.6870      -0.0152    5439.3263    5439.3112    5435.8156    5436.2198       0.4040
    4831.0    4713.1140 1443523.0000    3664.9392     121.8527     122.4046       0.0043    5967.6452    5967.6495     122.4315          9     213.6870      -0.0214    5443.0136    5442.9922    5439.6313    5440.0115       0.3801
    4832.0    4801.7530 1443523.0000    3664.9392     121.8530     122.4040       0.0010    5967.6162    5967.6171     122.4331          9     214.6870      -0.0272    5446.3284    5446.3011    5443.0844    5443.4419       0.3576
    4833.0    4830.7560 1443523.0000    3664.9392     121.8544     122.4039      -0.0015    5967.4298    5967.4284     122.4338          9     215.6870      -0.0297    5449.4666    5449.4368    5446.0606    5446.3969       0.3364
    4834.0    4813.2600 1443523.0000    3664.9392     121.8536     122.4051      -0.0011    5967.4707    5967.4695     122.4348          9     216.6870      -0.0291    5452.5193    5452.4902    5449.2219    5449.5381       0.3162
    4835.0    4825.5490 1443523.0000    3664.9392     121.8525     122.4035       0.0011    5967.2978    5967.2989     122.4360          9     217.6870      -0.0268    5455.2452    5455.2185    5452.0045    5452.3022       0.2977
    4836.0    4849.1140 1443523.0000    3664.9392     121.8516     122.4039       0.0029    5967.3965    5967.3994     122.4372          9     218.6870      -0.0236    5457.6117    5457.5882    5454.3973    5454.6778       0.2806
    4837.0    4813.4060 1443523.0000    3664.9392     121.8503     122.4045       0.0039    5967.5036    5967.5075     122.4379          9     219.6870      -0.0189    5459.9304    5459.9115    5456.8253    5457.0902       0.2650
    4838.0    4783.6950 1443523.0000    3664.9392     121.8513     122.4045       0.0047    5967.6359    5967.6406     122.4388          9     220.6870      -0.0133    5461.9879    5461.9745    5458.9040    5459.1542       0.2504
    4839.0    4745.3370 1443523.0000    3664.9392     121.8501     122.4029       0.0052    5967.4585    5967.4638     122.4397          9     221.6870      -0.0076    5464.2398    5464.2324    5461.0999    5461.3364       0.2367
    4840.0    4716.2600 1443523.0000    3664.9392     121.8520     122.4058       0.0053    5967.7130    5967.7184     122.4401          9     222.6870      -0.0024    5466.3727    5466.3702    5463.2483    5463.4724       0.2240
    4841.0    4714.8090 1443523.0000    3664.9392     121.8494     122.4046       0.0053    5967.7270    5967.7324     122.4409          9     223.6870       0.0004    5468.1090    5468.1093    5465.0684    5465.2809       0.2125
    4842.0    4703.2600 1443523.0000    3664.9392     121.8519     122.4036       0.0060    5967.6341    5967.6400     122.4418          9     224.6870      -0.0006    5469.8504    5469.8499    5466.7634    5466.9652       0.2020
    4843.0    4760.2040 1443523.0000    3664.9392     121.8498     122.4058       0.0076    5967.6577    5967.6652     122.4421          9     225.6870      -0.0044    5471.4179    5471.4135    5468.4310    5468.6230       0.1920
    4844.0    4802.7400 1443523.0000    3664.9392     121.8525     122.4055       0.0094    5967.5838    5967.5931     122.4429          9     226.6870      -0.0079    5472.9088    5472.9008    5469.8998    5470.0824       0.1826
    4845.0    4832.3580 1443523.0000    3664.9392     121.8515     122.4043       0.0102    5967.5250    5967.5353     122.4434          9     227.6870      -0.0094    5474.4356    5474.4263    5471.4082    5471.5816       0.1736
    4846.0    4850.5570 1443523.0000    3664.9392     121.8499     122.4059       0.0092    5967.4196    5967.4287     122.4439          9     228.6870      -0.0099    5475.9251    5475.9153    5472.9386    5473.1044       0.1657
    4847.0    4835.4510 1443523.0000    3664.9392     121.8506     122.4053       0.0068    5967.4136    5967.4203     122.4445          9     229.6870      -0.0105    5477.2633    5477.2527    5474.2802    5474.4386       0.1583
    4848.0    4809.1380 1443523.0000    3664.9392     121.8502     122.4066       0.0036    5967.5430    5967.5464     122.4450          9     230.6870      -0.0103    5478.5937    5478.5834    5475.6639    5475.8154       0.1516
    4849.0    4750.8490 1443523.0000    3664.9392     121.8488     122.4053       0.0011    5967.5412    5967.5422     122.4453          9     231.6870      -0.0075    5479.9888    5479.9814    5477.0986    5477.2445       0.1459
    4850.0    4732.1220 1443523.0000    3664.9392     121.8504     122.4060       0.0000    5967.5508    5967.5508     122.4459          9     232.6870      -0.0022    5481.1995    5481.1973    5478.3285    5478.4687       0.1401
    4851.0    4738.1220 1443523.0000    3664.9392     121.8511     122.4051      -0.0002    5967.6475    5967.6475     122.4461          9     233.6870       0.0027    5482.6132    5482.6161    5479.5697    5479.7045       0.1347
    4852.0    4720.0770 1443523.0000    3664.9392     121.8496     122.4057      -0.0012    5967.7075    5967.7064     122.4467          9     234.6870       0.0046    5483.6511    5483.6556    5480.7982    5480.9277       0.1294
    4853.0    4721.3050 1443523.0000    3664.9392     121.8494     122.4060      -0.0030    5967.6124    5967.6097     122.4472          9     235.6870       0.0044    5484.6676    5484.6720    5481.8480    5481.9721       0.1241
    4854.0    4728.0610 1443523.0000    3664.9392     121.8528     122.4051      -0.0039    5967.5898    5967.5859     122.4474          9     236.6870       0.0038    5485.8848    5485.8887    5482.8996    5483.0188       0.1191
    4855.0    4727.6260 1443523.0000    3664.9392     121.8498     122.4057      -0.0029    5967.5718    5967.5690     122.4480          9     237.6870       0.0023    5486.9444    5486.9467    5483.9560    5484.0710       0.1150
    4856.0    4726.3130 1443523.0000    3664.9392     121.8497     122.4048      -0.0007    5967.5519    5967.5510     122.4484          9     238.6870      -0.0014    5487.7719    5487.7705    5484.8598    5484.9715       0.1116
    4857.0    4739.7400 1443523.0000    3664.9392     121.8508     122.4043       0.0021    5967.5820    5967.5840     122.4484          9     239.6870      -0.0048    5488.6024    5488.5975    5485.7480    5485.8560       0.1081
    4858.0    4774.8540 1443523.0000    3664.9392     121.8490     122.4053       0.0057    5967.5249    5967.5306     122.4489          9     240.6870      -0.0052    5489.4290    5489.4238    5486.6352    5486.7399       0.1045
    4859.0    4819.6020 1443523.0000    3664.9392     121.8499     122.4053       0.0092    5967.5513    5967.5607     122.4494          9     241.6870      -0.0022    5490.1727    5490.1704    5487.3550    5487.4564       0.1013
    4860.0    4826.4430 1443523.0000    3664.9392     121.8498     122.4062       0.0112    5967.4826    5967.4938     122.4497          9     242.6870       0.0017    5490.8866    5490.8885    5488.1376    5488.2363       0.0984
    4861.0    4842.2360 1443523.0000    3664.9392     121.8497     122.4066       0.0105    5967.5149    5967.5254     122.4500          9     243.6870       0.0048    5491.7218    5491.7265    5488.8711    5488.9660       0.0950
