~VERSION INFORMATION
VERS.           2.0   :CWLS Log ASCII Standard - VERSION 2.0
WRAP.           NO    :One Line per depth step
PROD.  Schlumberger   :LAS Producer
PROG.  DLIS to ASCII 2.2                               :LAS Program name and version
CREA.        2020/10/30 12:18                          :LAS Creation date {YYYY/MM/DD hh:mm}
SOURCE.     XPT_HRLA_TLD_MCFL_049LTP.DLIS              :DLIS File Name
FILE-ID.     XPT_HRLA_TLD_MCFL_049LTP                  :File Identification Number
#--------------------------------------------------
~WELL INFORMATION
#MNEM.UNIT      DATA             DESCRIPTION
#---- ------ --------------   -----------------------------
STRT .S          815.0       :START TIME      
STOP .S         1341.0       :STOP TIME      
STEP .S            1.0       :STEP     
NULL .          -999.25      :NULL VALUE
COMP .        Nexus Energy                             :COMPANY
WELL .        Crux-3                                   :WELL
FLD  .        Crux                                     :FIELD
LOC  .        Easting: 656981.7mE                      :LOCATION
CNTY .        Sedco-703                                :COUNTY
STAT .        Northern Territory                       :STATE
CTRY .        Australia                                :COUNTRY
API  .                                                 :API NUMBER
UWI  .                                                 :UNIQUE WELL ID
DATE .        31-Dec-2007                              :LOG DATE {DD-MMM-YYYY}
SRVC .        Schlumberger                             :SERVICE COMPANY
LATI .DEG     12*57'32.63" S                           :LATITUDE
LONG .DEG     124*26'50.07" E                          :LONGITUDE
GDAT .                                                 :GeoDetic Datum
#-----------------------------------------------------------------------------
~PARAMETER INFORMATION
#MNEM.UNIT    VALUE                      DESCRIPTION
#---- -----   --------------------       ------------------------
RUN  .          1                        :RUN NUMBER
PDAT .        LAT                        :Permanent Datum
EPD  .M           0.000000               :Elevation of Permanent Datum above Mean Sea Level
EPD  .M           0.000000               :Elevation of tool zero above Mean Sea Level
LMF  .          DF                       :Logging Measured From (Name of Logging Elevation Reference)
APD  .M          26.400000               :Elevation of Depth Reference (LMF) above Permanent Datum
#-----------------------------------------------------------------------------
~CURVE INFORMATION
#MNEM.UNIT   API CODE                                  DESCRIPTION
#---- -----  --------                                  -----------------------
TIME .S                                                :TIME {F10.1}
TENS_SL.LBF                                            :Cable Tension {F13.4}
DEPT_SL..1IN                                           :Station logging depth {F13.4}
PDEP_XPT.M                                             :XPT Probe Depth {F13.4}
MTEP_SAP.DEGC                                          :Sapphire Gauge Manometer Temperature {F13.4}
MTEP_HYD.DEGC                                          :Hydrostatic Sapphire Gauge Manometer Temperature {F13.4}
PCO_HYD.PSI                                            :Hydrostatic Sapphire Dynamic Compensation {F13.4}
PND_HYD.PSI                                            :Hydrostatic Sapphire Pressure Without Dynamic Compensation {F13.4}
CP_HYD.PSI                                             :Hydrostatic Sapphire Pressure With Dynamic Compensation {F13.4}
MTEP_QG.DEGC                                           :CQG Manometer Temperature {F13.4}
PTNO_XPT.                                              :XPT Pretest Number {I11}
ETIM_XPT.S                                             :Elapsed Logging Time {F13.4}
PCO_SAP.PSI                                            :Sapphire Dynamic Compensation {F13.4}
PND_SAP.PSI                                            :Sapphire Pressure Without Dynamic Compensation {F13.4}
CP_SAP.PSI                                             :Sapphire Pressure With Dynamic Compensation {F13.4}
QNDP .PSI                                              :CQG Pressure Without Dynamic Compensation {F13.4}
QCP  .PSI                                              :CQG Pressure With Dynamic Compensation {F13.4}
QPCO .PSI                                              :CQG Dynamic Compensation {F13.4}
#-----------------------------------------------------------------------------
# 
#     TIME      TENS_SL      DEPT_SL      PDEP_XPT     MTEP_SAP     MTEP_HYD     PCO_HYD      PND_HYD       CP_HYD      MTEP_QG       PTNO_XPT       ETIM_XPT     PCO_SAP      PND_SAP       CP_SAP        QNDP         QCP          QPCO
#
~A  
# ...
     885.0    4753.4094 1451040.0000    3684.0325     122.2599     122.8204       0.0263    5998.2773    5998.3037     122.8123         12      70.4819       0.0183    5996.4355    5996.4540    5993.6904    5993.7792       0.0890
     886.0    4767.0831 1451040.0000    3684.0325     122.2591     122.8217       0.0240    5998.3783    5998.4023     122.8127         12      71.4819       0.0215    5996.4212    5996.4426    5993.6368    5993.7257       0.0890
     887.0    4778.0363 1451040.0000    3684.0325     122.2580     122.8219       0.0195    5998.3530    5998.3726     122.8130         12      72.4819       0.0254    5996.3429    5996.3684    5993.6378    5993.7264       0.0886
     888.0    4767.3625 1451040.0000    3684.0325     122.2609     122.8231       0.0154    5998.3054    5998.3207     122.8131         12      73.4819       0.0292    5996.4792    5996.5085    5993.6216    5993.7086       0.0869
     889.0    4746.8806 1451040.0000    3684.0325     122.2622     122.8230       0.0131    5998.2761    5998.2891     122.8135         12      74.4819       0.0303    5996.4693    5996.4998    5993.5772    5993.6556       0.0784
     890.0    4734.5544 1451040.0000    3684.0325     122.2599     122.8226       0.0117    5998.3013    5998.3132     122.8138         12      75.4819       0.0223    5996.4907    5996.5130    5993.6603    5993.7180       0.0579
     891.0    4741.6737 1451040.0000    3684.0325     122.2640     122.8215       0.0108    5998.2929    5998.3037     122.8140         12      76.4819       0.0024    5996.4764    5996.4788    5993.6590    5993.6865       0.0275
     892.0    4750.5181 1451040.0000    3684.0325     122.2628     122.8227       0.0118    5998.3322    5998.3441     122.8142         12      77.4819      -0.0229    5996.4246    5996.4016    5993.6420    5993.6365      -0.0054
     893.0    4721.5694 1451040.0000    3684.0325     122.2617     122.8239       0.0154    5998.4464    5998.4619     122.8145         12      78.4819      -0.0445    5995.1440    5995.0997    5992.4603    5992.4239      -0.0364
     894.0    4684.7356 1451040.0000    3684.0325     122.2638     122.8242       0.0193    5998.4966    5998.5161     122.8136         12      79.4819      -0.0592    5992.4561    5992.3967    5966.1328    5966.0660      -0.0667
     895.0    4669.8081 1451040.0000    3684.0325     122.2564     122.8234       0.0209    5998.4018    5998.4228     122.8132         12      80.4819      -0.0674    5954.5850    5954.5178    5952.1453    5952.0502      -0.0950
     896.0    4651.8444 1451040.0000    3684.0325     122.2558     122.8234       0.0212    5998.4888    5998.5098     122.8131         12      81.4819      -0.0662    5953.8867    5953.8205    5950.3970    5950.2828      -0.1141
     897.0    4644.8912 1451040.0000    3684.0325     122.2557     122.8249       0.0226    5998.5645    5998.5869     122.8127         12      82.4819      -0.0525    5951.2061    5951.1535    5945.5173    5945.3972      -0.1203
     898.0    4681.2494 1451040.0000    3684.0325     122.2558     122.8249       0.0249    5998.5049    5998.5299     122.8124         12      83.4819      -0.0301    5940.8467    5940.8165    5936.7561    5936.6388      -0.1172
     899.0    4731.4563 1451040.0000    3684.0325     122.2529     122.8257       0.0260    5998.4526    5998.4785     122.8117         12      84.4819      -0.0074    5929.0889    5929.0815    5923.8646    5923.7537      -0.1106
     900.0    4754.7100 1451040.0000    3684.0325     122.2538     122.8259       0.0258    5998.3833    5998.4092     122.8111         12      85.4819       0.0120    5919.7310    5919.7428    5917.7588    5917.6585      -0.1004
     901.0    4764.4456 1451040.0000    3684.0325     122.2535     122.8266       0.0252    5998.2119    5998.2373     122.8111         12      86.4819       0.0296    5918.2803    5918.3100    5916.1699    5916.0860      -0.0839
     902.0    4744.7975 1451040.0000    3684.0325     122.2554     122.8262       0.0253    5998.1237    5998.1491     122.8107         12      87.4819       0.0459    5919.0051    5919.0507    5916.6930    5916.6299      -0.0629
     903.0    4728.2644 1451040.0000    3684.0325     122.2561     122.8268       0.0259    5998.3890    5998.4148     122.8107         12      88.4819       0.0577    5920.3879    5920.4458    5918.1565    5918.1141      -0.0422
     904.0    4702.7144 1451040.0000    3684.0325     122.2574     122.8276       0.0265    5998.2506    5998.2770     122.8106         12      89.4819       0.0626    5921.4708    5921.5334    5919.0889    5919.0637      -0.0252
     905.0    4680.0469 1451040.0000    3684.0325     122.2595     122.8282       0.0261    5998.4316    5998.4577     122.8106         12      90.4819       0.0602    5921.5343    5921.5947    5919.0230    5919.0096      -0.0133
     906.0    4695.4094 1451040.0000    3684.0325     122.2615     122.8276       0.0244    5998.4640    5998.4885     122.8107         12      91.4819       0.0504    5920.3842    5920.4347    5917.8520    5917.8446      -0.0074
     907.0    4692.6994 1451040.0000    3684.0325     122.2621     122.8297       0.0218    5998.6457    5998.6674     122.8105         12      92.4819       0.0340    5921.0830    5921.1170    5918.5378    5918.5285      -0.0092
     908.0    4664.8337 1451040.0000    3684.0325     122.2631     122.8303       0.0194    5998.5971    5998.6165     122.8106         12      93.4819       0.0144    5921.9094    5921.9239    5919.3640    5919.3450      -0.0188
     909.0    4648.7100 1451040.0000    3684.0325     122.2621     122.8304       0.0175    5998.5505    5998.5681     122.8108         12      94.4819      -0.0049    5922.1621    5922.1571    5919.6164    5919.5811      -0.0354
     910.0    4698.9231 1451040.0000    3684.0325     122.2634     122.8304       0.0169    5998.3650    5998.3821     122.8107         12      95.4819      -0.0225    5914.7062    5914.6839    5912.2617    5912.2039      -0.0579
     911.0    4756.0469 1451040.0000    3684.0325     122.2613     122.8297       0.0181    5998.3037    5998.3216     122.8103         12      96.4819      -0.0375    5902.8546    5902.8170    5900.4040    5900.3202      -0.0838
     912.0    4773.8188 1451040.0000    3684.0325     122.2601     122.8319       0.0208    5998.4441    5998.4650     122.8099         12      97.4819      -0.0476    5891.1658    5891.1181    5888.7284    5888.6195      -0.1088
     913.0    4771.7719 1451040.0000    3684.0325     122.2602     122.8306       0.0237    5998.2529    5998.2766     122.8096         12      98.4819      -0.0414    5881.1202    5881.0788    5878.9598    5878.8454      -0.1143
     914.0    4737.4969 1451040.0000    3684.0325     122.2576     122.8312       0.0255    5998.2598    5998.2855     122.8090         12      99.4819      -0.0038    5870.2543    5870.2505    5868.0556    5867.9813      -0.0742
     915.0    4703.2175 1451040.0000    3684.0325     122.2586     122.8320       0.0258    5998.2691    5998.2950     122.8085         12     100.4819       0.0697    5859.3323    5859.4021    5857.1065    5857.1298       0.0234
     916.0    4663.7506 1451040.0000    3684.0325     122.2570     122.8310       0.0243    5998.3391    5998.3634     122.8080         12     101.4819       0.1599    5849.5309    5849.6908    5847.4039    5847.5577       0.1537
     917.0    4650.6481 1451040.0000    3684.0325     122.2553     122.8335       0.0217    5998.4028    5998.4245     122.8074         12     102.4819       0.2353    5841.1014    5841.3367    5839.0729    5839.3494       0.2763
     918.0    4702.9487 1451040.0000    3684.0325     122.2570     122.8342       0.0193    5998.4693    5998.4884     122.8070         12     103.4819       0.2793    5834.0611    5834.3403    5831.9645    5832.3379       0.3735
     919.0    4720.9531 1451040.0000    3684.0325     122.2826     122.8335       0.0176    5998.6204    5998.6378     122.8143         12     104.4819       0.2876    5997.4275    5997.7150    5993.0017    5993.4456       0.4439
