~VERSION INFORMATION
VERS.           2.0   :CWLS Log ASCII Standard - VERSION 2.0
WRAP.           NO    :One Line per depth step
PROD.  Schlumberger   :LAS Producer
PROG.  DLIS to ASCII 2.2                               :LAS Program name and version
CREA.        2020/10/30 12:18                          :LAS Creation date {YYYY/MM/DD hh:mm}
SOURCE.     XPT_HRLA_TLD_MCFL_048LTP.DLIS              :DLIS File Name
FILE-ID.     XPT_HRLA_TLD_MCFL_048LTP                  :File Identification Number
#--------------------------------------------------
~WELL INFORMATION
#MNEM.UNIT      DATA             DESCRIPTION
#---- ------ --------------   -----------------------------
STRT .S           91.0       :START TIME      
STOP .S          545.0       :STOP TIME      
STEP .S            1.0       :STEP     
NULL .          -999.25      :NULL VALUE
COMP .        Nexus Energy                             :COMPANY
WELL .        Crux-3                                   :WELL
FLD  .        Crux                                     :FIELD
LOC  .        Easting: 656981.7mE                      :LOCATION
CNTY .        Sedco-703                                :COUNTY
STAT .        Northern Territory                       :STATE
CTRY .        Australia                                :COUNTRY
API  .                                                 :API NUMBER
UWI  .                                                 :UNIQUE WELL ID
DATE .        31-Dec-2007                              :LOG DATE {DD-MMM-YYYY}
SRVC .        Schlumberger                             :SERVICE COMPANY
LATI .DEG     12*57'32.63" S                           :LATITUDE
LONG .DEG     124*26'50.07" E                          :LONGITUDE
GDAT .                                                 :GeoDetic Datum
#-----------------------------------------------------------------------------
~PARAMETER INFORMATION
#MNEM.UNIT    VALUE                      DESCRIPTION
#---- -----   --------------------       ------------------------
RUN  .          1                        :RUN NUMBER
PDAT .        LAT                        :Permanent Datum
EPD  .M           0.000000               :Elevation of Permanent Datum above Mean Sea Level
EPD  .M           0.000000               :Elevation of tool zero above Mean Sea Level
LMF  .          DF                       :Logging Measured From (Name of Logging Elevation Reference)
APD  .M          26.400000               :Elevation of Depth Reference (LMF) above Permanent Datum
#-----------------------------------------------------------------------------
~CURVE INFORMATION
#MNEM.UNIT   API CODE                                  DESCRIPTION
#---- -----  --------                                  -----------------------
TIME .S                                                :TIME {F10.1}
TENS_SL.LBF                                            :Cable Tension {F13.4}
DEPT_SL..1IN                                           :Station logging depth {F13.4}
PDEP_XPT.M                                             :XPT Probe Depth {F13.4}
MTEP_SAP.DEGC                                          :Sapphire Gauge Manometer Temperature {F13.4}
MTEP_HYD.DEGC                                          :Hydrostatic Sapphire Gauge Manometer Temperature {F13.4}
PCO_HYD.PSI                                            :Hydrostatic Sapphire Dynamic Compensation {F13.4}
PND_HYD.PSI                                            :Hydrostatic Sapphire Pressure Without Dynamic Compensation {F13.4}
CP_HYD.PSI                                             :Hydrostatic Sapphire Pressure With Dynamic Compensation {F13.4}
MTEP_QG.DEGC                                           :CQG Manometer Temperature {F13.4}
PTNO_XPT.                                              :XPT Pretest Number {I11}
ETIM_XPT.S                                             :Elapsed Logging Time {F13.4}
PCO_SAP.PSI                                            :Sapphire Dynamic Compensation {F13.4}
PND_SAP.PSI                                            :Sapphire Pressure Without Dynamic Compensation {F13.4}
CP_SAP.PSI                                             :Sapphire Pressure With Dynamic Compensation {F13.4}
QNDP .PSI                                              :CQG Pressure Without Dynamic Compensation {F13.4}
QCP  .PSI                                              :CQG Pressure With Dynamic Compensation {F13.4}
QPCO .PSI                                              :CQG Dynamic Compensation {F13.4}
#-----------------------------------------------------------------------------
# 
#     TIME      TENS_SL      DEPT_SL      PDEP_XPT     MTEP_SAP     MTEP_HYD     PCO_HYD      PND_HYD       CP_HYD      MTEP_QG       PTNO_XPT       ETIM_XPT     PCO_SAP      PND_SAP       CP_SAP        QNDP         QCP          QPCO
#
~A  
      91.0    4817.5044 1443064.6215    3663.7784     121.8461     122.3954       0.0000    5965.7957    5965.7957     122.4150          9       0.0000       0.0000    5963.9205    5963.9205    5961.1925    5972.9394       0.0000
      92.0    4821.2556 1445909.0000    3671.0000     122.0876     122.6361       0.0000    5977.4300    5977.4300     122.6561         10       0.8206       0.0000    5975.7267    5975.7267    5972.9265    5972.9265       0.0000
      93.0    4783.0715 1445909.0000    3671.0000     122.0899     122.6367       0.0000    5977.4670    5977.4670     122.6560         10       1.8206       0.0000    5975.9149    5975.9149    5972.9399    5972.9399       0.0000
      94.0    4761.8699 1445909.0000    3671.0000     122.0876     122.6374       0.0000    5977.5625    5977.5625     122.6564         10       2.8206       0.0000    5975.8554    5975.8554    5973.0065    5973.0065       0.0000
      95.0    4722.8922 1445909.0000    3671.0000     122.0884     122.6383       0.0000    5977.5943    5977.5943     122.6566         10       3.8206       0.0000    5975.9171    5975.9171    5973.0133    5973.0133       0.0000
      96.0    4704.3318 1445909.0000    3671.0000     122.0870     122.6385       0.0000    5977.6064    5977.6064     122.6571         10       4.8206       0.0000    5975.7788    5975.7788    5972.9979    5972.9979       0.0000
      97.0    4705.2825 1445909.0000    3671.0000     122.0875     122.6378       0.0049    5977.6270    5977.6319     122.6569         10       5.8206       0.0050    5975.9259    5975.9310    5973.0926    5973.1169       0.0243
      98.0    4740.4666 1445909.0000    3671.0000     122.0881     122.6381       0.0103    5977.6899    5977.7005     122.6572         10       6.8206       0.0147    5975.8962    5975.9109    5973.1278    5973.1884       0.0604
      99.0    4704.5065 1445909.0000    3671.0000     122.0894     122.6381       0.0094    5977.5703    5977.5796     122.6574         10       7.8206       0.0167    5975.8609    5975.8775    5973.0433    5973.1039       0.0605
     100.0    4697.4619 1445909.0000    3671.0000     122.0892     122.6386       0.0094    5977.6706    5977.6799     122.6577         10       8.8206       0.0177    5975.9068    5975.9243    5973.0645    5973.1248       0.0603
     101.0    4726.7221 1445909.0000    3671.0000     122.0889     122.6391       0.0099    5977.6403    5977.6500     122.6581         10       9.8206       0.0152    5975.8780    5975.8934    5973.0632    5973.1232       0.0601
     102.0    4750.2333 1445909.0000    3671.0000     122.0916     122.6389       0.0090    5977.6382    5977.6470     122.6583         10      10.8206       0.0110    5975.8801    5975.8908    5973.0972    5973.1573       0.0599
     103.0    4777.7984 1445909.0000    3671.0000     122.0901     122.6381       0.0077    5977.6179    5977.6255     122.6582         10      11.8206       0.0105    5975.8919    5975.9026    5973.0647    5973.1247       0.0598
     104.0    4794.4889 1445909.0000    3671.0000     122.0914     122.6402       0.0069    5977.5922    5977.5990     122.6582         10      12.8206       0.0119    5975.9551    5975.9672    5973.0754    5973.1354       0.0598
     105.0    4812.5920 1445909.0000    3671.0000     122.0906     122.6397       0.0090    5977.6480    5977.6573     122.6586         10      13.8206       0.0130    5975.9192    5975.9324    5973.0817    5973.1418       0.0600
     106.0    4820.1032 1445909.0000    3671.0000     122.0904     122.6396       0.0107    5977.5979    5977.6085     122.6589         10      14.8206       0.0126    5975.8225    5975.8350    5972.9942    5973.0547       0.0604
     107.0    4794.7397 1445909.0000    3671.0000     122.0910     122.6390       0.0121    5977.5713    5977.5834     122.6589         10      15.8206       0.0123    5975.8383    5975.8505    5973.0232    5973.0837       0.0606
     108.0    4745.5065 1445909.0000    3671.0000     122.0915     122.6390       0.0121    5977.5810    5977.5932     122.6590         10      16.8206       0.0132    5975.9282    5975.9414    5973.0894    5973.1499       0.0606
     109.0    4702.3541 1445909.0000    3671.0000     122.0903     122.6410       0.0116    5977.6595    5977.6712     122.6592         10      17.8206       0.0145    5975.8734    5975.8880    5973.0464    5973.1070       0.0606
     110.0    4707.3095 1445909.0000    3671.0000     122.0922     122.6396       0.0107    5977.5943    5977.6050     122.6597         10      18.8206       0.0145    5975.9055    5975.9201    5973.0598    5973.1204       0.0605
     111.0    4714.1032 1445909.0000    3671.0000     122.0887     122.6426       0.0098    5977.6808    5977.6905     122.6600         10      19.8206       0.0132    5975.9953    5976.0084    5973.1109    5973.1714       0.0604
     112.0    4694.4842 1445909.0000    3671.0000     122.0912     122.6404       0.0091    5977.6536    5977.6629     122.6600         10      20.8206       0.0120    5975.9411    5975.9532    5973.1062    5973.1661       0.0599
     113.0    4687.5381 1445909.0000    3671.0000     122.0942     122.6404       0.0085    5977.6538    5977.6622     122.6602         10      21.8206       0.0114    5975.9508    5975.9621    5973.0389    5973.0985       0.0598
     114.0    4682.0762 1445909.0000    3671.0000     122.0919     122.6411       0.0076    5977.6015    5977.6093     122.6605         10      22.8206       0.0101    5975.8212    5975.8314    5972.9968    5973.0569       0.0599
     115.0    4699.8746 1445909.0000    3671.0000     122.0917     122.6417       0.0065    5977.7114    5977.7178     122.6606         10      23.8206       0.0072    5975.8393    5975.8468    5972.9900    5973.0501       0.0602
     116.0    4758.9824 1445909.0000    3671.0000     122.0934     122.6415       0.0065    5977.6438    5977.6501     122.6609         10      24.8206       0.0053    5975.7823    5975.7876    5972.9417    5973.0021       0.0604
     117.0    4791.5158 1445909.0000    3671.0000     122.0923     122.6419       0.0077    5977.6058    5977.6136     122.6612         10      25.8206       0.0067    5975.7146    5975.7211    5972.9593    5973.0194       0.0603
     118.0    4814.8746 1445909.0000    3671.0000     122.0931     122.6412       0.0096    5977.6027    5977.6122     122.6612         10      26.8206       0.0101    5975.8101    5975.8202    5972.9694    5973.0295       0.0603
     119.0    4815.7175 1445909.0000    3671.0000     122.0922     122.6410       0.0117    5977.5403    5977.5520     122.6615         10      27.8206       0.0137    5975.6795    5975.6932    5972.9400    5973.0001       0.0603
     120.0    4810.8968 1445909.0000    3671.0000     122.0907     122.6415       0.0132    5977.4824    5977.4956     122.6617         10      28.8206       0.0156    5975.8058    5975.8215    5972.9369    5972.9969       0.0599
     121.0    4805.0762 1445909.0000    3671.0000     122.0947     122.6428       0.0136    5977.5839    5977.5975     122.6615         10      29.8206       0.0173    5975.7924    5975.8097    5972.9853    5973.0444       0.0592
     122.0    4727.6811 1445909.0000    3671.0000     122.0934     122.6427       0.0113    5977.6401    5977.6513     122.6620         10      30.8206       0.0181    5975.8654    5975.8835    5973.0238    5973.0824       0.0586
     123.0    4706.8968 1445909.0000    3671.0000     122.0955     122.6431       0.0077    5977.7138    5977.7215     122.6621         10      31.8206       0.0168    5975.8494    5975.8664    5973.0288    5973.0874       0.0587
     124.0    4687.1254 1445909.0000    3671.0000     122.0940     122.6439       0.0039    5977.6306    5977.6346     122.6622         10      32.8206       0.0147    5975.9682    5975.9830    5973.1232    5973.1825       0.0595
     125.0    4697.7714 1445909.0000    3671.0000     122.0947     122.6421       0.0020    5977.6278    5977.6299     122.6627         10      33.8206       0.0137    5975.9216    5975.9353    5973.1147    5973.1749       0.0602
