~VERSION INFORMATION
VERS.           2.0   :CWLS Log ASCII Standard - VERSION 2.0
WRAP.           NO    :One Line per depth step
PROD.  Schlumberger   :LAS Producer
PROG.  DLIS to ASCII 2.2                               :LAS Program name and version
CREA.        2020/10/30 12:18                          :LAS Creation date {YYYY/MM/DD hh:mm}
SOURCE.     XPT_HRLA_TLD_MCFL_069LTP.DLIS              :DLIS File Name
FILE-ID.     XPT_HRLA_TLD_MCFL_069LTP                  :File Identification Number
#--------------------------------------------------
~WELL INFORMATION
#MNEM.UNIT      DATA             DESCRIPTION
#---- ------ --------------   -----------------------------
STRT .S         1113.0       :START TIME      
STOP .S         1454.0       :STOP TIME      
STEP .S            1.0       :STEP     
NULL .          -999.25      :NULL VALUE
COMP .        Nexus Energy                             :COMPANY
WELL .        Crux-3                                   :WELL
FLD  .        Crux                                     :FIELD
LOC  .        Easting: 656981.7mE                      :LOCATION
CNTY .        Sedco-703                                :COUNTY
STAT .        Northern Territory                       :STATE
CTRY .        Australia                                :COUNTRY
API  .                                                 :API NUMBER
UWI  .                                                 :UNIQUE WELL ID
DATE .        31-Dec-2007                              :LOG DATE {DD-MMM-YYYY}
SRVC .        Schlumberger                             :SERVICE COMPANY
LATI .DEG     12*57'32.63" S                           :LATITUDE
LONG .DEG     124*26'50.07" E                          :LONGITUDE
GDAT .                                                 :GeoDetic Datum
#-----------------------------------------------------------------------------
~PARAMETER INFORMATION
#MNEM.UNIT    VALUE                      DESCRIPTION
#---- -----   --------------------       ------------------------
RUN  .          1                        :RUN NUMBER
PDAT .        LAT                        :Permanent Datum
EPD  .M           0.000000               :Elevation of Permanent Datum above Mean Sea Level
EPD  .M           0.000000               :Elevation of tool zero above Mean Sea Level
LMF  .          DF                       :Logging Measured From (Name of Logging Elevation Reference)
APD  .M          26.400000               :Elevation of Depth Reference (LMF) above Permanent Datum
#-----------------------------------------------------------------------------
~CURVE INFORMATION
#MNEM.UNIT   API CODE                                  DESCRIPTION
#---- -----  --------                                  -----------------------
TIME .S                                                :TIME {F10.1}
TENS_SL.LBF                                            :Cable Tension {F13.4}
DEPT_SL..1IN                                           :Station logging depth {F13.4}
PDEP_XPT.M                                             :XPT Probe Depth {F13.4}
MTEP_SAP.DEGC                                          :Sapphire Gauge Manometer Temperature {F13.4}
MTEP_HYD.DEGC                                          :Hydrostatic Sapphire Gauge Manometer Temperature {F13.4}
PCO_HYD.PSI                                            :Hydrostatic Sapphire Dynamic Compensation {F13.4}
PND_HYD.PSI                                            :Hydrostatic Sapphire Pressure Without Dynamic Compensation {F13.4}
CP_HYD.PSI                                             :Hydrostatic Sapphire Pressure With Dynamic Compensation {F13.4}
MTEP_QG.DEGC                                           :CQG Manometer Temperature {F13.4}
PTNO_XPT.                                              :XPT Pretest Number {I11}
ETIM_XPT.S                                             :Elapsed Logging Time {F13.4}
PCO_SAP.PSI                                            :Sapphire Dynamic Compensation {F13.4}
PND_SAP.PSI                                            :Sapphire Pressure Without Dynamic Compensation {F13.4}
CP_SAP.PSI                                             :Sapphire Pressure With Dynamic Compensation {F13.4}
QNDP .PSI                                              :CQG Pressure Without Dynamic Compensation {F13.4}
QCP  .PSI                                              :CQG Pressure With Dynamic Compensation {F13.4}
QPCO .PSI                                              :CQG Dynamic Compensation {F13.4}
#-----------------------------------------------------------------------------
# 
#     TIME      TENS_SL      DEPT_SL      PDEP_XPT     MTEP_SAP     MTEP_HYD     PCO_HYD      PND_HYD       CP_HYD      MTEP_QG       PTNO_XPT       ETIM_XPT     PCO_SAP      PND_SAP       CP_SAP        QNDP         QCP          QPCO
#
~A  
# ...
    1253.0    4950.1196 1534897.0000    3897.0293     132.8462     133.1535      -0.1494    6336.0652    6335.9158     133.5200         34     139.8951      -0.1065    5839.5289    5839.4225    5837.9614    5837.5877      -0.3738
    1254.0    4932.5170 1534897.0000    3897.0293     132.8445     133.1521      -0.1507    6336.2716    6336.1209     133.5189         34     140.8951      -0.1105    5839.6555    5839.5450    5838.0075    5837.6357      -0.3719
    1255.0    4903.1462 1534897.0000    3897.0293     132.8419     133.1477      -0.1530    6336.2078    6336.0550     133.5180         34     141.8951      -0.1126    5839.6707    5839.5579    5838.0137    5837.6421      -0.3714
    1256.0    4869.5657 1534897.0000    3897.0293     132.8397     133.1456      -0.1551    6336.1838    6336.0289     133.5166         34     142.8951      -0.1135    5839.6144    5839.5008    5837.9811    5837.6090      -0.3720
    1257.0    4948.3515 1534897.0000    3897.0293     132.8375     133.1435      -0.1562    6336.1610    6336.0048     133.5156         34     143.8951      -0.1137    5839.5425    5839.4287    5837.9303    5837.5570      -0.3733
    1258.0    5002.7563 1534897.0000    3897.0293     132.8362     133.1385      -0.1564    6335.9867    6335.8305     133.5145         34     144.8951      -0.1137    5839.4618    5839.3480    5837.8593    5837.4839      -0.3754
    1259.0    5013.3708 1534897.0000    3897.0293     132.8362     133.1362      -0.1552    6335.9619    6335.8068     133.5131         34     145.8951      -0.1144    5839.5104    5839.3960    5837.7700    5837.3913      -0.3786
    1260.0    5026.5318 1534897.0000    3897.0293     132.8315     133.1362      -0.1520    6335.7798    6335.6276     133.5118         34     146.8951      -0.1172    5839.1965    5839.0792    5837.6517    5837.2697      -0.3820
    1261.0    5043.2171 1534897.0000    3897.0293     132.8301     133.1324      -0.1486    6335.9188    6335.7703     133.5107         34     147.8951      -0.1221    5839.2233    5839.1012    5837.5378    5837.1526      -0.3854
    1262.0    5037.8390 1534897.0000    3897.0293     132.8279     133.1283      -0.1475    6335.9580    6335.8105     133.5098         34     148.8951      -0.1263    5838.9794    5838.8531    5837.4070    5837.0178      -0.3892
    1263.0    4938.5363 1534897.0000    3897.0293     132.8254     133.1270      -0.1486    6336.1680    6336.0192     133.5084         34     149.8951      -0.1281    5838.8392    5838.7110    5837.2512    5836.8577      -0.3935
    1264.0    4934.1610 1534897.0000    3897.0293     132.8244     133.1240      -0.1501    6336.1954    6336.0455     133.5072         34     150.8951      -0.1279    5838.7074    5838.5795    5837.0888    5836.6913      -0.3976
    1265.0    4921.5731 1534897.0000    3897.0293     132.8200     133.1210      -0.1516    6336.2021    6336.0506     133.5061         34     151.8951      -0.1270    5838.4450    5838.3181    5836.9228    5836.5215      -0.4014
    1266.0    4949.5391 1534897.0000    3897.0293     132.8191     133.1174      -0.1542    6336.3671    6336.2130     133.5047         34     152.8951      -0.1265    5838.3371    5838.2107    5836.7334    5836.3283      -0.4052
    1267.0    4936.8877 1534897.0000    3897.0293     132.8158     133.1141      -0.1574    6336.1540    6335.9968     133.5036         34     153.8951      -0.1253    5838.0863    5837.9608    5836.5435    5836.1348      -0.4088
    1268.0    4919.7829 1534897.0000    3897.0293     132.8139     133.1124      -0.1593    6336.1752    6336.0160     133.5023         34     154.8951      -0.1226    5837.8160    5837.6933    5836.3389    5835.9267      -0.4121
    1269.0    5035.2614 1534897.0000    3897.0293     132.8109     133.1095      -0.1588    6336.0612    6335.9023     133.5010         34     155.8951      -0.1195    5837.6469    5837.5274    5836.1208    5835.7056      -0.4154
    1270.0    5018.5657 1534897.0000    3897.0293     132.8093     133.1062      -0.1569    6336.0261    6335.8693     133.5000         34     156.8951      -0.1180    5837.3835    5837.2654    5835.9166    5835.4977      -0.4188
    1271.0    5023.0561 1534897.0000    3897.0293     132.8058     133.1032      -0.1557    6335.9767    6335.8210     133.4987         34     157.8951      -0.1198    5837.1892    5837.0692    5835.6987    5835.2767      -0.4219
    1272.0    5020.4195 1534897.0000    3897.0293     132.8065     133.1003      -0.1557    6335.8223    6335.6665     133.4974         34     158.8951      -0.1228    5837.1144    5836.9917    5835.4612    5835.0363      -0.4248
    1273.0    5008.3634 1534897.0000    3897.0293     132.8052     133.0976      -0.1554    6335.8930    6335.7377     133.4961         34     159.8951      -0.1250    5836.8198    5836.6949    5835.2445    5834.8168      -0.4279
    1274.0    4952.3974 1534897.0000    3897.0293     132.8015     133.0958      -0.1531    6335.9749    6335.8219     133.4945         34     160.8951      -0.1269    5836.5133    5836.3865    5835.0169    5834.5857      -0.4312
    1275.0    4912.8804 1534897.0000    3897.0293     132.7983     133.0930      -0.1497    6336.0870    6335.9373     133.4933         34     161.8951      -0.1298    5836.3031    5836.1731    5834.7747    5834.3404      -0.4343
    1276.0    4892.8877 1534897.0000    3897.0293     132.7960     133.0882      -0.1469    6335.9661    6335.8191     133.4920         34     162.8951      -0.1331    5835.9894    5835.8561    5834.5542    5834.1167      -0.4374
    1277.0    4924.1196 1534897.0000    3897.0293     132.7937     133.0864      -0.1448    6336.2596    6336.1147     133.4906         34     163.8951      -0.1344    5835.8576    5835.7233    5834.3062    5833.8653      -0.4409
    1278.0    4870.7120 1534897.0000    3897.0293     132.7906     133.0844      -0.1431    6336.1801    6336.0369     133.4893         34     164.8951      -0.1339    5835.4835    5835.3496    5834.0482    5833.6034      -0.4450
    1279.0    4879.2171 1534897.0000    3897.0293     132.7870     133.0821      -0.1427    6336.1119    6335.9694     133.4880         34     165.8951      -0.1327    5835.2114    5835.0786    5833.8219    5833.3727      -0.4491
    1280.0    4923.0709 1534897.0000    3897.0293     132.7867     133.0798      -0.1441    6336.1494    6336.0052     133.4867         34     166.8951      -0.1316    5835.0675    5834.9358    5833.5574    5833.1047      -0.4527
    1281.0    4989.7636 1534897.0000    3897.0293     132.7828     133.0769      -0.1471    6336.2118    6336.0647     133.4853         34     167.8951      -0.1306    5834.7007    5834.5702    5833.2998    5832.8436      -0.4562
    1282.0    5046.2319 1534897.0000    3897.0293     132.7794     133.0737      -0.1502    6335.9648    6335.8144     133.4836         34     168.8951      -0.1289    5834.4462    5834.3173    5833.0650    5832.6055      -0.4595
    1283.0    5026.9365 1534897.0000    3897.0293     132.7798     133.0704      -0.1525    6335.9674    6335.8149     133.4823         34     169.8951      -0.1264    5834.2477    5834.1214    5832.7966    5832.3344      -0.4623
    1284.0    5023.1049 1534897.0000    3897.0293     132.7772     133.0697      -0.1538    6336.0272    6335.8734     133.4809         34     170.8951      -0.1256    5834.0095    5833.8840    5832.5294    5832.0644      -0.4649
    1285.0    5009.5731 1534897.0000    3897.0293     132.7740     133.0645      -0.1543    6335.8640    6335.7097     133.4794         34     171.8951      -0.1278    5833.6709    5833.5430    5832.2954    5831.8282      -0.4671
    1286.0    4984.7267 1534897.0000    3897.0293     132.7728     133.0630      -0.1545    6335.9702    6335.8159     133.4783         34     172.8951      -0.1315    5833.5499    5833.4182    5832.0271    5831.5582      -0.4690
    1287.0    4941.7194 1534897.0000    3897.0293     132.7707     133.0600      -0.1543    6336.0062    6335.8519     133.4767         34     173.8951      -0.1340    5833.2064    5833.0723    5831.7649    5831.2938      -0.4710
