~VERSION INFORMATION
VERS.           2.0   :CWLS Log ASCII Standard - VERSION 2.0
WRAP.           NO    :One Line per depth step
PROD.  Schlumberger   :LAS Producer
PROG.  DLIS to ASCII 2.2                               :LAS Program name and version
CREA.        2020/10/30 12:18                          :LAS Creation date {YYYY/MM/DD hh:mm}
SOURCE.     XPT_HRLA_TLD_MCFL_048LTP.DLIS              :DLIS File Name
FILE-ID.     XPT_HRLA_TLD_MCFL_048LTP                  :File Identification Number
#--------------------------------------------------
~WELL INFORMATION
#MNEM.UNIT      DATA             DESCRIPTION
#---- ------ --------------   -----------------------------
STRT .S           91.0       :START TIME      
STOP .S          545.0       :STOP TIME      
STEP .S            1.0       :STEP     
NULL .          -999.25      :NULL VALUE
COMP .        Nexus Energy                             :COMPANY
WELL .        Crux-3                                   :WELL
FLD  .        Crux                                     :FIELD
LOC  .        Easting: 656981.7mE                      :LOCATION
CNTY .        Sedco-703                                :COUNTY
STAT .        Northern Territory                       :STATE
CTRY .        Australia                                :COUNTRY
API  .                                                 :API NUMBER
UWI  .                                                 :UNIQUE WELL ID
DATE .        31-Dec-2007                              :LOG DATE {DD-MMM-YYYY}
SRVC .        Schlumberger                             :SERVICE COMPANY
LATI .DEG     12*57'32.63" S                           :LATITUDE
LONG .DEG     124*26'50.07" E                          :LONGITUDE
GDAT .                                                 :GeoDetic Datum
#-----------------------------------------------------------------------------
~PARAMETER INFORMATION
#MNEM.UNIT    VALUE                      DESCRIPTION
#---- -----   --------------------       ------------------------
RUN  .          1                        :RUN NUMBER
PDAT .        LAT                        :Permanent Datum
EPD  .M           0.000000               :Elevation of Permanent Datum above Mean Sea Level
EPD  .M           0.000000               :Elevation of tool zero above Mean Sea Level
LMF  .          DF                       :Logging Measured From (Name of Logging Elevation Reference)
APD  .M          26.400000               :Elevation of Depth Reference (LMF) above Permanent Datum
#-----------------------------------------------------------------------------
~CURVE INFORMATION
#MNEM.UNIT   API CODE                                  DESCRIPTION
#---- -----  --------                                  -----------------------
TIME .S                                                :TIME {F10.1}
TENS_SL.LBF                                            :Cable Tension {F13.4}
DEPT_SL..1IN                                           :Station logging depth {F13.4}
PDEP_XPT.M                                             :XPT Probe Depth {F13.4}
MTEP_SAP.DEGC                                          :Sapphire Gauge Manometer Temperature {F13.4}
MTEP_HYD.DEGC                                          :Hydrostatic Sapphire Gauge Manometer Temperature {F13.4}
PCO_HYD.PSI                                            :Hydrostatic Sapphire Dynamic Compensation {F13.4}
PND_HYD.PSI                                            :Hydrostatic Sapphire Pressure Without Dynamic Compensation {F13.4}
CP_HYD.PSI                                             :Hydrostatic Sapphire Pressure With Dynamic Compensation {F13.4}
MTEP_QG.DEGC                                           :CQG Manometer Temperature {F13.4}
PTNO_XPT.                                              :XPT Pretest Number {I11}
ETIM_XPT.S                                             :Elapsed Logging Time {F13.4}
PCO_SAP.PSI                                            :Sapphire Dynamic Compensation {F13.4}
PND_SAP.PSI                                            :Sapphire Pressure Without Dynamic Compensation {F13.4}
CP_SAP.PSI                                             :Sapphire Pressure With Dynamic Compensation {F13.4}
QNDP .PSI                                              :CQG Pressure Without Dynamic Compensation {F13.4}
QCP  .PSI                                              :CQG Pressure With Dynamic Compensation {F13.4}
QPCO .PSI                                              :CQG Dynamic Compensation {F13.4}
#-----------------------------------------------------------------------------
# 
#     TIME      TENS_SL      DEPT_SL      PDEP_XPT     MTEP_SAP     MTEP_HYD     PCO_HYD      PND_HYD       CP_HYD      MTEP_QG       PTNO_XPT       ETIM_XPT     PCO_SAP      PND_SAP       CP_SAP        QNDP         QCP          QPCO
#
~A  
# ...
     266.0    4744.3138 1445909.0000    3671.0000     122.1043     122.6682       0.0107    5977.7623    5977.7731     122.6414         11     174.8206       0.0208    5530.6669    5530.6877    5527.7353    5527.9272       0.1919
     267.0    4808.9819 1445909.0000    3671.0000     122.1061     122.6675       0.0111    5977.6790    5977.6902     122.6418         11     175.8206       0.0197    5530.6170    5530.6365    5527.7138    5527.9061       0.1925
     268.0    4795.5606 1445909.0000    3671.0000     122.1049     122.6667       0.0115    5977.6113    5977.6228     122.6427         11     176.8206       0.0199    5530.6229    5530.6427    5527.6879    5527.8801       0.1921
     269.0    4768.6637 1445909.0000    3671.0000     122.1082     122.6682       0.0115    5977.5831    5977.5945     122.6432         11     177.8206       0.0190    5530.6640    5530.6832    5527.6650    5527.8560       0.1912
     270.0    4790.2600 1445909.0000    3671.0000     122.1066     122.6683       0.0106    5977.5097    5977.5204     122.6439         11     178.8206       0.0185    5530.5866    5530.6051    5527.6518    5527.8422       0.1902
     271.0    4801.7444 1445909.0000    3671.0000     122.1090     122.6684       0.0087    5977.6405    5977.6491     122.6445         11     179.8206       0.0193    5530.6062    5530.6254    5527.6216    5527.8108       0.1893
     272.0    4734.8881 1445909.0000    3671.0000     122.1068     122.6684       0.0066    5977.6664    5977.6729     122.6452         11     180.8206       0.0194    5530.5039    5530.5234    5527.5914    5527.7795       0.1880
     273.0    4735.5919 1445909.0000    3671.0000     122.1072     122.6690       0.0049    5977.7520    5977.7569     122.6456         11     181.8206       0.0169    5530.5063    5530.5233    5527.5697    5527.7562       0.1864
     274.0    4716.0225 1445909.0000    3671.0000     122.1086     122.6695       0.0033    5977.8189    5977.8221     122.6463         11     182.8206       0.0148    5530.5660    5530.5806    5527.5424    5527.7268       0.1844
     275.0    4686.3813 1445909.0000    3671.0000     122.1101     122.6667       0.0017    5977.7600    5977.7616     122.6467         11     183.8206       0.0161    5530.5009    5530.5169    5527.5180    5527.7002       0.1824
     276.0    4667.0494 1445909.0000    3671.0000     122.1122     122.6697       0.0019    5977.7617    5977.7637     122.6473         11     184.8206       0.0196    5530.5111    5530.5307    5527.4933    5527.6735       0.1803
     277.0    4680.4125 1445909.0000    3671.0000     122.1090     122.6695       0.0045    5977.7710    5977.7756     122.6482         11     185.8206       0.0219    5530.3907    5530.4127    5527.4647    5527.6426       0.1778
     278.0    4743.9056 1445909.0000    3671.0000     122.1101     122.6688       0.0074    5977.7375    5977.7447     122.6486         11     186.8206       0.0226    5530.3629    5530.3854    5527.4419    5527.6169       0.1752
     279.0    4820.1881 1445909.0000    3671.0000     122.1099     122.6690       0.0094    5977.7462    5977.7555     122.6491         11     187.8206       0.0230    5530.3178    5530.3408    5527.4193    5527.5926       0.1732
     280.0    4829.0763 1445909.0000    3671.0000     122.1105     122.6695       0.0113    5977.6756    5977.6871     122.6498         11     188.8206       0.0231    5530.3152    5530.3381    5527.3955    5527.5672       0.1718
     281.0    4805.0225 1445909.0000    3671.0000     122.1102     122.6693       0.0133    5977.5022    5977.5158     122.6503         11     189.8206       0.0206    5530.2664    5530.2872    5527.3740    5527.5445       0.1704
     282.0    4749.1213 1445909.0000    3671.0000     122.1128     122.6698       0.0142    5977.5877    5977.6018     122.6508         11     190.8206       0.0158    5530.2835    5530.2995    5527.3583    5527.5267       0.1686
     283.0    4724.8700 1445909.0000    3671.0000     122.1107     122.6701       0.0135    5977.7061    5977.7195     122.6515         11     191.8206       0.0122    5530.2336    5530.2458    5527.3398    5527.5068       0.1670
     284.0    4685.8925 1445909.0000    3671.0000     122.1118     122.6702       0.0114    5977.6630    5977.6743     122.6517         11     192.8206       0.0122    5530.2724    5530.2845    5527.3190    5527.4847       0.1657
     285.0    4713.2869 1445909.0000    3671.0000     122.1133     122.6712       0.0082    5977.7541    5977.7624     122.6525         11     193.8206       0.0147    5530.2964    5530.3111    5527.3094    5527.4734       0.1642
     286.0    4729.2063 1445909.0000    3671.0000     122.1107     122.6701       0.0049    5977.8375    5977.8424     122.6530         11     194.8206       0.0164    5530.1021    5530.1184    5527.2922    5527.4546       0.1624
     287.0    4716.2288 1445909.0000    3671.0000     122.1122     122.6709       0.0032    5977.7905    5977.7940     122.6536         11     195.8206       0.0161    5530.1199    5530.1360    5527.2776    5527.4379       0.1605
     288.0    4703.9731 1445909.0000    3671.0000     122.1154     122.6710       0.0044    5977.7475    5977.7519     122.6539         11     196.8206       0.0147    5530.2216    5530.2363    5527.2620    5527.4206       0.1585
     289.0    4743.8519 1445909.0000    3671.0000     122.1126     122.6704       0.0063    5977.7566    5977.7629     122.6546         11     197.8206       0.0139    5530.1315    5530.1455    5527.2483    5527.4049       0.1565
     290.0    4792.3900 1445909.0000    3671.0000     122.1142     122.6705       0.0075    5977.6666    5977.6740     122.6552         11     198.8206       0.0138    5530.1118    5530.1255    5527.2390    5527.3935       0.1545
     291.0    4799.3588 1445909.0000    3671.0000     122.1140     122.6713       0.0080    5977.6587    5977.6665     122.6554         11     199.8206       0.0140    5530.0927    5530.1068    5527.2185    5527.3713       0.1527
     292.0    4799.8206 1445909.0000    3671.0000     122.1127     122.6719       0.0092    5977.6294    5977.6384     122.6561         11     200.8206       0.0143    5530.0848    5530.0992    5527.2104    5527.3616       0.1513
     293.0    4818.8744 1445909.0000    3671.0000     122.1138     122.6715       0.0107    5977.6608    5977.6714     122.6564         11     201.8206       0.0157    5530.0598    5530.0753    5527.2042    5527.3542       0.1500
     294.0    4822.1794 1445909.0000    3671.0000     122.1132     122.6713       0.0113    5977.5991    5977.6104     122.6569         11     202.8206       0.0167    5530.0834    5530.1000    5527.1889    5527.3378       0.1488
     295.0    4777.6862 1445909.0000    3671.0000     122.1144     122.6725       0.0110    5977.6115    5977.6226     122.6575         11     203.8206       0.0149    5530.0280    5530.0430    5527.1831    5527.3308       0.1477
     296.0    4725.3275 1445909.0000    3671.0000     122.1136     122.6718       0.0105    5977.7166    5977.7270     122.6581         11     204.8206       0.0096    5530.0131    5530.0228    5527.1717    5527.3183       0.1465
     297.0    4683.9956 1445909.0000    3671.0000     122.1167     122.6728       0.0104    5977.7364    5977.7467     122.6585         11     205.8206       0.0047    5530.0640    5530.0688    5527.1708    5527.3158       0.1449
     298.0    4704.9012 1445909.0000    3671.0000     122.1154     122.6723       0.0106    5977.7056    5977.7164     122.6588         11     206.8206       0.0036    5530.0733    5530.0768    5527.1611    5527.3035       0.1424
     299.0    4697.8700 1445909.0000    3671.0000     122.1131     122.6735       0.0101    5977.8450    5977.8553     122.6596         11     207.8206       0.0046    5529.8970    5529.9016    5527.1535    5527.2934       0.1401
     300.0    4726.1838 1445909.0000    3671.0000     122.1153     122.6728       0.0086    5977.7898    5977.7986     122.6599         11     208.8206       0.0064    5530.0383    5530.0447    5527.1400    5527.2782       0.1381
