~VERSION INFORMATION
VERS.           2.0   :CWLS Log ASCII Standard - VERSION 2.0
WRAP.           NO    :One Line per depth step
PROD.  Schlumberger   :LAS Producer
PROG.  DLIS to ASCII 2.2                               :LAS Program name and version
CREA.        2020/10/30 12:18                          :LAS Creation date {YYYY/MM/DD hh:mm}
SOURCE.     XPT_HRLA_TLD_MCFL_069LTP.DLIS              :DLIS File Name
FILE-ID.     XPT_HRLA_TLD_MCFL_069LTP                  :File Identification Number
#--------------------------------------------------
~WELL INFORMATION
#MNEM.UNIT      DATA             DESCRIPTION
#---- ------ --------------   -----------------------------
STRT .S         1113.0       :START TIME      
STOP .S         1454.0       :STOP TIME      
STEP .S            1.0       :STEP     
NULL .          -999.25      :NULL VALUE
COMP .        Nexus Energy                             :COMPANY
WELL .        Crux-3                                   :WELL
FLD  .        Crux                                     :FIELD
LOC  .        Easting: 656981.7mE                      :LOCATION
CNTY .        Sedco-703                                :COUNTY
STAT .        Northern Territory                       :STATE
CTRY .        Australia                                :COUNTRY
API  .                                                 :API NUMBER
UWI  .                                                 :UNIQUE WELL ID
DATE .        31-Dec-2007                              :LOG DATE {DD-MMM-YYYY}
SRVC .        Schlumberger                             :SERVICE COMPANY
LATI .DEG     12*57'32.63" S                           :LATITUDE
LONG .DEG     124*26'50.07" E                          :LONGITUDE
GDAT .                                                 :GeoDetic Datum
#-----------------------------------------------------------------------------
~PARAMETER INFORMATION
#MNEM.UNIT    VALUE                      DESCRIPTION
#---- -----   --------------------       ------------------------
RUN  .          1                        :RUN NUMBER
PDAT .        LAT                        :Permanent Datum
EPD  .M           0.000000               :Elevation of Permanent Datum above Mean Sea Level
EPD  .M           0.000000               :Elevation of tool zero above Mean Sea Level
LMF  .          DF                       :Logging Measured From (Name of Logging Elevation Reference)
APD  .M          26.400000               :Elevation of Depth Reference (LMF) above Permanent Datum
#-----------------------------------------------------------------------------
~CURVE INFORMATION
#MNEM.UNIT   API CODE                                  DESCRIPTION
#---- -----  --------                                  -----------------------
TIME .S                                                :TIME {F10.1}
TENS_SL.LBF                                            :Cable Tension {F13.4}
DEPT_SL..1IN                                           :Station logging depth {F13.4}
PDEP_XPT.M                                             :XPT Probe Depth {F13.4}
MTEP_SAP.DEGC                                          :Sapphire Gauge Manometer Temperature {F13.4}
MTEP_HYD.DEGC                                          :Hydrostatic Sapphire Gauge Manometer Temperature {F13.4}
PCO_HYD.PSI                                            :Hydrostatic Sapphire Dynamic Compensation {F13.4}
PND_HYD.PSI                                            :Hydrostatic Sapphire Pressure Without Dynamic Compensation {F13.4}
CP_HYD.PSI                                             :Hydrostatic Sapphire Pressure With Dynamic Compensation {F13.4}
MTEP_QG.DEGC                                           :CQG Manometer Temperature {F13.4}
PTNO_XPT.                                              :XPT Pretest Number {I11}
ETIM_XPT.S                                             :Elapsed Logging Time {F13.4}
PCO_SAP.PSI                                            :Sapphire Dynamic Compensation {F13.4}
PND_SAP.PSI                                            :Sapphire Pressure Without Dynamic Compensation {F13.4}
CP_SAP.PSI                                             :Sapphire Pressure With Dynamic Compensation {F13.4}
QNDP .PSI                                              :CQG Pressure Without Dynamic Compensation {F13.4}
QCP  .PSI                                              :CQG Pressure With Dynamic Compensation {F13.4}
QPCO .PSI                                              :CQG Dynamic Compensation {F13.4}
#-----------------------------------------------------------------------------
# 
#     TIME      TENS_SL      DEPT_SL      PDEP_XPT     MTEP_SAP     MTEP_HYD     PCO_HYD      PND_HYD       CP_HYD      MTEP_QG       PTNO_XPT       ETIM_XPT     PCO_SAP      PND_SAP       CP_SAP        QNDP         QCP          QPCO
#
~A  
# ...
    1288.0    4918.2024 1534897.0000    3897.0293     132.7665     133.0562      -0.1529    6335.9590    6335.8062     133.4751         34     174.8951      -0.1348    5832.9983    5832.8635    5831.5240    5831.0509      -0.4732
    1289.0    4925.8464 1534897.0000    3897.0293     132.7631     133.0537      -0.1496    6336.0726    6335.9231     133.4740         34     175.8951      -0.1356    5832.5540    5832.4183    5831.2577    5830.7822      -0.4755
    1290.0    4940.4269 1534897.0000    3897.0293     132.7619     133.0511      -0.1455    6336.1998    6336.0543     133.4723         34     176.8951      -0.1350    5832.3919    5832.2570    5830.9891    5830.5117      -0.4775
    1291.0    4983.1758 1534897.0000    3897.0293     132.7597     133.0493      -0.1421    6336.1265    6335.9844     133.4709         34     177.8951      -0.1326    5832.2097    5832.0769    5830.7487    5830.2692      -0.4796
    1292.0    5024.7001 1534897.0000    3897.0293     132.7576     133.0462      -0.1407    6336.0754    6335.9347     133.4695         34     178.8951      -0.1300    5831.9116    5831.7814    5830.4744    5829.9922      -0.4820
    1293.0    5036.1610 1534897.0000    3897.0293     132.7550     133.0440      -0.1420    6336.0759    6335.9340     133.4681         34     179.8951      -0.1296    5831.5785    5831.4488    5830.2074    5829.7224      -0.4848
    1294.0    5035.2098 1534897.0000    3897.0293     132.7540     133.0432      -0.1453    6336.1831    6336.0376     133.4666         34     180.8951      -0.1313    5831.3708    5831.2395    5829.9596    5829.4718      -0.4876
    1295.0    5017.9926 1534897.0000    3897.0293     132.7499     133.0384      -0.1494    6336.0713    6335.9219     133.4649         34     181.8951      -0.1328    5831.0329    5830.9001    5829.6893    5829.1994      -0.4898
    1296.0    4938.1241 1534897.0000    3897.0293     132.7484     133.0371      -0.1521    6336.0987    6335.9465     133.4634         34     182.8951      -0.1321    5830.7375    5830.6055    5829.4215    5828.9300      -0.4915
    1297.0    4939.7415 1534897.0000    3897.0293     132.7472     133.0317      -0.1524    6336.0615    6335.9092     133.4619         34     183.8951      -0.1306    5830.5545    5830.4242    5829.1795    5828.6868      -0.4929
    1298.0    4919.5170 1534897.0000    3897.0293     132.7421     133.0305      -0.1506    6336.1472    6335.9966     133.4607         34     184.8951      -0.1303    5830.3032    5830.1728    5828.9125    5828.4182      -0.4943
    1299.0    4907.1536 1534897.0000    3897.0293     132.7411     133.0269      -0.1478    6336.1708    6336.0230     133.4591         34     185.8951      -0.1313    5829.9671    5829.8358    5828.6405    5828.1446      -0.4959
    1300.0    4890.7829 1534897.0000    3897.0293     132.7404     133.0257      -0.1457    6336.1782    6336.0327     133.4573         34     186.8951      -0.1324    5829.8850    5829.7526    5828.4059    5827.9084      -0.4976
    1301.0    4986.5686 1534897.0000    3897.0293     132.7369     133.0232      -0.1448    6336.1931    6336.0481     133.4559         34     187.8951      -0.1338    5829.5220    5829.3881    5828.1402    5827.6408      -0.4994
    1302.0    4979.2024 1534897.0000    3897.0293     132.7336     133.0198      -0.1462    6336.0887    6335.9424     133.4545         34     188.8951      -0.1368    5829.3005    5829.1636    5827.8944    5827.3927      -0.5018
    1303.0    4989.5318 1534897.0000    3897.0293     132.7299     133.0177      -0.1495    6336.0022    6335.8528     133.4530         34     189.8951      -0.1409    5829.0353    5828.8942    5827.6388    5827.1344      -0.5042
    1304.0    5015.1684 1534897.0000    3897.0293     132.7279     133.0142      -0.1525    6335.8740    6335.7215     133.4512         34     190.8951      -0.1435    5828.7263    5828.5828    5827.3697    5826.8629      -0.5067
    1305.0    5011.7341 1534897.0000    3897.0293     132.7268     133.0120      -0.1535    6335.9723    6335.8190     133.4499         34     191.8951      -0.1428    5828.5330    5828.3902    5827.1365    5826.6278      -0.5084
    1306.0    4960.8730 1534897.0000    3897.0293     132.7242     133.0093      -0.1525    6336.0035    6335.8511     133.4479         34     192.8951      -0.1396    5828.1684    5828.0287    5826.8825    5826.3723      -0.5102
    1307.0    4946.9439 1534897.0000    3897.0293     132.7203     133.0051      -0.1512    6336.0594    6335.9082     133.4465         34     193.8951      -0.1358    5827.9114    5827.7756    5826.6266    5826.1147      -0.5119
    1308.0    4946.8951 1534897.0000    3897.0293     132.7180     133.0030      -0.1501    6336.1191    6335.9690     133.4450         34     194.8951      -0.1318    5827.7275    5827.5957    5826.3857    5825.8725      -0.5133
    1309.0    4940.7341 1534897.0000    3897.0293     132.7152     133.0005      -0.1490    6336.3307    6336.1817     133.4437         34     195.8951      -0.1288    5827.4212    5827.2923    5826.1427    5825.6276      -0.5151
    1310.0    4900.6145 1534897.0000    3897.0293     132.7143     132.9985      -0.1473    6336.2522    6336.1049     133.4419         34     196.8951      -0.1272    5827.2273    5827.1000    5825.8765    5825.3593      -0.5171
    1311.0    4894.2098 1534897.0000    3897.0293     132.7106     132.9959      -0.1461    6336.2039    6336.0579     133.4404         34     197.8951      -0.1276    5827.0186    5826.8911    5825.6367    5825.1174      -0.5194
    1312.0    5035.4298 1534897.0000    3897.0293     132.7121     132.9921      -0.1459    6336.0057    6335.8597     133.4388         34     198.8951      -0.1298    5826.8455    5826.7157    5825.3854    5824.8644      -0.5212
    1313.0    5011.7194 1534897.0000    3897.0293     132.7071     132.9898      -0.1464    6335.9780    6335.8315     133.4372         34     199.8951      -0.1333    5826.4185    5826.2852    5825.1263    5824.6037      -0.5228
    1314.0    5037.4343 1534897.0000    3897.0293     132.7039     132.9875      -0.1471    6336.0247    6335.8778     133.4357         34     200.8951      -0.1368    5826.1553    5826.0184    5824.8815    5824.3573      -0.5243
    1315.0    5038.3146 1534897.0000    3897.0293     132.7031     132.9845      -0.1473    6335.6808    6335.5334     133.4339         34     201.8951      -0.1384    5825.9501    5825.8119    5824.6314    5824.1051      -0.5264
    1316.0    5005.7755 1534897.0000    3897.0293     132.6992     132.9813      -0.1475    6336.0181    6335.8707     133.4325         34     202.8951      -0.1379    5825.6112    5825.4732    5824.3832    5823.8557      -0.5276
    1317.0    4905.3265 1534897.0000    3897.0293     132.6969     132.9800      -0.1475    6336.1052    6335.9578     133.4310         34     203.8951      -0.1362    5825.4152    5825.2788    5824.1549    5823.6262      -0.5286
    1318.0    4936.9660 1534897.0000    3897.0293     132.6948     132.9761      -0.1475    6336.0744    6335.9269     133.4293         34     204.8951      -0.1338    5825.2057    5825.0719    5823.9118    5823.3825      -0.5295
    1319.0    4927.6780 1534897.0000    3897.0293     132.6920     132.9736      -0.1463    6336.2487    6336.1023     133.4276         34     205.8951      -0.1310    5824.9526    5824.8215    5823.6641    5823.1343      -0.5298
    1320.0    4942.1123 1534897.0000    3897.0293     132.6896     132.9713      -0.1435    6336.4272    6336.2838     133.4261         34     206.8951      -0.1289    5824.6813    5824.5522    5823.4313    5822.9012      -0.5301
    1321.0    4881.3413 1534897.0000    3897.0293     132.6876     132.9685      -0.1401    6336.1769    6336.0368     133.4237         34     207.8951      -0.1291    5824.4770    5824.3481    5823.1813    5822.6510      -0.5305
    1322.0    4940.2392 1534897.0000    3897.0293     132.6852     132.9655      -0.1384    6336.1433    6336.0050     133.4228         34     208.8951      -0.1317    5824.2455    5824.1139    5822.9254    5822.3942      -0.5313
