~VERSION INFORMATION
VERS.           2.0   :CWLS Log ASCII Standard - VERSION 2.0
WRAP.           NO    :One Line per depth step
PROD.  Schlumberger   :LAS Producer
PROG.  DLIS to ASCII 2.2                               :LAS Program name and version
CREA.        2020/10/30 12:18                          :LAS Creation date {YYYY/MM/DD hh:mm}
SOURCE.     XPT_HRLA_TLD_MCFL_068LTP.DLIS              :DLIS File Name
FILE-ID.     XPT_HRLA_TLD_MCFL_068LTP                  :File Identification Number
#--------------------------------------------------
~WELL INFORMATION
#MNEM.UNIT      DATA             DESCRIPTION
#---- ------ --------------   -----------------------------
STRT .S           82.0       :START TIME      
STOP .S          488.0       :STOP TIME      
STEP .S            1.0       :STEP     
NULL .          -999.25      :NULL VALUE
COMP .        Nexus Energy                             :COMPANY
WELL .        Crux-3                                   :WELL
FLD  .        Crux                                     :FIELD
LOC  .        Easting: 656981.7mE                      :LOCATION
CNTY .        Sedco-703                                :COUNTY
STAT .        Northern Territory                       :STATE
CTRY .        Australia                                :COUNTRY
API  .                                                 :API NUMBER
UWI  .                                                 :UNIQUE WELL ID
DATE .        31-Dec-2007                              :LOG DATE {DD-MMM-YYYY}
SRVC .        Schlumberger                             :SERVICE COMPANY
LATI .DEG     12*57'32.63" S                           :LATITUDE
LONG .DEG     124*26'50.07" E                          :LONGITUDE
GDAT .                                                 :GeoDetic Datum
#-----------------------------------------------------------------------------
~PARAMETER INFORMATION
#MNEM.UNIT    VALUE                      DESCRIPTION
#---- -----   --------------------       ------------------------
RUN  .          1                        :RUN NUMBER
PDAT .        LAT                        :Permanent Datum
EPD  .M           0.000000               :Elevation of Permanent Datum above Mean Sea Level
EPD  .M           0.000000               :Elevation of tool zero above Mean Sea Level
LMF  .          DF                       :Logging Measured From (Name of Logging Elevation Reference)
APD  .M          26.400000               :Elevation of Depth Reference (LMF) above Permanent Datum
#-----------------------------------------------------------------------------
~CURVE INFORMATION
#MNEM.UNIT   API CODE                                  DESCRIPTION
#---- -----  --------                                  -----------------------
TIME .S                                                :TIME {F10.1}
TENS_SL.LBF                                            :Cable Tension {F13.4}
DEPT_SL..1IN                                           :Station logging depth {F13.4}
PDEP_XPT.M                                             :XPT Probe Depth {F13.4}
MTEP_SAP.DEGC                                          :Sapphire Gauge Manometer Temperature {F13.4}
MTEP_HYD.DEGC                                          :Hydrostatic Sapphire Gauge Manometer Temperature {F13.4}
PCO_HYD.PSI                                            :Hydrostatic Sapphire Dynamic Compensation {F13.4}
PND_HYD.PSI                                            :Hydrostatic Sapphire Pressure Without Dynamic Compensation {F13.4}
CP_HYD.PSI                                             :Hydrostatic Sapphire Pressure With Dynamic Compensation {F13.4}
MTEP_QG.DEGC                                           :CQG Manometer Temperature {F13.4}
PTNO_XPT.                                              :XPT Pretest Number {I11}
ETIM_XPT.S                                             :Elapsed Logging Time {F13.4}
PCO_SAP.PSI                                            :Sapphire Dynamic Compensation {F13.4}
PND_SAP.PSI                                            :Sapphire Pressure Without Dynamic Compensation {F13.4}
CP_SAP.PSI                                             :Sapphire Pressure With Dynamic Compensation {F13.4}
QNDP .PSI                                              :CQG Pressure Without Dynamic Compensation {F13.4}
QCP  .PSI                                              :CQG Pressure With Dynamic Compensation {F13.4}
QPCO .PSI                                              :CQG Dynamic Compensation {F13.4}
#-----------------------------------------------------------------------------
# 
#     TIME      TENS_SL      DEPT_SL      PDEP_XPT     MTEP_SAP     MTEP_HYD     PCO_HYD      PND_HYD       CP_HYD      MTEP_QG       PTNO_XPT       ETIM_XPT     PCO_SAP      PND_SAP       CP_SAP        QNDP         QCP          QPCO
#
~A  
# ...
     292.0    5012.4238 1566781.0000    3978.0146     132.9240     133.5630       0.0310    6464.4971    6464.5280     133.2449         33     210.1413       0.5518    5728.3459    5728.8976    5722.8380    5723.7685       0.9306
     293.0    5009.3488 1566781.0000    3978.0146     132.9266     133.5634       0.0357    6464.5138    6464.5496     133.2463         33     211.1413       0.3936    5730.3569    5730.7504    5725.2617    5726.1429       0.8812
     294.0    4968.3598 1566781.0000    3978.0146     132.9267     133.5642       0.0400    6464.5443    6464.5844     133.2487         33     212.1413       0.2229    5730.7443    5730.9672    5725.9710    5726.7807       0.8097
     295.0    4933.2274 1566781.0000    3978.0146     132.9294     133.5658       0.0441    6464.7303    6464.7742     133.2510         33     213.1413       0.0978    5730.8074    5730.9052    5726.3128    5727.0859       0.7730
     296.0    4964.8587 1566781.0000    3978.0146     132.9276     133.5667       0.0482    6464.6214    6464.6695     133.2533         33     214.1413       0.0322    5730.6560    5730.6883    5726.5436    5727.3169       0.7735
     297.0    4955.5231 1566781.0000    3978.0146     132.9278     133.5684       0.0508    6464.7724    6464.8232     133.2561         33     215.1413       0.0062    5730.8024    5730.8086    5726.7427    5727.5235       0.7807
     298.0    4908.2384 1566781.0000    3978.0146     132.9278     133.5673       0.0498    6464.7471    6464.7969     133.2587         33     216.1413      -0.0040    5730.6939    5730.6900    5726.8984    5727.6732       0.7748
     299.0    4946.7153 1566781.0000    3978.0146     132.9283     133.5689       0.0461    6464.6825    6464.7285     133.2607         33     217.1413      -0.0076    5730.7048    5730.6971    5727.0204    5727.7775       0.7573
     300.0    5028.9448 1566781.0000    3978.0146     132.9285     133.5706       0.0431    6464.7007    6464.7436     133.2632         33     218.1413      -0.0070    5730.7222    5730.7155    5727.1330    5727.8658       0.7327
     301.0    5059.5651 1566781.0000    3978.0146     132.9280     133.5706       0.0423    6464.6404    6464.6829     133.2655         33     219.1413      -0.0043    5730.6807    5730.6763    5727.2228    5727.9281       0.7053
     302.0    5066.1082 1566781.0000    3978.0146     132.9274     133.5717       0.0420    6464.5047    6464.5467     133.2676         33     220.1413      -0.0009    5730.6770    5730.6762    5727.2915    5727.9685       0.6768
     303.0    5078.9249 1566781.0000    3978.0146     132.9272     133.5721       0.0411    6464.4136    6464.4545     133.2696         33     221.1413       0.0026    5730.6578    5730.6605    5727.3585    5728.0072       0.6489
     304.0    5039.5982 1566781.0000    3978.0146     132.9282     133.5721       0.0403    6464.5243    6464.5646     133.2716         33     222.1413       0.0072    5730.6438    5730.6508    5727.4196    5728.0415       0.6219
     305.0    5016.5231 1566781.0000    3978.0146     132.9291     133.5742       0.0419    6464.6181    6464.6600     133.2735         33     223.1413       0.0119    5730.7424    5730.7543    5727.4671    5728.0638       0.5965
     306.0    4960.0552 1566781.0000    3978.0146     132.9270     133.5744       0.0446    6464.6123    6464.6568     133.2750         33     224.1413       0.0145    5730.6562    5730.6709    5727.5136    5728.0868       0.5731
     307.0    4930.1413 1566781.0000    3978.0146     132.9286     133.5752       0.0448    6464.6082    6464.6529     133.2767         33     225.1413       0.0156    5730.7291    5730.7448    5727.5528    5728.1048       0.5517
     308.0    4927.6093 1566781.0000    3978.0146     132.9298     133.5760       0.0421    6464.7468    6464.7890     133.2782         33     226.1413       0.0178    5730.8149    5730.8327    5727.5849    5728.1172       0.5325
     309.0    4906.4349 1566781.0000    3978.0146     132.9297     133.5767       0.0401    6464.7671    6464.8071     133.2804         33     227.1413       0.0217    5730.6529    5730.6745    5727.6198    5728.1353       0.5157
     310.0    4913.4548 1566781.0000    3978.0146     132.9296     133.5794       0.0416    6464.6891    6464.7305     133.2815         33     228.1413       0.0251    5730.7276    5730.7527    5727.6406    5728.1417       0.5011
     311.0    4990.5630 1566781.0000    3978.0146     132.9285     133.5776       0.0444    6464.7151    6464.7595     133.2830         33     229.1413       0.0271    5730.6329    5730.6601    5727.6660    5728.1544       0.4883
     312.0    5071.5872 1566781.0000    3978.0146     132.9301     133.5781       0.0450    6464.6442    6464.6892     133.2848         33     230.1413       0.0297    5730.7535    5730.7830    5727.6848    5728.1619       0.4771
     313.0    5063.0000 1566781.0000    3978.0146     132.9325     133.5811       0.0439    6464.6317    6464.6755     133.2860         33     231.1413       0.0340    5730.7960    5730.8298    5727.6975    5728.1648       0.4674
     314.0    5062.4349 1566781.0000    3978.0146     132.9317     133.5813       0.0433    6464.5737    6464.6172     133.2875         33     232.1413       0.0374    5730.7831    5730.8205    5727.7138    5728.1728       0.4591
     315.0    5048.2626 1566781.0000    3978.0146     132.9325     133.5828       0.0430    6464.5460    6464.5890     133.2886         33     233.1413       0.0381    5730.7354    5730.7735    5727.7264    5728.1782       0.4517
     316.0    4979.4680 1566781.0000    3978.0146     132.9329     133.5823       0.0413    6464.6263    6464.6675     133.2900         33     234.1413       0.0374    5730.6815    5730.7191    5727.7431    5728.1885       0.4453
     317.0    4952.0662 1566781.0000    3978.0146     132.9343     133.5819       0.0383    6464.6048    6464.6430     133.2916         33     235.1413       0.0382    5730.7394    5730.7775    5727.7577    5728.1975       0.4397
     318.0    4914.8697 1566781.0000    3978.0146     132.9347     133.5841       0.0362    6464.6735    6464.7097     133.2930         33     236.1413       0.0406    5730.7673    5730.8080    5727.7673    5728.2022       0.4351
     319.0    4908.4238 1566781.0000    3978.0146     132.9351     133.5846       0.0361    6464.7306    6464.7667     133.2941         33     237.1413       0.0429    5730.7077    5730.7504    5727.7728    5728.2040       0.4313
     320.0    4916.5100 1566781.0000    3978.0146     132.9360     133.5851       0.0367    6464.7611    6464.7977     133.2953         33     238.1413       0.0437    5730.7903    5730.8338    5727.7811    5728.2082       0.4270
     321.0    4961.5851 1566781.0000    3978.0146     132.9363     133.5862       0.0362    6464.7136    6464.7497     133.2966         33     239.1413       0.0434    5730.7744    5730.8179    5727.7885    5728.2116       0.4230
     322.0    5031.8587 1566781.0000    3978.0146     132.9374     133.5863       0.0346    6464.6312    6464.6657     133.2981         33     240.1413       0.0434    5730.7793    5730.8228    5727.7955    5728.2149       0.4195
     323.0    5036.3687 1566781.0000    3978.0146     132.9398     133.5871       0.0341    6464.6609    6464.6950     133.2994         33     241.1413       0.0434    5730.7636    5730.8071    5727.8050    5728.2217       0.4167
     324.0    5069.5651 1566781.0000    3978.0146     132.9393     133.5867       0.0372    6464.5803    6464.6176     133.3004         33     242.1413       0.0424    5730.8741    5730.9165    5727.8119    5728.2254       0.4136
     325.0    5067.7726 1566781.0000    3978.0146     132.9395     133.5893       0.0435    6464.5073    6464.5507     133.3017         33     243.1413       0.0401    5730.7567    5730.7970    5727.8179    5728.2285       0.4105
     326.0    5024.8388 1566781.0000    3978.0146     132.9415     133.5874       0.0494    6464.4575    6464.5070     133.3030         33     244.1413       0.0391    5730.7433    5730.7823    5727.8218    5728.2300       0.4083
