~VERSION INFORMATION
VERS.           2.0   :CWLS Log ASCII Standard - VERSION 2.0
WRAP.           NO    :One Line per depth step
PROD.  Schlumberger   :LAS Producer
PROG.  DLIS to ASCII 2.2                               :LAS Program name and version
CREA.        2020/10/30 12:18                          :LAS Creation date {YYYY/MM/DD hh:mm}
SOURCE.     XPT_HRLA_TLD_MCFL_064LTP.DLIS              :DLIS File Name
FILE-ID.     XPT_HRLA_TLD_MCFL_064LTP                  :File Identification Number
#--------------------------------------------------
~WELL INFORMATION
#MNEM.UNIT      DATA             DESCRIPTION
#---- ------ --------------   -----------------------------
STRT .S         1332.0       :START TIME      
STOP .S         1827.0       :STOP TIME      
STEP .S            1.0       :STEP     
NULL .          -999.25      :NULL VALUE
COMP .        Nexus Energy                             :COMPANY
WELL .        Crux-3                                   :WELL
FLD  .        Crux                                     :FIELD
LOC  .        Easting: 656981.7mE                      :LOCATION
CNTY .        Sedco-703                                :COUNTY
STAT .        Northern Territory                       :STATE
CTRY .        Australia                                :COUNTRY
API  .                                                 :API NUMBER
UWI  .                                                 :UNIQUE WELL ID
DATE .        31-Dec-2007                              :LOG DATE {DD-MMM-YYYY}
SRVC .        Schlumberger                             :SERVICE COMPANY
LATI .DEG     12*57'32.63" S                           :LATITUDE
LONG .DEG     124*26'50.07" E                          :LONGITUDE
GDAT .                                                 :GeoDetic Datum
#-----------------------------------------------------------------------------
~PARAMETER INFORMATION
#MNEM.UNIT    VALUE                      DESCRIPTION
#---- -----   --------------------       ------------------------
RUN  .          1                        :RUN NUMBER
PDAT .        LAT                        :Permanent Datum
EPD  .M           0.000000               :Elevation of Permanent Datum above Mean Sea Level
EPD  .M           0.000000               :Elevation of tool zero above Mean Sea Level
LMF  .          DF                       :Logging Measured From (Name of Logging Elevation Reference)
APD  .M          26.400000               :Elevation of Depth Reference (LMF) above Permanent Datum
#-----------------------------------------------------------------------------
~CURVE INFORMATION
#MNEM.UNIT   API CODE                                  DESCRIPTION
#---- -----  --------                                  -----------------------
TIME .S                                                :TIME {F10.1}
TENS_SL.LBF                                            :Cable Tension {F13.4}
DEPT_SL..1IN                                           :Station logging depth {F13.4}
PDEP_XPT.M                                             :XPT Probe Depth {F13.4}
MTEP_SAP.DEGC                                          :Sapphire Gauge Manometer Temperature {F13.4}
MTEP_HYD.DEGC                                          :Hydrostatic Sapphire Gauge Manometer Temperature {F13.4}
PCO_HYD.PSI                                            :Hydrostatic Sapphire Dynamic Compensation {F13.4}
PND_HYD.PSI                                            :Hydrostatic Sapphire Pressure Without Dynamic Compensation {F13.4}
CP_HYD.PSI                                             :Hydrostatic Sapphire Pressure With Dynamic Compensation {F13.4}
MTEP_QG.DEGC                                           :CQG Manometer Temperature {F13.4}
PTNO_XPT.                                              :XPT Pretest Number {I11}
ETIM_XPT.S                                             :Elapsed Logging Time {F13.4}
PCO_SAP.PSI                                            :Sapphire Dynamic Compensation {F13.4}
PND_SAP.PSI                                            :Sapphire Pressure Without Dynamic Compensation {F13.4}
CP_SAP.PSI                                             :Sapphire Pressure With Dynamic Compensation {F13.4}
QNDP .PSI                                              :CQG Pressure Without Dynamic Compensation {F13.4}
QCP  .PSI                                              :CQG Pressure With Dynamic Compensation {F13.4}
QPCO .PSI                                              :CQG Dynamic Compensation {F13.4}
#-----------------------------------------------------------------------------
# 
#     TIME      TENS_SL      DEPT_SL      PDEP_XPT     MTEP_SAP     MTEP_HYD     PCO_HYD      PND_HYD       CP_HYD      MTEP_QG       PTNO_XPT       ETIM_XPT     PCO_SAP      PND_SAP       CP_SAP        QNDP         QCP          QPCO
#
~A  
    1332.0    4889.4816 1496483.0000    3799.4575     128.8288     129.2590       0.0000    6182.1870    6182.1870     129.6905         27       0.1646       0.0000    6179.7496    6179.7496    6178.0234    6178.0234       0.0000
    1333.0    4895.6830 1496483.0000    3799.4575     128.8258     129.2545       0.0000    6181.9643    6181.9643     129.6897         27       1.1646       0.0000    6179.5709    6179.5709    6177.9648    6177.9648       0.0000
    1334.0    4885.8721 1496483.0000    3799.4575     128.8270     129.2549       0.0000    6181.9116    6181.9116     129.6891         27       2.1646       0.0000    6179.6687    6179.6687    6177.9454    6177.9454       0.0000
    1335.0    4866.2136 1496483.0000    3799.4575     128.8257     129.2513       0.0000    6181.9587    6181.9587     129.6878         27       3.1646       0.0000    6179.6488    6179.6488    6177.9798    6177.9798       0.0000
    1336.0    4837.2871 1496483.0000    3799.4575     128.8235     129.2511       0.0000    6182.1280    6182.1280     129.6869         27       4.1646       0.0000    6179.7506    6179.7506    6178.0581    6178.0581       0.0000
    1337.0    4786.0245 1496483.0000    3799.4575     128.8226     129.2490       0.0000    6182.1357    6182.1357     129.6861         27       5.1646       0.0000    6179.8425    6179.8425    6178.0563    6178.0563       0.0000
    1338.0    4773.2014 1496483.0000    3799.4575     128.8211     129.2464      -0.1001    6182.0878    6181.9877     129.6853         27       6.1646      -0.0819    6179.8945    6179.8125    6178.1565    6177.8547      -0.3020
    1339.0    4761.4694 1496483.0000    3799.4575     128.8198     129.2461      -0.1048    6182.2576    6182.1526     129.6842         27       7.1646      -0.0824    6179.9856    6179.9031    6178.3194    6178.0152      -0.3042
    1340.0    4779.4326 1496483.0000    3799.4575     128.8174     129.2430      -0.1076    6182.2467    6182.1392     129.6834         27       8.1646      -0.0843    6180.0220    6179.9378    6178.2880    6177.9822      -0.3057
    1341.0    4813.0911 1496483.0000    3799.4575     128.8160     129.2415      -0.1067    6182.2166    6182.1097     129.6823         27       9.1646      -0.0862    6179.9173    6179.8311    6178.2869    6177.9800      -0.3068
    1342.0    4851.5728 1496483.0000    3799.4575     128.8157     129.2392      -0.1029    6182.1773    6182.0746     129.6814         27      10.1646      -0.0861    6179.9733    6179.8873    6178.1886    6177.8810      -0.3078
    1343.0    4889.8354 1496483.0000    3799.4575     128.8137     129.2370      -0.1000    6182.0630    6181.9630     129.6805         27      11.1646      -0.0852    6179.8592    6179.7737    6178.1408    6177.8321      -0.3087
    1344.0    4890.4816 1496483.0000    3799.4575     128.8119     129.2346      -0.0995    6182.0779    6181.9783     129.6794         27      12.1646      -0.0862    6179.7810    6179.6947    6178.0629    6177.7534      -0.3095
    1345.0    4898.4939 1496483.0000    3799.4575     128.8093     129.2349      -0.0998    6182.1038    6182.0042     129.6784         27      13.1646      -0.0876    6179.6570    6179.5696    6178.0489    6177.7394      -0.3097
    1346.0    4900.1769 1496483.0000    3799.4575     128.8085     129.2332      -0.1002    6182.0727    6181.9725     129.6776         27      14.1646      -0.0882    6179.7856    6179.6973    6178.1169    6177.8066      -0.3104
    1347.0    4892.5429 1496483.0000    3799.4575     128.8070     129.2312      -0.1028    6182.0478    6181.9451     129.6766         27      15.1646      -0.0876    6179.7647    6179.6771    6178.1016    6177.7895      -0.3122
    1348.0    4869.5674 1496483.0000    3799.4575     128.8051     129.2279      -0.1049    6182.0760    6181.9711     129.6755         27      16.1646      -0.0875    6179.7721    6179.6847    6178.1053    6177.7919      -0.3136
    1349.0    4838.3782 1496483.0000    3799.4575     128.8025     129.2256      -0.1049    6182.0998    6181.9951     129.6747         27      17.1646      -0.0876    6179.6825    6179.5947    6178.0804    6177.7653      -0.3151
    1350.0    4818.0245 1496483.0000    3799.4575     128.8024     129.2249      -0.1014    6182.1153    6182.0138     129.6735         27      18.1646      -0.0873    6179.6577    6179.5703    6178.0355    6177.7191      -0.3164
    1351.0    4805.5306 1496483.0000    3799.4575     128.8012     129.2225      -0.0981    6182.1649    6182.0667     129.6725         27      19.1646      -0.0865    6179.7138    6179.6273    6178.0211    6177.7033      -0.3177
    1352.0    4788.8844 1496483.0000    3799.4575     128.8001     129.2206      -0.0976    6182.1807    6182.0830     129.6718         27      20.1646      -0.0856    6179.6974    6179.6119    6178.0268    6177.7083      -0.3186
    1353.0    4769.4816 1496483.0000    3799.4575     128.7973     129.2199      -0.0990    6182.1503    6182.0514     129.6705         27      21.1646      -0.0848    6179.6764    6179.5918    6178.0879    6177.7687      -0.3191
    1354.0    4777.9878 1496483.0000    3799.4575     128.7949     129.2174      -0.1013    6182.2838    6182.1824     129.6697         27      22.1646      -0.0846    6179.7689    6179.6845    6178.1835    6177.8637      -0.3197
    1355.0    4788.2680 1496483.0000    3799.4575     128.7942     129.2156      -0.1042    6182.2119    6182.1077     129.6687         27      23.1646      -0.0864    6179.8786    6179.7921    6178.1936    6177.8728      -0.3207
    1356.0    4821.7496 1496483.0000    3799.4575     128.7924     129.2133      -0.1070    6182.1875    6182.0805     129.6675         27      24.1646      -0.0893    6179.8371    6179.7477    6178.1915    6177.8697      -0.3217
    1357.0    4858.4694 1496483.0000    3799.4575     128.7923     129.2126      -0.1080    6182.1868    6182.0789     129.6666         27      25.1646      -0.0908    6179.9178    6179.8270    6178.1817    6177.8594      -0.3224
    1358.0    4872.3170 1496483.0000    3799.4575     128.7898     129.2087      -0.1070    6182.1396    6182.0327     129.6657         27      26.1646      -0.0896    6179.7953    6179.7055    6178.1232    6177.8005      -0.3228
    1359.0    4880.4816 1496483.0000    3799.4575     128.7880     129.2080      -0.1062    6182.1313    6182.0252     129.6644         27      27.1646      -0.0887    6179.7854    6179.6968    6178.1120    6177.7888      -0.3231
    1360.0    4886.8476 1496483.0000    3799.4575     128.7858     129.2058      -0.1058    6182.1084    6182.0024     129.6634         27      28.1646      -0.0879    6179.7070    6179.6191    6178.1058    6177.7821      -0.3239
    1361.0    4870.2994 1496483.0000    3799.4575     128.7846     129.2027      -0.1068    6182.1353    6182.0283     129.6626         27      29.1646      -0.0861    6179.8116    6179.7256    6178.2262    6177.9010      -0.3251
    1362.0    4806.7810 1496483.0000    3799.4575     128.7836     129.2025      -0.1078    6182.1334    6182.0257     129.6616         27      30.1646      -0.0846    6179.8076    6179.7229    6178.1817    6177.8557      -0.3260
    1363.0    4760.6585 1496483.0000    3799.4575     128.7814     129.2011      -0.1084    6182.1187    6182.0103     129.6603         27      31.1646      -0.0843    6179.7920    6179.7076    6178.1932    6177.8651      -0.3281
    1364.0    4761.3660 1496483.0000    3799.4575     128.7790     129.1986      -0.1083    6182.2672    6182.1588     129.6592         27      32.1646      -0.0871    6179.8950    6179.8079    6178.2426    6177.9120      -0.3305
    1365.0    4748.0000 1496483.0000    3799.4575     128.7790     129.1956      -0.1082    6182.2583    6182.1502     129.6583         27      33.1646      -0.0911    6179.9527    6179.8615    6178.2958    6177.9642      -0.3315
    1366.0    4750.9632 1496483.0000    3799.4575     128.7780     129.1943      -0.1087    6182.1675    6182.0587     129.6574         27      34.1646      -0.0939    6179.9512    6179.8575    6178.2621    6177.9306      -0.3316
