~VERSION INFORMATION
VERS.           2.0   :CWLS Log ASCII Standard - VERSION 2.0
WRAP.           NO    :One Line per depth step
PROD.  Schlumberger   :LAS Producer
PROG.  DLIS to ASCII 2.2                               :LAS Program name and version
CREA.        2020/10/30 12:18                          :LAS Creation date {YYYY/MM/DD hh:mm}
SOURCE.     XPT_HRLA_TLD_MCFL_057LTP.DLIS              :DLIS File Name
FILE-ID.     XPT_HRLA_TLD_MCFL_057LTP                  :File Identification Number
#--------------------------------------------------
~WELL INFORMATION
#MNEM.UNIT      DATA             DESCRIPTION
#---- ------ --------------   -----------------------------
STRT .S         6912.0       :START TIME      
STOP .S         7441.0       :STOP TIME      
STEP .S            1.0       :STEP     
NULL .          -999.25      :NULL VALUE
COMP .        Nexus Energy                             :COMPANY
WELL .        Crux-3                                   :WELL
FLD  .        Crux                                     :FIELD
LOC  .        Easting: 656981.7mE                      :LOCATION
CNTY .        Sedco-703                                :COUNTY
STAT .        Northern Territory                       :STATE
CTRY .        Australia                                :COUNTRY
API  .                                                 :API NUMBER
UWI  .                                                 :UNIQUE WELL ID
DATE .        31-Dec-2007                              :LOG DATE {DD-MMM-YYYY}
SRVC .        Schlumberger                             :SERVICE COMPANY
LATI .DEG     12*57'32.63" S                           :LATITUDE
LONG .DEG     124*26'50.07" E                          :LONGITUDE
GDAT .                                                 :GeoDetic Datum
#-----------------------------------------------------------------------------
~PARAMETER INFORMATION
#MNEM.UNIT    VALUE                      DESCRIPTION
#---- -----   --------------------       ------------------------
RUN  .          1                        :RUN NUMBER
PDAT .        LAT                        :Permanent Datum
EPD  .M           0.000000               :Elevation of Permanent Datum above Mean Sea Level
EPD  .M           0.000000               :Elevation of tool zero above Mean Sea Level
LMF  .          DF                       :Logging Measured From (Name of Logging Elevation Reference)
APD  .M          26.400000               :Elevation of Depth Reference (LMF) above Permanent Datum
#-----------------------------------------------------------------------------
~CURVE INFORMATION
#MNEM.UNIT   API CODE                                  DESCRIPTION
#---- -----  --------                                  -----------------------
TIME .S                                                :TIME {F10.1}
TENS_SL.LBF                                            :Cable Tension {F13.4}
DEPT_SL..1IN                                           :Station logging depth {F13.4}
PDEP_XPT.M                                             :XPT Probe Depth {F13.4}
MTEP_SAP.DEGC                                          :Sapphire Gauge Manometer Temperature {F13.4}
MTEP_HYD.DEGC                                          :Hydrostatic Sapphire Gauge Manometer Temperature {F13.4}
PCO_HYD.PSI                                            :Hydrostatic Sapphire Dynamic Compensation {F13.4}
PND_HYD.PSI                                            :Hydrostatic Sapphire Pressure Without Dynamic Compensation {F13.4}
CP_HYD.PSI                                             :Hydrostatic Sapphire Pressure With Dynamic Compensation {F13.4}
MTEP_QG.DEGC                                           :CQG Manometer Temperature {F13.4}
PTNO_XPT.                                              :XPT Pretest Number {I11}
ETIM_XPT.S                                             :Elapsed Logging Time {F13.4}
PCO_SAP.PSI                                            :Sapphire Dynamic Compensation {F13.4}
PND_SAP.PSI                                            :Sapphire Pressure Without Dynamic Compensation {F13.4}
CP_SAP.PSI                                             :Sapphire Pressure With Dynamic Compensation {F13.4}
QNDP .PSI                                              :CQG Pressure Without Dynamic Compensation {F13.4}
QCP  .PSI                                              :CQG Pressure With Dynamic Compensation {F13.4}
QPCO .PSI                                              :CQG Dynamic Compensation {F13.4}
#-----------------------------------------------------------------------------
# 
#     TIME      TENS_SL      DEPT_SL      PDEP_XPT     MTEP_SAP     MTEP_HYD     PCO_HYD      PND_HYD       CP_HYD      MTEP_QG       PTNO_XPT       ETIM_XPT     PCO_SAP      PND_SAP       CP_SAP        QNDP         QCP          QPCO
#
~A  
# ...
    7017.0    4860.8740 1526236.0000    3875.0305     129.3468     129.8238      -0.0436    6301.1442    6301.1007     130.0724         18     105.0105      -0.1323    6291.5254    6291.3930    6289.3854    6289.3992       0.0137
    7018.0    4849.1155 1526236.0000    3875.0305     129.3434     129.8227      -0.0461    6301.0501    6301.0041     130.0723         18     106.0105      -0.1358    6287.7227    6287.5868    6285.7161    6285.6955      -0.0207
    7019.0    4861.2705 1526236.0000    3875.0305     129.3428     129.8218      -0.0493    6301.0046    6300.9551     130.0723         18     107.0105      -0.1347    6284.4041    6284.2696    6282.5131    6282.4563      -0.0570
    7020.0    4980.9580 1526236.0000    3875.0305     129.3379     129.8200      -0.0519    6300.8644    6300.8126     130.0720         18     108.0105      -0.1289    6280.3589    6280.2301    6278.4279    6278.3363      -0.0918
    7021.0    4977.1050 1526236.0000    3875.0305     129.3356     129.8192      -0.0530    6300.7954    6300.7422     130.0717         18     109.0105      -0.1219    6277.1363    6277.0144    6275.3401    6275.2165      -0.1236
    7022.0    4987.2835 1526236.0000    3875.0305     129.3346     129.8198      -0.0526    6300.8021    6300.7493     130.0710         18     110.0105      -0.1148    6273.9177    6273.8028    6272.1033    6271.9513      -0.1520
    7023.0    5014.0630 1526236.0000    3875.0305     129.3300     129.8169      -0.0520    6300.7065    6300.6547     130.0709         18     111.0105      -0.1071    6270.7212    6270.6143    6269.0284    6268.8514      -0.1767
    7024.0    5019.7270 1526236.0000    3875.0305     129.3311     129.8164      -0.0523    6300.6287    6300.5765     130.0701         18     112.0105      -0.0993    6267.9605    6267.8612    6266.2156    6266.0188      -0.1966
    7025.0    4992.8765 1526236.0000    3875.0305     129.3283     129.8162      -0.0532    6300.7627    6300.7095     130.0693         18     113.0105      -0.0932    6265.0579    6264.9647    6263.3444    6263.1321      -0.2123
    7026.0    4887.0840 1526236.0000    3875.0305     129.3263     129.8154      -0.0532    6300.8771    6300.8239     130.0684         18     114.0105      -0.0896    6262.3572    6262.2677    6260.7847    6260.5568      -0.2278
    7027.0    4894.6745 1526236.0000    3875.0305     129.3260     129.8150      -0.0521    6300.9095    6300.8574     130.0679         18     115.0105      -0.1129    6259.9894    6259.8763    6258.3376    6258.0383      -0.2993
    7028.0    4863.9580 1526236.0000    3875.0305     129.3246     129.8136      -0.0513    6300.9801    6300.9288     130.0673         18     116.0105      -0.2271    6259.7662    6259.5391    6258.0875    6257.5501      -0.5375
    7029.0    4859.8320 1526236.0000    3875.0305     129.3217     129.8123      -0.0519    6301.0255    6300.9737     130.0662         18     117.0105      -0.4812    6259.6799    6259.1988    6258.0007    6256.9910      -1.0096
    7030.0    4844.1575 1526236.0000    3875.0305     129.3216     129.8109      -0.0529    6301.0088    6300.9559     130.0656         18     118.0105      -0.8306    6259.6168    6258.7861    6257.9072    6256.2703      -1.6368
    7031.0    4859.9660 1526236.0000    3875.0305     129.3218     129.8108      -0.0527    6300.9473    6300.8944     130.0650         18     119.0105      -1.1512    6259.5225    6258.3713    6257.8017    6255.5507      -2.2511
    7032.0    4951.8505 1526236.0000    3875.0305     129.3033     129.8100      -0.0512    6300.9071    6300.8558     130.0578         19     120.0105      -1.3420    6116.2254    6114.8832    6117.6253    6114.8875      -2.7380
    7033.0    5031.8110 1526236.0000    3875.0305     129.2164     129.8084      -0.0502    6300.8258    6300.7755     130.0328         19     121.0105      -1.3505    5612.2721    5610.9216    5619.7940    5616.7599      -3.0341
    7034.0    5013.9475 1526236.0000    3875.0305     129.1820     129.8078      -0.0503    6300.8328    6300.7825     130.0233         19     122.0105      -1.1469    5488.6811    5487.5343    5496.0492    5492.9806      -3.0686
    7035.0    5008.7690 1526236.0000    3875.0305     129.1664     129.8063      -0.0488    6300.7150    6300.6662     130.0144         19     123.0105      -0.7328    5421.3196    5420.5867    5428.1670    5425.3627      -2.8043
    7036.0    4986.9475 1526236.0000    3875.0305     129.1617     129.8060      -0.0438    6300.6980    6300.6540     130.0061         19     124.0105      -0.1116    5374.6953    5374.5835    5380.9243    5378.6656      -2.2587
    7037.0    4981.6430 1526236.0000    3875.0305     129.1648     129.8060      -0.0401    6300.7929    6300.7529     129.9993         19     125.0105       0.2549    5388.6721    5388.9268    5392.7106    5390.8129      -1.8977
    7038.0    4947.3070 1526236.0000    3875.0305     129.2022     129.8025      -0.0383    6300.7969    6300.7588     129.9987         19     126.0105       0.5519    5532.6355    5533.1872    5533.8826    5532.3263      -1.5564
    7039.0    4881.9475 1526236.0000    3875.0305     129.2171     129.8039      -0.0406    6300.8505    6300.8100     129.9942         19     127.0105       0.6731    5568.9731    5569.6460    5568.9453    5567.6533      -1.2919
    7040.0    4876.5590 1526236.0000    3875.0305     129.2297     129.8038      -0.0439    6300.7926    6300.7486     129.9898         19     128.0105       0.6461    5585.0236    5585.6697    5584.0743    5582.9028      -1.1714
    7041.0    4834.8530 1526236.0000    3875.0305     129.2410     129.8032      -0.0490    6300.9258    6300.8769     129.9853         19     129.0105       0.5437    5592.7601    5593.3037    5591.4385    5590.3805      -1.0582
    7042.0    4821.2310 1526236.0000    3875.0305     129.2455     129.8007      -0.0542    6301.0004    6300.9461     129.9823         19     130.0105       0.4166    5597.0256    5597.4420    5595.4050    5594.4569      -0.9483
    7043.0    4843.2415 1526236.0000    3875.0305     129.2501     129.8018      -0.0582    6301.0226    6300.9643     129.9796         19     131.0105       0.3104    5600.1192    5600.4296    5598.3523    5597.5352      -0.8171
    7044.0    4866.3045 1526236.0000    3875.0305     129.2552     129.7986      -0.0600    6300.9357    6300.8756     129.9777         19     132.0105       0.2372    5602.1533    5602.3906    5600.2651    5599.5903      -0.6750
    7045.0    4895.3465 1526236.0000    3875.0305     129.2584     129.7972      -0.0594    6300.8953    6300.8359     129.9756         19     133.0105       0.1878    5602.9892    5603.1769    5601.0940    5600.5486      -0.5456
    7046.0    4928.3465 1526236.0000    3875.0305     129.2596     129.7966      -0.0564    6300.8545    6300.7981     129.9743         19     134.0105       0.1501    5603.4146    5603.5646    5601.3850    5600.9487      -0.4364
    7047.0    4961.4095 1526236.0000    3875.0305     129.2623     129.7963      -0.0516    6300.8497    6300.7980     129.9729         19     135.0105       0.1185    5603.5544    5603.6727    5601.5072    5601.1619      -0.3455
    7048.0    5000.1155 1526236.0000    3875.0305     129.2642     129.7943      -0.0468    6300.7769    6300.7301     129.9726         19     136.0105       0.0935    5603.5693    5603.6627    5601.5444    5601.2734      -0.2710
    7049.0    5011.0315 1526236.0000    3875.0305     129.2681     129.7943      -0.0437    6300.7276    6300.6840     129.9716         19     137.0105       0.0758    5603.6906    5603.7662    5601.5152    5601.3055      -0.2098
    7050.0    5014.0210 1526236.0000    3875.0305     129.2658     129.7933      -0.0439    6300.6963    6300.6524     129.9712         19     138.0105       0.0625    5603.5588    5603.6212    5601.4077    5601.2475      -0.1604
    7051.0    5015.7165 1526236.0000    3875.0305     129.2682     129.7925      -0.0476    6300.7501    6300.7027     129.9707         19     139.0105       0.0491    5603.5127    5603.5619    5601.2972    5601.1771      -0.1203
