~VERSION INFORMATION
VERS.           2.0   :CWLS Log ASCII Standard - VERSION 2.0
WRAP.           NO    :One Line per depth step
PROD.  Schlumberger   :LAS Producer
PROG.  DLIS to ASCII 2.2                               :LAS Program name and version
CREA.        2020/10/30 12:18                          :LAS Creation date {YYYY/MM/DD hh:mm}
SOURCE.     XPT_HRLA_TLD_MCFL_063LTP.DLIS              :DLIS File Name
FILE-ID.     XPT_HRLA_TLD_MCFL_063LTP                  :File Identification Number
#--------------------------------------------------
~WELL INFORMATION
#MNEM.UNIT      DATA             DESCRIPTION
#---- ------ --------------   -----------------------------
STRT .S          150.0       :START TIME      
STOP .S          316.0       :STOP TIME      
STEP .S            1.0       :STEP     
NULL .          -999.25      :NULL VALUE
COMP .        Nexus Energy                             :COMPANY
WELL .        Crux-3                                   :WELL
FLD  .        Crux                                     :FIELD
LOC  .        Easting: 656981.7mE                      :LOCATION
CNTY .        Sedco-703                                :COUNTY
STAT .        Northern Territory                       :STATE
CTRY .        Australia                                :COUNTRY
API  .                                                 :API NUMBER
UWI  .                                                 :UNIQUE WELL ID
DATE .        31-Dec-2007                              :LOG DATE {DD-MMM-YYYY}
SRVC .        Schlumberger                             :SERVICE COMPANY
LATI .DEG     12*57'32.63" S                           :LATITUDE
LONG .DEG     124*26'50.07" E                          :LONGITUDE
GDAT .                                                 :GeoDetic Datum
#-----------------------------------------------------------------------------
~PARAMETER INFORMATION
#MNEM.UNIT    VALUE                      DESCRIPTION
#---- -----   --------------------       ------------------------
RUN  .          1                        :RUN NUMBER
PDAT .        LAT                        :Permanent Datum
EPD  .M           0.000000               :Elevation of Permanent Datum above Mean Sea Level
EPD  .M           0.000000               :Elevation of tool zero above Mean Sea Level
LMF  .          DF                       :Logging Measured From (Name of Logging Elevation Reference)
APD  .M          26.400000               :Elevation of Depth Reference (LMF) above Permanent Datum
#-----------------------------------------------------------------------------
~CURVE INFORMATION
#MNEM.UNIT   API CODE                                  DESCRIPTION
#---- -----  --------                                  -----------------------
TIME .S                                                :TIME {F10.1}
TENS_SL.LBF                                            :Cable Tension {F13.4}
DEPT_SL..1IN                                           :Station logging depth {F13.4}
PDEP_XPT.M                                             :XPT Probe Depth {F13.4}
MTEP_SAP.DEGC                                          :Sapphire Gauge Manometer Temperature {F13.4}
MTEP_HYD.DEGC                                          :Hydrostatic Sapphire Gauge Manometer Temperature {F13.4}
PCO_HYD.PSI                                            :Hydrostatic Sapphire Dynamic Compensation {F13.4}
PND_HYD.PSI                                            :Hydrostatic Sapphire Pressure Without Dynamic Compensation {F13.4}
CP_HYD.PSI                                             :Hydrostatic Sapphire Pressure With Dynamic Compensation {F13.4}
MTEP_QG.DEGC                                           :CQG Manometer Temperature {F13.4}
PTNO_XPT.                                              :XPT Pretest Number {I11}
ETIM_XPT.S                                             :Elapsed Logging Time {F13.4}
PCO_SAP.PSI                                            :Sapphire Dynamic Compensation {F13.4}
PND_SAP.PSI                                            :Sapphire Pressure Without Dynamic Compensation {F13.4}
CP_SAP.PSI                                             :Sapphire Pressure With Dynamic Compensation {F13.4}
QNDP .PSI                                              :CQG Pressure Without Dynamic Compensation {F13.4}
QCP  .PSI                                              :CQG Pressure With Dynamic Compensation {F13.4}
QPCO .PSI                                              :CQG Dynamic Compensation {F13.4}
#-----------------------------------------------------------------------------
# 
#     TIME      TENS_SL      DEPT_SL      PDEP_XPT     MTEP_SAP     MTEP_HYD     PCO_HYD      PND_HYD       CP_HYD      MTEP_QG       PTNO_XPT       ETIM_XPT     PCO_SAP      PND_SAP       CP_SAP        QNDP         QCP          QPCO
#
~A  
# ...
     255.0    5094.0760 1528190.0000    3879.9937     129.5167     129.9997      -0.0478    6309.6680    6309.6200     130.2426         26     105.3493      -0.1095    6306.9360    6306.8264    6304.7959    6304.9412       0.1452
     256.0    5081.1775 1528190.0000    3879.9937     129.5157     129.9972      -0.0493    6309.6207    6309.5717     130.2430         26     106.3493      -0.1056    6307.0366    6306.9311    6304.8201    6304.9320       0.1117
     257.0    5115.2733 1528190.0000    3879.9937     129.5127     129.9960      -0.0507    6309.5180    6309.4673     130.2431         26     107.3493      -0.1021    6306.7957    6306.6934    6304.7725    6304.8513       0.0790
     258.0    5136.1577 1528190.0000    3879.9937     129.5106     129.9943      -0.0515    6309.3691    6309.3179     130.2435         26     108.3493      -0.0981    6306.8498    6306.7518    6304.8411    6304.8889       0.0478
     259.0    5129.6986 1528190.0000    3879.9937     129.5112     129.9945      -0.0507    6309.5412    6309.4907     130.2433         26     109.3493      -0.0937    6306.9466    6306.8529    6304.9053    6304.9242       0.0186
     260.0    5099.9126 1528190.0000    3879.9937     129.5068     129.9922      -0.0484    6309.6381    6309.5896     130.2434         26     110.3493      -0.0899    6306.9535    6306.8635    6304.9544    6304.9464      -0.0078
     261.0    5050.3831 1528190.0000    3879.9937     129.5060     129.9935      -0.0464    6309.6567    6309.6104     130.2433         26     111.3493      -0.0866    6306.8953    6306.8085    6305.0112    6304.9803      -0.0311
     262.0    5056.9181 1528190.0000    3879.9937     129.5053     129.9917      -0.0461    6309.6529    6309.6070     130.2432         26     112.3493      -0.0816    6306.9534    6306.8719    6305.0581    6305.0039      -0.0544
     263.0    5034.4110 1528190.0000    3879.9937     129.5051     129.9899      -0.0469    6309.6731    6309.6263     130.2429         26     113.3493      -0.0777    6307.1220    6307.0442    6305.1729    6305.1035      -0.0695
     264.0    5030.6369 1528190.0000    3879.9937     129.5024     129.9911      -0.0482    6309.7578    6309.7094     130.2428         26     114.3493      -0.0746    6306.9400    6306.8654    6305.1232    6305.0376      -0.0854
     265.0    5037.7603 1528190.0000    3879.9937     129.5014     129.9885      -0.0492    6309.6684    6309.6191     130.2424         26     115.3493      -0.0729    6306.9910    6306.9180    6305.0906    6304.9917      -0.0989
     266.0    5057.3422 1528190.0000    3879.9937     129.5007     129.9890      -0.0506    6309.6194    6309.5687     130.2421         26     116.3493      -0.0702    6306.9184    6306.8484    6305.0522    6304.9420      -0.1101
     267.0    5102.5686 1528190.0000    3879.9937     129.4991     129.9873      -0.0524    6309.4743    6309.4220     130.2417         26     117.3493      -0.0667    6306.7416    6306.6748    6304.9905    6304.8705      -0.1200
     268.0    5095.8287 1528190.0000    3879.9937     129.4967     129.9871      -0.0536    6309.5335    6309.4798     130.2413         26     118.3493      -0.0646    6306.7584    6306.6937    6304.9821    6304.8532      -0.1290
     269.0    5115.3014 1528190.0000    3879.9937     129.4964     129.9860      -0.0530    6309.4604    6309.4076     130.2409         26     119.3493      -0.0641    6306.7703    6306.7063    6304.9044    6304.7671      -0.1371
     270.0    5110.8562 1528190.0000    3879.9937     129.4959     129.9843      -0.0515    6309.3418    6309.2901     130.2403         26     120.3493      -0.0630    6306.8063    6306.7434    6304.9358    6304.7919      -0.1440
     271.0    5110.2397 1528190.0000    3879.9937     129.4941     129.9837      -0.0504    6309.4056    6309.3553     130.2400         26     121.3493      -0.0610    6306.8190    6306.7580    6304.9572    6304.8076      -0.1495
     272.0    5098.6919 1528190.0000    3879.9937     129.4935     129.9815      -0.0498    6309.4130    6309.3631     130.2395         26     122.3493      -0.0603    6306.0697    6306.0096    6304.2780    6304.1231      -0.1549
     273.0    5061.4452 1528190.0000    3879.9937     129.4907     129.9821      -0.0494    6309.5392    6309.4899     130.2390         27     123.3493      -0.0607    6306.1069    6306.0462    6304.3336    6304.1762      -0.1572
     274.0    5060.7603 1528190.0000    3879.9937     129.4910     129.9814      -0.0479    6309.5931    6309.5452     130.2385         27     124.3493      -0.0608    6306.1210    6306.0602    6304.4486    6304.2892      -0.1594
     275.0    5051.3493 1528190.0000    3879.9937     129.4891     129.9800      -0.0461    6309.6385    6309.5925     130.2379         27     125.3493      -0.0584    6306.4317    6306.3734    6304.6165    6304.4560      -0.1608
     276.0    5053.7466 1528190.0000    3879.9937     129.4879     129.9783      -0.0457    6309.6798    6309.6340     130.2374         27     126.3493      -0.0568    6306.3766    6306.3196    6304.5671    6304.4059      -0.1614
     277.0    5041.2809 1528190.0000    3879.9937     129.4887     129.9784      -0.0450    6309.5905    6309.5456     130.2368         27     127.3493      -0.0541    6306.9255    6306.8713    6305.1233    6304.9607      -0.1627
     278.0    5051.8216 1528190.0000    3879.9937     129.4876     129.9774      -0.0435    6309.5751    6309.5315     130.2364         27     128.3493      -0.0502    6306.8695    6306.8194    6305.0951    6304.9312      -0.1641
     279.0    5116.9179 1528190.0000    3879.9937     129.4848     129.9773      -0.0423    6309.4532    6309.4108     130.2362         27     129.3493      -0.0454    6306.7418    6306.6965    6304.9988    6304.8331      -0.1658
     280.0    5103.8424 1528190.0000    3879.9937     129.4843     129.9761      -0.0430    6309.4146    6309.3716     130.2352         27     130.3493      -0.0420    6306.7475    6306.7055    6305.0075    6304.8400      -0.1674
     281.0    5116.2397 1528190.0000    3879.9937     129.4825     129.9752      -0.0454    6309.3047    6309.2594     130.2349         27     131.3493      -0.0413    6306.6331    6306.5916    6304.9127    6304.7442      -0.1686
     282.0    5132.9862 1528190.0000    3879.9937     129.4828     129.9746      -0.0473    6309.3984    6309.3511     130.2346         27     132.3493      -0.0418    6306.7773    6306.7353    6304.9914    6304.8219      -0.1694
     283.0    5131.6782 1528190.0000    3879.9937     129.4832     129.9738      -0.0474    6309.4506    6309.4033     130.2337         27     133.3493      -0.0427    6306.6757    6306.6330    6304.9832    6304.8131      -0.1703
     284.0    5071.1167 1528190.0000    3879.9937     129.4822     129.9730      -0.0464    6309.5029    6309.4565     130.2334         27     134.3493      -0.0447    6306.7410    6306.6963    6304.9948    6304.8243      -0.1704
     285.0    5008.0000 1528190.0000    3879.9937     129.4798     129.9707      -0.0449    6309.4180    6309.3731     130.2329         27     135.3493      -0.0476    6306.9130    6306.8655    6305.1552    6304.9859      -0.1693
     286.0    5010.4452 1528190.0000    3879.9937     129.4812     129.9710      -0.0441    6309.6619    6309.6179     130.2323         27     136.3493      -0.0504    6306.9562    6306.9059    6305.1559    6304.9877      -0.1683
     287.0    5017.7945 1528190.0000    3879.9937     129.4786     129.9707      -0.0443    6309.6590    6309.6147     130.2315         27     137.3493      -0.0521    6306.9310    6306.8788    6305.2464    6305.0780      -0.1686
     288.0    5016.0138 1528190.0000    3879.9937     129.4787     129.9692      -0.0462    6309.7685    6309.7224     130.2314         27     138.3493      -0.0533    6307.0681    6307.0148    6305.2793    6305.1098      -0.1695
     289.0    5028.8491 1528190.0000    3879.9937     129.4785     129.9687      -0.0494    6309.7289    6309.6796     130.2307         27     139.3493      -0.0533    6307.0308    6306.9776    6305.1913    6305.0214      -0.1700
