~VERSION INFORMATION
VERS.           2.0   :CWLS Log ASCII Standard - VERSION 2.0
WRAP.           NO    :One Line per depth step
PROD.  Schlumberger   :LAS Producer
PROG.  DLIS to ASCII 2.2                               :LAS Program name and version
CREA.        2020/10/30 12:18                          :LAS Creation date {YYYY/MM/DD hh:mm}
SOURCE.     XPT_HRLA_TLD_MCFL_040LTP.DLIS              :DLIS File Name
FILE-ID.     XPT_HRLA_TLD_MCFL_040LTP                  :File Identification Number
#--------------------------------------------------
~WELL INFORMATION
#MNEM.UNIT      DATA             DESCRIPTION
#---- ------ --------------   -----------------------------
STRT .S          916.0       :START TIME      
STOP .S         1395.0       :STOP TIME      
STEP .S            1.0       :STEP     
NULL .          -999.25      :NULL VALUE
COMP .        Nexus Energy                             :COMPANY
WELL .        Crux-3                                   :WELL
FLD  .        Crux                                     :FIELD
LOC  .        Easting: 656981.7mE                      :LOCATION
CNTY .        Sedco-703                                :COUNTY
STAT .        Northern Territory                       :STATE
CTRY .        Australia                                :COUNTRY
API  .                                                 :API NUMBER
UWI  .                                                 :UNIQUE WELL ID
DATE .        31-Dec-2007                              :LOG DATE {DD-MMM-YYYY}
SRVC .        Schlumberger                             :SERVICE COMPANY
LATI .DEG     12*57'32.63" S                           :LATITUDE
LONG .DEG     124*26'50.07" E                          :LONGITUDE
GDAT .                                                 :GeoDetic Datum
#-----------------------------------------------------------------------------
~PARAMETER INFORMATION
#MNEM.UNIT    VALUE                      DESCRIPTION
#---- -----   --------------------       ------------------------
RUN  .          1                        :RUN NUMBER
PDAT .        LAT                        :Permanent Datum
EPD  .M           0.000000               :Elevation of Permanent Datum above Mean Sea Level
EPD  .M           0.000000               :Elevation of tool zero above Mean Sea Level
LMF  .          DF                       :Logging Measured From (Name of Logging Elevation Reference)
APD  .M          26.400000               :Elevation of Depth Reference (LMF) above Permanent Datum
#-----------------------------------------------------------------------------
~CURVE INFORMATION
#MNEM.UNIT   API CODE                                  DESCRIPTION
#---- -----  --------                                  -----------------------
TIME .S                                                :TIME {F10.1}
TENS_SL.LBF                                            :Cable Tension {F13.4}
DEPT_SL..1IN                                           :Station logging depth {F13.4}
PDEP_XPT.M                                             :XPT Probe Depth {F13.4}
MTEP_SAP.DEGC                                          :Sapphire Gauge Manometer Temperature {F13.4}
MTEP_HYD.DEGC                                          :Hydrostatic Sapphire Gauge Manometer Temperature {F13.4}
PCO_HYD.PSI                                            :Hydrostatic Sapphire Dynamic Compensation {F13.4}
PND_HYD.PSI                                            :Hydrostatic Sapphire Pressure Without Dynamic Compensation {F13.4}
CP_HYD.PSI                                             :Hydrostatic Sapphire Pressure With Dynamic Compensation {F13.4}
MTEP_QG.DEGC                                           :CQG Manometer Temperature {F13.4}
PTNO_XPT.                                              :XPT Pretest Number {I11}
ETIM_XPT.S                                             :Elapsed Logging Time {F13.4}
PCO_SAP.PSI                                            :Sapphire Dynamic Compensation {F13.4}
PND_SAP.PSI                                            :Sapphire Pressure Without Dynamic Compensation {F13.4}
CP_SAP.PSI                                             :Sapphire Pressure With Dynamic Compensation {F13.4}
QNDP .PSI                                              :CQG Pressure Without Dynamic Compensation {F13.4}
QCP  .PSI                                              :CQG Pressure With Dynamic Compensation {F13.4}
QPCO .PSI                                              :CQG Dynamic Compensation {F13.4}
#-----------------------------------------------------------------------------
# 
#     TIME      TENS_SL      DEPT_SL      PDEP_XPT     MTEP_SAP     MTEP_HYD     PCO_HYD      PND_HYD       CP_HYD      MTEP_QG       PTNO_XPT       ETIM_XPT     PCO_SAP      PND_SAP       CP_SAP        QNDP         QCP          QPCO
#
~A  
# ...
     951.0    4711.4859 1419728.0000    3604.5000     119.1128     119.6727       0.0094    5871.4607    5871.4702     119.6766          4      34.8453       0.0166    5869.7195    5869.7362    5867.1196    5867.1803       0.0607
     952.0    4695.1656 1419728.0000    3604.5000     119.1124     119.6727       0.0125    5871.5745    5871.5870     119.6767          4      35.8453       0.0194    5869.6983    5869.7176    5867.1719    5867.2329       0.0610
     953.0    4689.6187 1419728.0000    3604.5000     119.1135     119.6727       0.0150    5871.6650    5871.6801     119.6770          4      36.8453       0.0205    5869.9450    5869.9655    5867.3714    5867.4319       0.0605
     954.0    4677.1656 1419728.0000    3604.5000     119.1138     119.6740       0.0166    5871.7377    5871.7543     119.6771          4      37.8453       0.0202    5869.9071    5869.9271    5867.2901    5867.3502       0.0600
     955.0    4652.1766 1419728.0000    3604.5000     119.1153     119.6731       0.0171    5871.6686    5871.6857     119.6773          4      38.8453       0.0182    5869.7435    5869.7615    5867.2138    5867.2733       0.0594
     956.0    4658.1438 1419728.0000    3604.5000     119.1151     119.6748       0.0168    5871.5788    5871.5955     119.6779          4      39.8453       0.0135    5869.7417    5869.7552    5867.1429    5867.2020       0.0591
     957.0    4734.3875 1419728.0000    3604.5000     119.1150     119.6742       0.0156    5871.4425    5871.4580     119.6778          4      40.8453       0.0074    5869.6253    5869.6328    5867.0565    5867.1151       0.0587
     958.0    4759.8344 1419728.0000    3604.5000     119.1146     119.6748       0.0124    5871.3142    5871.3266     119.6781          4      41.8453       0.0033    5869.5747    5869.5779    5867.0018    5867.0599       0.0582
     959.0    4778.9063 1419728.0000    3604.5000     119.1158     119.6743       0.0083    5871.1674    5871.1755     119.6782          4      42.8453       0.0035    5869.4221    5869.4255    5866.8321    5866.8906       0.0584
     960.0    4791.2984 1419728.0000    3604.5000     119.1132     119.6759       0.0055    5871.1461    5871.1515     119.6784          4      43.8453       0.0066    5869.3398    5869.3463    5866.8364    5866.8955       0.0591
     961.0    4782.8562 1419728.0000    3604.5000     119.1157     119.6755       0.0051    5871.2913    5871.2962     119.6786          4      44.8453       0.0098    5869.4213    5869.4311    5866.9119    5866.9719       0.0600
     962.0    4768.3203 1419728.0000    3604.5000     119.1148     119.6749       0.0057    5871.3795    5871.3853     119.6786          4      45.8453       0.0129    5869.6278    5869.6408    5867.0270    5867.0874       0.0604
     963.0    4707.6734 1419728.0000    3604.5000     119.1166     119.6749       0.0062    5871.4452    5871.4515     119.6790          4      46.8453       0.0157    5869.7261    5869.7418    5867.0919    5867.1524       0.0606
     964.0    4707.1438 1419728.0000    3604.5000     119.1164     119.6750       0.0072    5871.5098    5871.5168     119.6792          4      47.8453       0.0173    5869.7825    5869.7998    5867.1833    5867.2444       0.0610
     965.0    4713.2266 1419728.0000    3604.5000     119.1166     119.6757       0.0089    5871.5764    5871.5851     119.6795          4      48.8453       0.0165    5869.9390    5869.9557    5867.3206    5867.3816       0.0612
     966.0    4702.1656 1419728.0000    3604.5000     119.1156     119.6757       0.0095    5871.7379    5871.7476     119.6795          4      49.8453       0.0146    5869.8477    5869.8623    5867.2832    5867.3442       0.0611
     967.0    4679.7125 1419728.0000    3604.5000     119.1175     119.6750       0.0075    5871.5693    5871.5767     119.6797          4      50.8453       0.0143    5869.8229    5869.8373    5867.2513    5867.3119       0.0606
     968.0    4680.2266 1419728.0000    3604.5000     119.1158     119.6764       0.0042    5871.5850    5871.5891     119.6802          4      51.8453       0.0158    5869.7066    5869.7225    5867.1998    5867.2600       0.0602
     969.0    4742.7078 1419728.0000    3604.5000     119.1163     119.6765       0.0028    5871.5259    5871.5288     119.6801          4      52.8453       0.0164    5869.6904    5869.7070    5867.1457    5867.2058       0.0598
     970.0    4749.7734 1419728.0000    3604.5000     119.1172     119.6753       0.0040    5871.4093    5871.4132     119.6804          4      53.8453       0.0152    5869.7030    5869.7184    5867.1065    5867.1661       0.0596
     971.0    4763.3703 1419728.0000    3604.5000     119.1175     119.6761       0.0063    5871.3819    5871.3882     119.6803          4      54.8453       0.0133    5869.5865    5869.5997    5867.0491    5867.1082       0.0593
     972.0    4781.2156 1419728.0000    3604.5000     119.1204     119.6744       0.0088    5871.3192    5871.3282     119.6807          4      55.8453       0.0112    5869.6697    5869.6808    5867.0614    5867.1204       0.0593
     973.0    4773.0109 1419728.0000    3604.5000     119.1181     119.6765       0.0121    5871.3616    5871.3738     119.6810          4      56.8453       0.0084    5869.6200    5869.6283    5867.0632    5867.1228       0.0594
     974.0    4700.8391 1419728.0000    3604.5000     119.1191     119.6769       0.0157    5871.4221    5871.4376     119.6811          4      57.8453       0.0055    5869.7123    5869.7178    5867.1150    5867.1750       0.0599
     975.0    4682.9281 1419728.0000    3604.5000     119.1197     119.6767       0.0176    5871.5192    5871.5367     119.6811          4      58.8453       0.0050    5869.7449    5869.7499    5867.1068    5867.1673       0.0605
     976.0    4668.4750 1419728.0000    3604.5000     119.1183     119.6769       0.0168    5871.4992    5871.5158     119.6816          4      59.8453       0.0073    5869.7254    5869.7327    5867.1733    5867.2338       0.0606
     977.0    4667.6906 1419728.0000    3604.5000     119.1187     119.6779       0.0155    5871.5644    5871.5798     119.6817          4      60.8453       0.0092    5869.8587    5869.8678    5867.1860    5867.2461       0.0600
     978.0    4693.3594 1419728.0000    3604.5000     119.1185     119.6781       0.0135    5871.5247    5871.5382     119.6822          4      61.8453       0.0113    5869.6324    5869.6438    5867.1557    5867.2152       0.0594
     979.0    4730.9672 1419728.0000    3604.5000     119.1190     119.6776       0.0098    5871.4493    5871.4591     119.6822          4      62.8453       0.0144    5869.7048    5869.7194    5867.1138    5867.1729       0.0593
     980.0    4742.0719 1419728.0000    3604.5000     119.1210     119.6791       0.0064    5871.4932    5871.4997     119.6823          4      63.8453       0.0164    5869.7313    5869.7478    5867.0914    5867.1506       0.0593
     981.0    4702.4250 1419728.0000    3604.5000     119.1192     119.6789       0.0030    5871.4909    5871.4937     119.6823          4      64.8453       0.0162    5869.6922    5869.7083    5867.0983    5867.1574       0.0590
     982.0    4705.9891 1419728.0000    3604.5000     119.1196     119.6780       0.0011    5871.4531    5871.4543     119.6828          4      65.8453       0.0135    5869.7085    5869.7222    5867.0949    5867.1540       0.0590
     983.0    4674.1875 1419728.0000    3604.5000     119.1219     119.6789       0.0006    5871.4911    5871.4916     119.6829          4      66.8453       0.0112    5869.7221    5869.7334    5867.1147    5867.1747       0.0599
     984.0    4681.5250 1419728.0000    3604.5000     119.1211     119.6782       0.0013    5871.4680    5871.4695     119.6829          4      67.8453       0.0100    5869.8111    5869.8213    5867.1221    5867.1831       0.0609
     985.0    4740.6359 1419728.0000    3604.5000     119.1205     119.6784       0.0032    5871.4108    5871.4140     119.6832          4      68.8453       0.0095    5869.6873    5869.6968    5867.0995    5867.1603       0.0608
