~VERSION INFORMATION
VERS.           2.0   :CWLS Log ASCII Standard - VERSION 2.0
WRAP.           NO    :One Line per depth step
PROD.  Schlumberger   :LAS Producer
PROG.  DLIS to ASCII 2.2                               :LAS Program name and version
CREA.        2020/10/30 12:18                          :LAS Creation date {YYYY/MM/DD hh:mm}
SOURCE.     XPT_HRLA_TLD_MCFL_039LTP.DLIS              :DLIS File Name
FILE-ID.     XPT_HRLA_TLD_MCFL_039LTP                  :File Identification Number
#--------------------------------------------------
~WELL INFORMATION
#MNEM.UNIT      DATA             DESCRIPTION
#---- ------ --------------   -----------------------------
STRT .S          109.0       :START TIME      
STOP .S          613.0       :STOP TIME      
STEP .S            1.0       :STEP     
NULL .          -999.25      :NULL VALUE
COMP .        Nexus Energy                             :COMPANY
WELL .        Crux-3                                   :WELL
FLD  .        Crux                                     :FIELD
LOC  .        Easting: 656981.7mE                      :LOCATION
CNTY .        Sedco-703                                :COUNTY
STAT .        Northern Territory                       :STATE
CTRY .        Australia                                :COUNTRY
API  .                                                 :API NUMBER
UWI  .                                                 :UNIQUE WELL ID
DATE .        31-Dec-2007                              :LOG DATE {DD-MMM-YYYY}
SRVC .        Schlumberger                             :SERVICE COMPANY
LATI .DEG     12*57'32.63" S                           :LATITUDE
LONG .DEG     124*26'50.07" E                          :LONGITUDE
GDAT .                                                 :GeoDetic Datum
#-----------------------------------------------------------------------------
~PARAMETER INFORMATION
#MNEM.UNIT    VALUE                      DESCRIPTION
#---- -----   --------------------       ------------------------
RUN  .          1                        :RUN NUMBER
PDAT .        LAT                        :Permanent Datum
EPD  .M           0.000000               :Elevation of Permanent Datum above Mean Sea Level
EPD  .M           0.000000               :Elevation of tool zero above Mean Sea Level
LMF  .          DF                       :Logging Measured From (Name of Logging Elevation Reference)
APD  .M          26.400000               :Elevation of Depth Reference (LMF) above Permanent Datum
#-----------------------------------------------------------------------------
~CURVE INFORMATION
#MNEM.UNIT   API CODE                                  DESCRIPTION
#---- -----  --------                                  -----------------------
TIME .S                                                :TIME {F10.1}
TENS_SL.LBF                                            :Cable Tension {F13.4}
DEPT_SL..1IN                                           :Station logging depth {F13.4}
PDEP_XPT.M                                             :XPT Probe Depth {F13.4}
MTEP_SAP.DEGC                                          :Sapphire Gauge Manometer Temperature {F13.4}
MTEP_HYD.DEGC                                          :Hydrostatic Sapphire Gauge Manometer Temperature {F13.4}
PCO_HYD.PSI                                            :Hydrostatic Sapphire Dynamic Compensation {F13.4}
PND_HYD.PSI                                            :Hydrostatic Sapphire Pressure Without Dynamic Compensation {F13.4}
CP_HYD.PSI                                             :Hydrostatic Sapphire Pressure With Dynamic Compensation {F13.4}
MTEP_QG.DEGC                                           :CQG Manometer Temperature {F13.4}
PTNO_XPT.                                              :XPT Pretest Number {I11}
ETIM_XPT.S                                             :Elapsed Logging Time {F13.4}
PCO_SAP.PSI                                            :Sapphire Dynamic Compensation {F13.4}
PND_SAP.PSI                                            :Sapphire Pressure Without Dynamic Compensation {F13.4}
CP_SAP.PSI                                             :Sapphire Pressure With Dynamic Compensation {F13.4}
QNDP .PSI                                              :CQG Pressure Without Dynamic Compensation {F13.4}
QCP  .PSI                                              :CQG Pressure With Dynamic Compensation {F13.4}
QPCO .PSI                                              :CQG Dynamic Compensation {F13.4}
#-----------------------------------------------------------------------------
# 
#     TIME      TENS_SL      DEPT_SL      PDEP_XPT     MTEP_SAP     MTEP_HYD     PCO_HYD      PND_HYD       CP_HYD      MTEP_QG       PTNO_XPT       ETIM_XPT     PCO_SAP      PND_SAP       CP_SAP        QNDP         QCP          QPCO
#
~A  
# ...
     249.0    4783.3048 1418545.0000    3601.4951     118.9659     119.5498       0.0065    5866.6266    5866.6332     119.4924          3     140.2610       0.1160    5373.4184    5373.5344    5371.5595    5371.3956      -0.1637
     250.0    4785.4343 1418545.0000    3601.4951     118.9679     119.5498       0.0118    5866.5578    5866.5698     119.4918          3     141.2610       0.1720    5374.2928    5374.4649    5372.1830    5372.1233      -0.0596
     251.0    4777.3467 1418545.0000    3601.4951     118.9687     119.5507       0.0166    5866.5449    5866.5616     119.4912          3     142.2610       0.2349    5373.3527    5373.5875    5371.2084    5371.2797       0.0711
     252.0    4767.7829 1418545.0000    3601.4951     118.9711     119.5502       0.0183    5866.5872    5866.6055     119.4908          3     143.2610       0.2884    5375.0788    5375.3673    5372.6419    5372.8454       0.2035
     253.0    4750.4285 1418545.0000    3601.4951     118.9751     119.5525       0.0174    5866.7300    5866.7476     119.4910          3     144.2610       0.3138    5376.7589    5377.0729    5374.1529    5374.4673       0.3143
     254.0    4700.4800 1418545.0000    3601.4951     118.9919     119.5528       0.0146    5866.7213    5866.7357     119.4956          3     145.2610       0.3089    5484.6093    5484.9181    5479.9163    5480.3161       0.3998
     255.0    4718.6095 1418545.0000    3601.4951     119.0005     119.5521       0.0095    5866.6942    5866.7039     119.4970          3     146.2610       0.2762    5504.5486    5504.8249    5500.2113    5500.6668       0.4554
     256.0    4725.2171 1418545.0000    3601.4951     119.0045     119.5519       0.0025    5866.7754    5866.7781     119.4980          3     147.2610       0.2154    5505.2691    5505.4843    5501.2194    5501.6902       0.4709
     257.0    4714.3885 1418545.0000    3601.4951     119.0030     119.5513      -0.0032    5866.7527    5866.7496     119.4994          3     148.2610       0.1346    5505.4092    5505.5438    5501.4643    5501.9151       0.4511
     258.0    4696.7848 1418545.0000    3601.4951     119.0034     119.5528      -0.0044    5866.7971    5866.7927     119.5007          3     149.2610       0.0593    5505.3503    5505.4094    5501.6104    5502.0332       0.4226
     259.0    4727.2210 1418545.0000    3601.4951     119.0041     119.5524      -0.0017    5866.7292    5866.7276     119.5022          3     150.2610       0.0115    5505.5088    5505.5204    5501.7404    5502.1466       0.4062
     260.0    4764.2191 1418545.0000    3601.4951     119.0029     119.5513       0.0022    5866.5628    5866.5649     119.5034          3     151.2610      -0.0083    5505.3880    5505.3797    5501.8375    5502.2365       0.3991
     261.0    4786.5676 1418545.0000    3601.4951     119.0036     119.5509       0.0060    5866.6082    5866.6141     119.5049          3     152.2610      -0.0143    5505.3136    5505.2994    5501.9135    5502.3030       0.3896
     262.0    4804.6077 1418545.0000    3601.4951     119.0035     119.5517       0.0106    5866.4498    5866.4603     119.5061          3     153.2610      -0.0183    5505.3467    5505.3283    5501.9640    5502.3373       0.3734
     263.0    4795.5219 1418545.0000    3601.4951     119.0028     119.5519       0.0149    5866.5453    5866.5601     119.5072          3     154.2610      -0.0209    5505.2989    5505.2778    5502.0083    5502.3620       0.3536
     264.0    4777.4297 1418545.0000    3601.4951     119.0028     119.5534       0.0163    5866.6522    5866.6686     119.5085          3     155.2610      -0.0215    5505.3540    5505.3325    5502.0467    5502.3792       0.3325
     265.0    4724.3484 1418545.0000    3601.4951     119.0036     119.5535       0.0138    5866.6729    5866.6867     119.5095          3     156.2610      -0.0199    5505.2482    5505.2282    5502.0772    5502.3890       0.3118
     266.0    4727.6078 1418545.0000    3601.4951     119.0007     119.5536       0.0091    5866.7412    5866.7502     119.5104          3     157.2610      -0.0168    5505.1972    5505.1803    5502.1059    5502.3981       0.2921
     267.0    4710.9547 1418545.0000    3601.4951     119.0015     119.5542       0.0049    5866.7334    5866.7383     119.5115          3     158.2610      -0.0130    5505.2218    5505.2086    5502.1308    5502.4048       0.2740
     268.0    4688.1297 1418545.0000    3601.4951     119.0010     119.5523       0.0021    5866.7872    5866.7892     119.5124          3     159.2610      -0.0086    5505.2558    5505.2473    5502.1523    5502.4093       0.2572
     269.0    4682.0875 1418545.0000    3601.4951     119.0011     119.5536       0.0011    5866.8008    5866.8018     119.5133          3     160.2610      -0.0056    5505.2360    5505.2303    5502.1693    5502.4107       0.2415
     270.0    4711.7453 1418545.0000    3601.4951     119.0015     119.5536       0.0019    5866.7412    5866.7432     119.5138          3     161.2610      -0.0052    5505.3240    5505.3188    5502.1839    5502.4118       0.2277
     271.0    4780.3047 1418545.0000    3601.4951     119.0014     119.5536       0.0043    5866.7373    5866.7416     119.5147          3     162.2610      -0.0075    5505.2665    5505.2588    5502.2005    5502.4158       0.2153
     272.0    4789.2188 1418545.0000    3601.4951     118.9997     119.5536       0.0070    5866.5630    5866.5699     119.5152          3     163.2610      -0.0092    5505.1648    5505.1555    5502.2163    5502.4208       0.2046
     273.0    4803.2172 1418545.0000    3601.4951     119.0005     119.5538       0.0087    5866.5925    5866.6010     119.5158          3     164.2610      -0.0090    5505.2494    5505.2404    5502.2265    5502.4214       0.1951
     274.0    4799.4344 1418545.0000    3601.4951     118.9995     119.5529       0.0081    5866.5518    5866.5601     119.5166          3     165.2610      -0.0072    5505.2427    5505.2353    5502.2396    5502.4265       0.1869
     275.0    4782.4750 1418545.0000    3601.4951     119.0002     119.5542       0.0054    5866.5700    5866.5753     119.5169          3     166.2610      -0.0043    5505.2520    5505.2478    5502.2440    5502.4237       0.1796
     276.0    4734.9969 1418545.0000    3601.4951     118.9991     119.5549       0.0024    5866.6472    5866.6496     119.5177          3     167.2610      -0.0009    5505.2796    5505.2786    5502.2535    5502.4260       0.1725
     277.0    4702.8266 1418545.0000    3601.4951     119.0000     119.5543       0.0003    5866.6013    5866.6019     119.5182          3     168.2610       0.0023    5505.1515    5505.1538    5502.2606    5502.4263       0.1658
     278.0    4711.9141 1418545.0000    3601.4951     118.9993     119.5549      -0.0010    5866.6486    5866.6475     119.5189          3     169.2610       0.0041    5505.2081    5505.2121    5502.2694    5502.4292       0.1598
     279.0    4738.3953 1418545.0000    3601.4951     119.0003     119.5528      -0.0021    5866.6578    5866.6559     119.5196          3     170.2610       0.0047    5505.1977    5505.2024    5502.2784    5502.4329       0.1545
     280.0    4778.3469 1418545.0000    3601.4951     119.0010     119.5538      -0.0015    5866.7089    5866.7074     119.5199          3     171.2610       0.0055    5505.1920    5505.1974    5502.2806    5502.4306       0.1498
     281.0    4776.0891 1418545.0000    3601.4951     118.9989     119.5543       0.0021    5866.6179    5866.6201     119.5206          3     172.2610       0.0071    5505.1042    5505.1112    5502.2859    5502.4320       0.1461
     282.0    4801.3484 1418545.0000    3601.4951     119.0002     119.5540       0.0073    5866.5352    5866.5424     119.5209          3     173.2610       0.0092    5505.2255    5505.2345    5502.2901    5502.4334       0.1433
     283.0    4804.8687 1418545.0000    3601.4951     119.0008     119.5536       0.0120    5866.5293    5866.5413     119.5212          3     174.2610       0.0116    5505.1935    5505.2052    5502.2940    5502.4347       0.1409
