~VERSION INFORMATION
VERS.           2.0   :CWLS Log ASCII Standard - VERSION 2.0
WRAP.           NO    :One Line per depth step
PROD.  Schlumberger   :LAS Producer
PROG.  DLIS to ASCII 2.2                               :LAS Program name and version
CREA.        2020/10/30 12:18                          :LAS Creation date {YYYY/MM/DD hh:mm}
SOURCE.     XPT_HRLA_TLD_MCFL_064LTP.DLIS              :DLIS File Name
FILE-ID.     XPT_HRLA_TLD_MCFL_064LTP                  :File Identification Number
#--------------------------------------------------
~WELL INFORMATION
#MNEM.UNIT      DATA             DESCRIPTION
#---- ------ --------------   -----------------------------
STRT .S         1332.0       :START TIME      
STOP .S         1827.0       :STOP TIME      
STEP .S            1.0       :STEP     
NULL .          -999.25      :NULL VALUE
COMP .        Nexus Energy                             :COMPANY
WELL .        Crux-3                                   :WELL
FLD  .        Crux                                     :FIELD
LOC  .        Easting: 656981.7mE                      :LOCATION
CNTY .        Sedco-703                                :COUNTY
STAT .        Northern Territory                       :STATE
CTRY .        Australia                                :COUNTRY
API  .                                                 :API NUMBER
UWI  .                                                 :UNIQUE WELL ID
DATE .        31-Dec-2007                              :LOG DATE {DD-MMM-YYYY}
SRVC .        Schlumberger                             :SERVICE COMPANY
LATI .DEG     12*57'32.63" S                           :LATITUDE
LONG .DEG     124*26'50.07" E                          :LONGITUDE
GDAT .                                                 :GeoDetic Datum
#-----------------------------------------------------------------------------
~PARAMETER INFORMATION
#MNEM.UNIT    VALUE                      DESCRIPTION
#---- -----   --------------------       ------------------------
RUN  .          1                        :RUN NUMBER
PDAT .        LAT                        :Permanent Datum
EPD  .M           0.000000               :Elevation of Permanent Datum above Mean Sea Level
EPD  .M           0.000000               :Elevation of tool zero above Mean Sea Level
LMF  .          DF                       :Logging Measured From (Name of Logging Elevation Reference)
APD  .M          26.400000               :Elevation of Depth Reference (LMF) above Permanent Datum
#-----------------------------------------------------------------------------
~CURVE INFORMATION
#MNEM.UNIT   API CODE                                  DESCRIPTION
#---- -----  --------                                  -----------------------
TIME .S                                                :TIME {F10.1}
TENS_SL.LBF                                            :Cable Tension {F13.4}
DEPT_SL..1IN                                           :Station logging depth {F13.4}
PDEP_XPT.M                                             :XPT Probe Depth {F13.4}
MTEP_SAP.DEGC                                          :Sapphire Gauge Manometer Temperature {F13.4}
MTEP_HYD.DEGC                                          :Hydrostatic Sapphire Gauge Manometer Temperature {F13.4}
PCO_HYD.PSI                                            :Hydrostatic Sapphire Dynamic Compensation {F13.4}
PND_HYD.PSI                                            :Hydrostatic Sapphire Pressure Without Dynamic Compensation {F13.4}
CP_HYD.PSI                                             :Hydrostatic Sapphire Pressure With Dynamic Compensation {F13.4}
MTEP_QG.DEGC                                           :CQG Manometer Temperature {F13.4}
PTNO_XPT.                                              :XPT Pretest Number {I11}
ETIM_XPT.S                                             :Elapsed Logging Time {F13.4}
PCO_SAP.PSI                                            :Sapphire Dynamic Compensation {F13.4}
PND_SAP.PSI                                            :Sapphire Pressure Without Dynamic Compensation {F13.4}
CP_SAP.PSI                                             :Sapphire Pressure With Dynamic Compensation {F13.4}
QNDP .PSI                                              :CQG Pressure Without Dynamic Compensation {F13.4}
QCP  .PSI                                              :CQG Pressure With Dynamic Compensation {F13.4}
QPCO .PSI                                              :CQG Dynamic Compensation {F13.4}
#-----------------------------------------------------------------------------
# 
#     TIME      TENS_SL      DEPT_SL      PDEP_XPT     MTEP_SAP     MTEP_HYD     PCO_HYD      PND_HYD       CP_HYD      MTEP_QG       PTNO_XPT       ETIM_XPT     PCO_SAP      PND_SAP       CP_SAP        QNDP         QCP          QPCO
#
~A  
# ...
    1717.0    4844.3538 1496483.0000    3799.4575     128.1033     128.5205      -0.0924    6182.0869    6181.9946     129.1691         29     385.1646      -0.0976    5573.5169    5573.4193    5572.2296    5571.7774      -0.4524
    1718.0    4838.4694 1496483.0000    3799.4575     128.1023     128.5182      -0.0908    6181.9656    6181.8750     129.1679         29     386.1646      -0.0968    5573.6846    5573.5879    5572.2322    5571.7796      -0.4526
    1719.0    4849.1891 1496483.0000    3799.4575     128.1000     128.5167      -0.0865    6181.9258    6181.8392     129.1662         29     387.1646      -0.0965    5573.5478    5573.4513    5572.2355    5571.7828      -0.4526
    1720.0    4827.4885 1496483.0000    3799.4575     128.0970     128.5139      -0.0825    6181.8893    6181.8067     129.1649         29     388.1646      -0.0986    5573.5398    5573.4413    5572.2400    5571.7873      -0.4527
    1721.0    4768.1156 1496483.0000    3799.4575     128.0954     128.5137      -0.0798    6182.0142    6181.9343     129.1635         29     389.1646      -0.1014    5573.5771    5573.4755    5572.2429    5571.7898      -0.4529
    1722.0    4783.0735 1496483.0000    3799.4575     128.0949     128.5131      -0.0777    6181.9612    6181.8834     129.1618         29     390.1646      -0.1011    5573.5844    5573.4834    5572.2477    5571.7946      -0.4529
    1723.0    4756.7864 1496483.0000    3799.4575     128.0920     128.5101      -0.0762    6182.0219    6181.9456     129.1608         29     391.1646      -0.0984    5573.6118    5573.5135    5572.2523    5571.8001      -0.4524
    1724.0    4789.3346 1496483.0000    3799.4575     128.0895     128.5106      -0.0761    6182.0425    6181.9663     129.1593         29     392.1646      -0.0959    5573.6372    5573.5412    5572.2543    5571.8028      -0.4515
    1725.0    4856.8354 1496483.0000    3799.4575     128.0878     128.5076      -0.0775    6182.0703    6181.9929     129.1577         29     393.1646      -0.0938    5573.5737    5573.4798    5572.2549    5571.8037      -0.4510
    1726.0    4852.7075 1496483.0000    3799.4575     128.0876     128.5061      -0.0787    6181.9911    6181.9125     129.1564         29     394.1646      -0.0923    5573.7391    5573.6468    5572.2570    5571.8058      -0.4510
    1727.0    4841.2680 1496483.0000    3799.4575     128.0857     128.5061      -0.0780    6182.0542    6181.9762     129.1551         29     395.1646      -0.0924    5573.6440    5573.5516    5572.2597    5571.8090      -0.4508
    1728.0    4858.9456 1496483.0000    3799.4575     128.0826     128.5032      -0.0765    6181.8601    6181.7837     129.1535         29     396.1646      -0.0938    5573.5993    5573.5055    5572.2652    5571.8145      -0.4506
    1729.0    4803.7810 1496483.0000    3799.4575     128.0824     128.5016      -0.0758    6181.8867    6181.8110     129.1521         29     397.1646      -0.0942    5573.6124    5573.5182    5572.2687    5571.8180      -0.4505
    1730.0    4753.8721 1496483.0000    3799.4575     128.0801     128.5007      -0.0752    6182.0982    6182.0231     129.1506         29     398.1646      -0.0927    5573.6506    5573.5580    5572.2719    5571.8212      -0.4505
    1731.0    4742.6095 1496483.0000    3799.4575     128.0758     128.5005      -0.0746    6182.0892    6182.0145     129.1494         29     399.1646      -0.0910    5573.5038    5573.4127    5572.2763    5571.8261      -0.4502
    1732.0    4763.2014 1496483.0000    3799.4575     128.0752     128.4985      -0.0758    6182.1557    6182.0801     129.1478         29     400.1646      -0.0901    5573.5641    5573.4738    5572.2775    5571.8278      -0.4497
    1733.0    4758.3836 1496483.0000    3799.4575     128.0763     128.4969      -0.0801    6182.0912    6182.0112     129.1463         29     401.1646      -0.0895    5573.6536    5573.5643    5572.2806    5571.8309      -0.4496
    1734.0    4816.5360 1496483.0000    3799.4575     128.0743     128.4962      -0.0850    6182.1745    6182.0895     129.1450         29     402.1646      -0.0895    5573.6645    5573.5749    5572.2820    5571.8327      -0.4493
    1735.0    4870.0000 1496483.0000    3799.4575     128.0714     128.4946      -0.0883    6181.9937    6181.9054     129.1436         29     403.1646      -0.0908    5573.6155    5573.5247    5572.2840    5571.8348      -0.4494
    1736.0    4865.0612 1496483.0000    3799.4575     128.0708     128.4926      -0.0896    6181.9724    6181.8825     129.1422         29     404.1646      -0.0925    5573.6637    5573.5713    5572.2843    5571.8345      -0.4499
    1737.0    4842.1401 1496483.0000    3799.4575     128.0663     128.4892      -0.0881    6181.9035    6181.8154     129.1409         29     405.1646      -0.0929    5573.6035    5573.5105    5572.2862    5571.8358      -0.4504
    1738.0    4841.4762 1496483.0000    3799.4575     128.0674     128.4906      -0.0825    6182.0183    6181.9355     129.1399         29     406.1646      -0.0911    5573.7052    5573.6143    5572.2924    5571.8417      -0.4506
    1739.0    4783.8231 1496483.0000    3799.4575     128.0647     128.4876      -0.0755    6181.8851    6181.8098     129.1380         29     407.1646      -0.0882    5573.6720    5573.5839    5572.2874    5571.8367      -0.4507
    1740.0    4780.5919 1496483.0000    3799.4575     128.0644     128.4859      -0.0717    6182.0612    6181.9897     129.1366         29     408.1646      -0.0863    5573.6287    5573.5423    5572.2985    5571.8475      -0.4510
    1741.0    4741.3538 1496483.0000    3799.4575     128.0624     128.4841      -0.0716    6182.0629    6181.9912     129.1353         29     409.1646      -0.0863    5573.7255    5573.6391    5572.2987    5571.8475      -0.4511
    1742.0    4733.9878 1496483.0000    3799.4575     128.0598     128.4858      -0.0725    6182.1412    6182.0689     129.1339         29     410.1646      -0.0876    5573.6229    5573.5354    5572.3022    5571.8512      -0.4509
    1743.0    4752.8285 1496483.0000    3799.4575     128.0598     128.4827      -0.0741    6182.0903    6182.0163     129.1324         29     411.1646      -0.0887    5573.6422    5573.5536    5572.3053    5571.8549      -0.4505
    1744.0    4819.0490 1496483.0000    3799.4575     128.0569     128.4810      -0.0767    6182.0565    6181.9799     129.1311         29     412.1646      -0.0904    5573.7740    5573.6837    5572.3043    5571.8541      -0.4503
    1745.0    4807.0666 1496483.0000    3799.4575     128.0550     128.4804      -0.0777    6182.0362    6181.9586     129.1296         29     413.1646      -0.0920    5573.6430    5573.5510    5572.3043    5571.8541      -0.4502
    1746.0    4849.9755 1496483.0000    3799.4575     128.0537     128.4781      -0.0755    6181.9157    6181.8401     129.1281         29     414.1646      -0.0915    5573.6823    5573.5907    5572.2962    5571.8460      -0.4502
    1747.0    4862.3048 1496483.0000    3799.4575     128.0545     128.4765      -0.0729    6181.9753    6181.9025     129.1269         29     415.1646      -0.0881    5573.6924    5573.6044    5572.2828    5571.8327      -0.4500
    1748.0    4862.1470 1496483.0000    3799.4575     128.0498     128.4749      -0.0727    6181.9653    6181.8926     129.1252         29     416.1646      -0.0855    5573.6790    5573.5936    5572.2913    5571.8416      -0.4498
    1749.0    4802.8231 1496483.0000    3799.4575     128.0481     128.4754      -0.0732    6182.0730    6181.9998     129.1240         29     417.1646      -0.0862    5573.6421    5573.5558    5572.2951    5571.8449      -0.4503
    1750.0    4799.0980 1496483.0000    3799.4575     128.0466     128.4741      -0.0734    6182.0247    6181.9514     129.1227         29     418.1646      -0.0887    5573.6076    5573.5188    5572.2975    5571.8468      -0.4507
    1751.0    4757.0245 1496483.0000    3799.4575     128.0470     128.4734      -0.0748    6182.1904    6182.1156     129.1213         29     419.1646      -0.0903    5573.8019    5573.7114    5572.3015    5571.8513      -0.4504
