~VERSION INFORMATION
VERS.           2.0   :CWLS Log ASCII Standard - VERSION 2.0
WRAP.           NO    :One Line per depth step
PROD.  Schlumberger   :LAS Producer
PROG.  DLIS to ASCII 2.2                               :LAS Program name and version
CREA.        2020/10/30 12:18                          :LAS Creation date {YYYY/MM/DD hh:mm}
SOURCE.     XPT_HRLA_TLD_MCFL_056LTP.DLIS              :DLIS File Name
FILE-ID.     XPT_HRLA_TLD_MCFL_056LTP                  :File Identification Number
#--------------------------------------------------
~WELL INFORMATION
#MNEM.UNIT      DATA             DESCRIPTION
#---- ------ --------------   -----------------------------
STRT .S         6532.0       :START TIME      
STOP .S         6757.0       :STOP TIME      
STEP .S            1.0       :STEP     
NULL .          -999.25      :NULL VALUE
COMP .        Nexus Energy                             :COMPANY
WELL .        Crux-3                                   :WELL
FLD  .        Crux                                     :FIELD
LOC  .        Easting: 656981.7mE                      :LOCATION
CNTY .        Sedco-703                                :COUNTY
STAT .        Northern Territory                       :STATE
CTRY .        Australia                                :COUNTRY
API  .                                                 :API NUMBER
UWI  .                                                 :UNIQUE WELL ID
DATE .        31-Dec-2007                              :LOG DATE {DD-MMM-YYYY}
SRVC .        Schlumberger                             :SERVICE COMPANY
LATI .DEG     12*57'32.63" S                           :LATITUDE
LONG .DEG     124*26'50.07" E                          :LONGITUDE
GDAT .                                                 :GeoDetic Datum
#-----------------------------------------------------------------------------
~PARAMETER INFORMATION
#MNEM.UNIT    VALUE                      DESCRIPTION
#---- -----   --------------------       ------------------------
RUN  .          1                        :RUN NUMBER
PDAT .        LAT                        :Permanent Datum
EPD  .M           0.000000               :Elevation of Permanent Datum above Mean Sea Level
EPD  .M           0.000000               :Elevation of tool zero above Mean Sea Level
LMF  .          DF                       :Logging Measured From (Name of Logging Elevation Reference)
APD  .M          26.400000               :Elevation of Depth Reference (LMF) above Permanent Datum
#-----------------------------------------------------------------------------
~CURVE INFORMATION
#MNEM.UNIT   API CODE                                  DESCRIPTION
#---- -----  --------                                  -----------------------
TIME .S                                                :TIME {F10.1}
TENS_SL.LBF                                            :Cable Tension {F13.4}
DEPT_SL..1IN                                           :Station logging depth {F13.4}
PDEP_XPT.M                                             :XPT Probe Depth {F13.4}
MTEP_SAP.DEGC                                          :Sapphire Gauge Manometer Temperature {F13.4}
MTEP_HYD.DEGC                                          :Hydrostatic Sapphire Gauge Manometer Temperature {F13.4}
PCO_HYD.PSI                                            :Hydrostatic Sapphire Dynamic Compensation {F13.4}
PND_HYD.PSI                                            :Hydrostatic Sapphire Pressure Without Dynamic Compensation {F13.4}
CP_HYD.PSI                                             :Hydrostatic Sapphire Pressure With Dynamic Compensation {F13.4}
MTEP_QG.DEGC                                           :CQG Manometer Temperature {F13.4}
PTNO_XPT.                                              :XPT Pretest Number {I11}
ETIM_XPT.S                                             :Elapsed Logging Time {F13.4}
PCO_SAP.PSI                                            :Sapphire Dynamic Compensation {F13.4}
PND_SAP.PSI                                            :Sapphire Pressure Without Dynamic Compensation {F13.4}
CP_SAP.PSI                                             :Sapphire Pressure With Dynamic Compensation {F13.4}
QNDP .PSI                                              :CQG Pressure Without Dynamic Compensation {F13.4}
QCP  .PSI                                              :CQG Pressure With Dynamic Compensation {F13.4}
QPCO .PSI                                              :CQG Dynamic Compensation {F13.4}
#-----------------------------------------------------------------------------
# 
#     TIME      TENS_SL      DEPT_SL      PDEP_XPT     MTEP_SAP     MTEP_HYD     PCO_HYD      PND_HYD       CP_HYD      MTEP_QG       PTNO_XPT       ETIM_XPT     PCO_SAP      PND_SAP       CP_SAP        QNDP         QCP          QPCO
#
~A  
    6532.0    5039.9961 1525236.8325    3872.4924     129.8719     130.3989       0.0000    6295.6509    6295.6509     130.2498         15       0.0000       0.0000    6293.4205    6293.4205    6291.1876    6291.1876       0.0000
    6533.0    5018.1100 1525238.0000    3872.4954     129.8694     130.3990       0.0000    6295.9568    6295.9568     130.2499         16       0.9950       0.0000    6293.7298    6293.7298    6291.5097    6291.5097       0.0000
    6534.0    5024.9650 1525238.0000    3872.4954     129.8677     130.3955       0.0000    6296.1409    6296.1409     130.2502         16       1.9950       0.0000    6293.7577    6293.7577    6291.6044    6291.6044       0.0000
    6535.0    5017.0400 1525238.0000    3872.4954     129.8697     130.3967       0.0000    6296.2356    6296.2356     130.2507         16       2.9950       0.0000    6293.8237    6293.8237    6291.6525    6291.6525       0.0000
    6536.0    5023.9650 1525238.0000    3872.4954     129.8674     130.3952       0.0000    6296.1732    6296.1732     130.2511         16       3.9950       0.0000    6293.7755    6293.7755    6291.5838    6291.5838       0.0000
    6537.0    5144.3950 1525238.0000    3872.4954     129.8665     130.3942       0.0000    6296.2274    6296.2274     130.2511         16       4.9950       0.0000    6293.7736    6293.7736    6291.6390    6291.6390       0.0000
    6538.0    5084.3050 1525238.0000    3872.4954     129.8664     130.3914      -0.0558    6296.1199    6296.0642     130.2516         16       5.9950      -0.0449    6293.9415    6293.8964    6291.6966    6291.7936       0.0970
    6539.0    5088.9750 1525238.0000    3872.4954     129.8647     130.3929      -0.0593    6296.1101    6296.0510     130.2519         16       6.9950      -0.0477    6293.5456    6293.4978    6291.3683    6291.4664       0.0979
    6540.0    5054.1750 1525238.0000    3872.4954     129.8635     130.3896      -0.0593    6295.9290    6295.8698     130.2521         16       7.9950      -0.0475    6293.6433    6293.5958    6291.5189    6291.6170       0.0981
    6541.0    5078.8750 1525238.0000    3872.4954     129.8638     130.3906      -0.0577    6296.1703    6296.1127     130.2525         16       8.9950      -0.0451    6293.8543    6293.8093    6291.6722    6291.7699       0.0978
    6542.0    4948.6550 1525238.0000    3872.4954     129.8622     130.3884      -0.0552    6296.3509    6296.2955     130.2528         16       9.9950      -0.0412    6293.9358    6293.8946    6291.7474    6291.8439       0.0963
    6543.0    5021.6300 1525238.0000    3872.4954     129.8618     130.3871      -0.0528    6296.3644    6296.3116     130.2533         16      10.9950      -0.0381    6294.1067    6294.0686    6291.8575    6291.9518       0.0944
    6544.0    4983.1950 1525238.0000    3872.4954     129.8597     130.3869      -0.0517    6296.4927    6296.4409     130.2535         16      11.9950      -0.0375    6294.1472    6294.1096    6292.0434    6292.1362       0.0929
    6545.0    4969.0700 1525238.0000    3872.4954     129.8592     130.3848      -0.0521    6296.5503    6296.4980     130.2537         16      12.9950      -0.0385    6294.0630    6294.0245    6291.9971    6292.0877       0.0907
    6546.0    4923.2300 1525238.0000    3872.4954     129.8606     130.3861      -0.0532    6296.5454    6296.4922     130.2539         16      13.9950      -0.0406    6294.2046    6294.1641    6291.9161    6292.0035       0.0875
    6547.0    5007.5750 1525238.0000    3872.4954     129.8571     130.3846      -0.0546    6296.5892    6296.5345     130.2544         16      14.9950      -0.0436    6294.1244    6294.0809    6291.9551    6292.0401       0.0851
    6548.0    5042.8250 1525238.0000    3872.4954     129.8572     130.3820      -0.0582    6296.5622    6296.5042     130.2546         16      15.9950      -0.0483    6294.1795    6294.1312    6291.9684    6292.0519       0.0836
    6549.0    5091.7550 1525238.0000    3872.4954     129.8587     130.3808      -0.0638    6296.4883    6296.4245     130.2548         16      16.9950      -0.0521    6294.0605    6294.0086    6291.9168    6291.9995       0.0826
    6550.0    5112.8950 1525238.0000    3872.4954     129.8563     130.3815      -0.0683    6296.1938    6296.1255     130.2551         16      17.9950      -0.0543    6293.6940    6293.6398    6291.6233    6291.7049       0.0816
    6551.0    5093.1000 1525238.0000    3872.4954     129.8558     130.3810      -0.0689    6296.3480    6296.2792     130.2553         16      18.9950      -0.0547    6293.9112    6293.8566    6291.7282    6291.8086       0.0806
    6552.0    5069.1200 1525238.0000    3872.4954     129.8544     130.3785      -0.0677    6296.3447    6296.2771     130.2553         16      19.9950      -0.0537    6293.8624    6293.8085    6291.7494    6291.8290       0.0796
    6553.0    4931.6900 1525238.0000    3872.4954     129.8540     130.3750      -0.0674    6296.2455    6296.1782     130.2557         16      20.9950      -0.0523    6294.0891    6294.0368    6291.8189    6291.8976       0.0787
    6554.0    4899.1600 1525238.0000    3872.4954     129.8524     130.3760      -0.0674    6296.4560    6296.3886     130.2560         16      21.9950      -0.0509    6294.1229    6294.0722    6291.9658    6292.0432       0.0776
    6555.0    4891.0400 1525238.0000    3872.4954     129.8519     130.3742      -0.0660    6296.5158    6296.4498     130.2562         16      22.9950      -0.0497    6294.3499    6294.3001    6292.2233    6292.2996       0.0761
    6556.0    4928.8100 1525238.0000    3872.4954     129.8529     130.3743      -0.0631    6296.9325    6296.8695     130.2563         16      23.9950      -0.0485    6294.4720    6294.4237    6292.2742    6292.3489       0.0747
    6557.0    4923.0300 1525238.0000    3872.4954     129.8485     130.3717      -0.0605    6296.6935    6296.6331     130.2567         16      24.9950      -0.0478    6294.2181    6294.1702    6292.1377    6292.2108       0.0733
    6558.0    4936.9300 1525238.0000    3872.4954     129.8487     130.3706      -0.0593    6296.6606    6296.6014     130.2569         16      25.9950      -0.0475    6294.2808    6294.2334    6292.0897    6292.1614       0.0715
    6559.0    5030.5300 1525238.0000    3872.4954     129.8473     130.3698      -0.0594    6296.6120    6296.5525     130.2572         16      26.9950      -0.0472    6294.1763    6294.1290    6292.0582    6292.1286       0.0701
    6560.0    5018.0650 1525238.0000    3872.4954     129.8459     130.3678      -0.0596    6296.6518    6296.5922     130.2575         16      27.9950      -0.0462    6294.1188    6294.0726    6292.0759    6292.1451       0.0691
    6561.0    5035.9100 1525238.0000    3872.4954     129.8458     130.3691      -0.0584    6296.6262    6296.5677     130.2575         16      28.9950      -0.0452    6293.9905    6293.9454    6291.9666    6292.0338       0.0674
    6562.0    5065.8500 1525238.0000    3872.4954     129.8458     130.3656      -0.0580    6296.4477    6296.3896     130.2576         16      29.9950      -0.0453    6294.1304    6294.0850    6291.9961    6292.0615       0.0656
    6563.0    5022.2200 1525238.0000    3872.4954     129.8463     130.3666      -0.0605    6296.6372    6296.5767     130.2579         16      30.9950      -0.0469    6294.1846    6294.1379    6292.0436    6292.1065       0.0631
    6564.0    4968.2700 1525238.0000    3872.4954     129.8441     130.3635      -0.0656    6296.6453    6296.5799     130.2580         16      31.9950      -0.0502    6294.2654    6294.2151    6292.1017    6292.1634       0.0617
    6565.0    4941.1350 1525238.0000    3872.4954     129.8413     130.3648      -0.0700    6296.7379    6296.6681     130.2581         16      32.9950      -0.0542    6294.2360    6294.1818    6292.1549    6292.2160       0.0612
    6566.0    4947.9650 1525238.0000    3872.4954     129.8421     130.3630      -0.0712    6296.7822    6296.7109     130.2585         16      33.9950      -0.0565    6294.3074    6294.2511    6292.1625    6292.2236       0.0610
