~VERSION INFORMATION
VERS.           2.0   :CWLS Log ASCII Standard - VERSION 2.0
WRAP.           NO    :One Line per depth step
PROD.  Schlumberger   :LAS Producer
PROG.  DLIS to ASCII 2.2                               :LAS Program name and version
CREA.        2020/10/30 12:18                          :LAS Creation date {YYYY/MM/DD hh:mm}
SOURCE.     XPT_HRLA_TLD_MCFL_046LTP.DLIS              :DLIS File Name
FILE-ID.     XPT_HRLA_TLD_MCFL_046LTP                  :File Identification Number
#--------------------------------------------------
~WELL INFORMATION
#MNEM.UNIT      DATA             DESCRIPTION
#---- ------ --------------   -----------------------------
STRT .S         4617.0       :START TIME      
STOP .S         5507.0       :STOP TIME      
STEP .S            1.0       :STEP     
NULL .          -999.25      :NULL VALUE
COMP .        Nexus Energy                             :COMPANY
WELL .        Crux-3                                   :WELL
FLD  .        Crux                                     :FIELD
LOC  .        Easting: 656981.7mE                      :LOCATION
CNTY .        Sedco-703                                :COUNTY
STAT .        Northern Territory                       :STATE
CTRY .        Australia                                :COUNTRY
API  .                                                 :API NUMBER
UWI  .                                                 :UNIQUE WELL ID
DATE .        31-Dec-2007                              :LOG DATE {DD-MMM-YYYY}
SRVC .        Schlumberger                             :SERVICE COMPANY
LATI .DEG     12*57'32.63" S                           :LATITUDE
LONG .DEG     124*26'50.07" E                          :LONGITUDE
GDAT .                                                 :GeoDetic Datum
#-----------------------------------------------------------------------------
~PARAMETER INFORMATION
#MNEM.UNIT    VALUE                      DESCRIPTION
#---- -----   --------------------       ------------------------
RUN  .          1                        :RUN NUMBER
PDAT .        LAT                        :Permanent Datum
EPD  .M           0.000000               :Elevation of Permanent Datum above Mean Sea Level
EPD  .M           0.000000               :Elevation of tool zero above Mean Sea Level
LMF  .          DF                       :Logging Measured From (Name of Logging Elevation Reference)
APD  .M          26.400000               :Elevation of Depth Reference (LMF) above Permanent Datum
#-----------------------------------------------------------------------------
~CURVE INFORMATION
#MNEM.UNIT   API CODE                                  DESCRIPTION
#---- -----  --------                                  -----------------------
TIME .S                                                :TIME {F10.1}
TENS_SL.LBF                                            :Cable Tension {F13.4}
DEPT_SL..1IN                                           :Station logging depth {F13.4}
PDEP_XPT.M                                             :XPT Probe Depth {F13.4}
MTEP_SAP.DEGC                                          :Sapphire Gauge Manometer Temperature {F13.4}
MTEP_HYD.DEGC                                          :Hydrostatic Sapphire Gauge Manometer Temperature {F13.4}
PCO_HYD.PSI                                            :Hydrostatic Sapphire Dynamic Compensation {F13.4}
PND_HYD.PSI                                            :Hydrostatic Sapphire Pressure Without Dynamic Compensation {F13.4}
CP_HYD.PSI                                             :Hydrostatic Sapphire Pressure With Dynamic Compensation {F13.4}
MTEP_QG.DEGC                                           :CQG Manometer Temperature {F13.4}
PTNO_XPT.                                              :XPT Pretest Number {I11}
ETIM_XPT.S                                             :Elapsed Logging Time {F13.4}
PCO_SAP.PSI                                            :Sapphire Dynamic Compensation {F13.4}
PND_SAP.PSI                                            :Sapphire Pressure Without Dynamic Compensation {F13.4}
CP_SAP.PSI                                             :Sapphire Pressure With Dynamic Compensation {F13.4}
QNDP .PSI                                              :CQG Pressure Without Dynamic Compensation {F13.4}
QCP  .PSI                                              :CQG Pressure With Dynamic Compensation {F13.4}
QPCO .PSI                                              :CQG Dynamic Compensation {F13.4}
#-----------------------------------------------------------------------------
# 
#     TIME      TENS_SL      DEPT_SL      PDEP_XPT     MTEP_SAP     MTEP_HYD     PCO_HYD      PND_HYD       CP_HYD      MTEP_QG       PTNO_XPT       ETIM_XPT     PCO_SAP      PND_SAP       CP_SAP        QNDP         QCP          QPCO
#
~A  
# ...
    5072.0    4838.6950 1443523.0000    3664.9392     121.8675     122.4243       0.0057    5967.4553    5967.4609     122.4801         10     454.6870       0.0023    5493.0393    5493.0416    5490.3370    5490.3831       0.0460
    5073.0    4821.6340 1443523.0000    3664.9392     121.8687     122.4225       0.0077    5967.4762    5967.4840     122.4801         10     455.6870       0.0024    5493.9048    5493.9072    5491.1635    5491.2070       0.0434
    5074.0    4738.3690 1443523.0000    3664.9392     121.8673     122.4240       0.0087    5967.6089    5967.6177     122.4804         10     456.6870       0.0020    5494.6359    5494.6378    5492.0009    5492.0417       0.0409
    5075.0    4715.3660 1443523.0000    3664.9392     121.8679     122.4242       0.0086    5967.7074    5967.7162     122.4804         10     457.6870       0.0009    5495.3952    5495.3961    5492.7371    5492.7758       0.0388
    5076.0    4716.8780 1443523.0000    3664.9392     121.8699     122.4240       0.0066    5967.7285    5967.7349     122.4810         10     458.6870      -0.0011    5496.2142    5496.2132    5493.4823    5493.5194       0.0372
    5077.0    4711.5650 1443523.0000    3664.9392     121.8678     122.4243       0.0037    5967.8504    5967.8540     122.4808         10     459.6870      -0.0031    5496.8603    5496.8572    5494.2307    5494.2667       0.0359
    5078.0    4692.1380 1443523.0000    3664.9392     121.8681     122.4249       0.0019    5967.9055    5967.9074     122.4809         10     460.6870      -0.0031    5497.5881    5497.5850    5494.8906    5494.9253       0.0346
    5079.0    4713.5410 1443523.0000    3664.9392     121.8696     122.4226       0.0015    5967.7159    5967.7173     122.4807         10     461.6870      -0.0018    5498.3207    5498.3187    5495.5539    5495.5872       0.0333
    5080.0    4793.6390 1443523.0000    3664.9392     121.8678     122.4246       0.0019    5967.6398    5967.6418     122.4810         10     462.6870      -0.0012    5498.8201    5498.8190    5496.2094    5496.2416       0.0321
    5081.0    4820.5650 1443523.0000    3664.9392     121.8672     122.4242       0.0036    5967.5284    5967.5319     122.4811         10     463.6870      -0.0019    5499.3535    5499.3515    5496.7656    5496.7965       0.0311
    5082.0    4808.6950 1443523.0000    3664.9392     121.8693     122.4247       0.0075    5967.4985    5967.5058     122.4813         10     464.6870      -0.0015    5500.1049    5500.1034    5497.3081    5497.3379       0.0298
    5083.0    4808.8090 1443523.0000    3664.9392     121.8682     122.4241       0.0121    5967.4905    5967.5025     122.4813         10     465.6870       0.0009    5500.4858    5500.4866    5497.8490    5497.8776       0.0286
    5084.0    4828.8620 1443523.0000    3664.9392     121.8679     122.4246       0.0142    5967.5306    5967.5448     122.4814         10     466.6870       0.0035    5500.9640    5500.9676    5498.3064    5498.3334       0.0270
    5085.0    4804.7110 1443523.0000    3664.9392     121.8654     122.4255       0.0133    5967.5649    5967.5781     122.4813         10     467.6870       0.0051    5501.3333    5501.3387    5498.7743    5498.8002       0.0257
    5086.0    4742.5970 1443523.0000    3664.9392     121.8683     122.4252       0.0116    5967.5791    5967.5907     122.4815         10     468.6870       0.0073    5501.9195    5501.9266    5499.2448    5499.2700       0.0252
    5087.0    4726.4960 1443523.0000    3664.9392     121.8678     122.4255       0.0107    5967.6846    5967.6953     122.4817         10     469.6870       0.0104    5502.3768    5502.3871    5499.6446    5499.6695       0.0250
    5088.0    4711.8250 1443523.0000    3664.9392     121.8698     122.4271       0.0105    5967.7603    5967.7705     122.4814         10     470.6870       0.0115    5502.7056    5502.7173    5500.0855    5500.1099       0.0245
    5089.0    4701.2520 1443523.0000    3664.9392     121.8686     122.4250       0.0098    5967.6540    5967.6638     122.4818         10     471.6870       0.0090    5503.1330    5503.1420    5500.4833    5500.5066       0.0234
    5090.0    4689.0080 1443523.0000    3664.9392     121.8691     122.4260       0.0090    5967.6484    5967.6574     122.4822         10     472.6870       0.0055    5503.6301    5503.6357    5500.8498    5500.8719       0.0222
    5091.0    4713.5410 1443523.0000    3664.9392     121.8682     122.4255       0.0093    5967.6535    5967.6628     122.4817         10     473.6870       0.0040    5503.9114    5503.9154    5501.2188    5501.2398       0.0211
    5092.0    4787.4560 1443523.0000    3664.9392     121.8692     122.4266       0.0110    5967.6645    5967.6754     122.4820         10     474.6870       0.0037    5504.2518    5504.2556    5501.5515    5501.5719       0.0202
    5093.0    4804.0080 1443523.0000    3664.9392     121.8674     122.4271       0.0127    5967.5406    5967.5533     122.4822         10     475.6870       0.0015    5504.5567    5504.5584    5501.8596    5501.8791       0.0196
    5094.0    4831.9760 1443523.0000    3664.9392     121.8689     122.4267       0.0127    5967.5488    5967.5615     122.4823         10     476.6870      -0.0015    5504.8702    5504.8688    5502.1721    5502.1912       0.0191
    5095.0    4853.1830 1443523.0000    3664.9392     121.8687     122.4270       0.0114    5967.4333    5967.4449     122.4823         10     477.6870      -0.0022    5505.1025    5505.1002    5502.4575    5502.4760       0.0186
    5096.0    4840.1990 1443523.0000    3664.9392     121.8695     122.4271       0.0103    5967.5436    5967.5539     122.4824         10     478.6870      -0.0008    5505.3827    5505.3820    5502.7265    5502.7445       0.0181
    5097.0    4808.2680 1443523.0000    3664.9392     121.8676     122.4292       0.0105    5967.6583    5967.6691     122.4825         10     479.6870      -0.0005    5505.6643    5505.6638    5503.0134    5503.0315       0.0180
    5098.0    4754.4060 1443523.0000    3664.9392     121.8674     122.4266       0.0104    5967.5167    5967.5269     122.4824         10     480.6870      -0.0026    5505.8428    5505.8402    5503.2712    5503.2888       0.0177
    5099.0    4747.3660 1443523.0000    3664.9392     121.8689     122.4283       0.0088    5967.6087    5967.6177     122.4826         10     481.6870      -0.0042    5506.2214    5506.2172    5503.5258    5503.5426       0.0169
    5100.0    4740.6340 1443523.0000    3664.9392     121.8687     122.4278       0.0065    5967.7030    5967.7094     122.4822         10     482.6870      -0.0034    5506.4795    5506.4760    5503.7937    5503.8098       0.0159
    5101.0    4726.0690 1443523.0000    3664.9392     121.8697     122.4280       0.0047    5967.8297    5967.8345     122.4826         10     483.6870      -0.0012    5506.7288    5506.7274    5504.0386    5504.0542       0.0154
    5102.0    4704.8250 1443523.0000    3664.9392     121.8684     122.4287       0.0032    5967.7292    5967.7323     122.4828         10     484.6870       0.0007    5506.9763    5506.9771    5504.2609    5504.2768       0.0159
    5103.0    4755.3950 1443523.0000    3664.9392     121.8673     122.4278       0.0010    5967.7059    5967.7069     122.4828         10     485.6870       0.0025    5507.1502    5507.1526    5504.5008    5504.5174       0.0165
    5104.0    4782.0000 1443523.0000    3664.9392     121.8679     122.4276      -0.0002    5967.6557    5967.6557     122.4828         10     486.6870       0.0050    5507.3503    5507.3554    5504.7171    5504.7337       0.0166
    5105.0    4795.7400 1443523.0000    3664.9392     121.8690     122.4280       0.0017    5967.6611    5967.6627     122.4828         10     487.6870       0.0079    5507.5881    5507.5960    5504.9167    5504.9333       0.0164
    5106.0    4824.6710 1443523.0000    3664.9392     121.8695     122.4285       0.0058    5967.4212    5967.4270     122.4830         10     488.6870       0.0098    5507.8244    5507.8342    5505.1299    5505.1460       0.0161
