~VERSION INFORMATION
VERS.           2.0   :CWLS Log ASCII Standard - VERSION 2.0
WRAP.           NO    :One Line per depth step
PROD.  Schlumberger   :LAS Producer
PROG.  DLIS to ASCII 2.2                               :LAS Program name and version
CREA.        2020/10/30 12:18                          :LAS Creation date {YYYY/MM/DD hh:mm}
SOURCE.     XPT_HRLA_TLD_MCFL_064LTP.DLIS              :DLIS File Name
FILE-ID.     XPT_HRLA_TLD_MCFL_064LTP                  :File Identification Number
#--------------------------------------------------
~WELL INFORMATION
#MNEM.UNIT      DATA             DESCRIPTION
#---- ------ --------------   -----------------------------
STRT .S         1332.0       :START TIME      
STOP .S         1827.0       :STOP TIME      
STEP .S            1.0       :STEP     
NULL .          -999.25      :NULL VALUE
COMP .        Nexus Energy                             :COMPANY
WELL .        Crux-3                                   :WELL
FLD  .        Crux                                     :FIELD
LOC  .        Easting: 656981.7mE                      :LOCATION
CNTY .        Sedco-703                                :COUNTY
STAT .        Northern Territory                       :STATE
CTRY .        Australia                                :COUNTRY
API  .                                                 :API NUMBER
UWI  .                                                 :UNIQUE WELL ID
DATE .        31-Dec-2007                              :LOG DATE {DD-MMM-YYYY}
SRVC .        Schlumberger                             :SERVICE COMPANY
LATI .DEG     12*57'32.63" S                           :LATITUDE
LONG .DEG     124*26'50.07" E                          :LONGITUDE
GDAT .                                                 :GeoDetic Datum
#-----------------------------------------------------------------------------
~PARAMETER INFORMATION
#MNEM.UNIT    VALUE                      DESCRIPTION
#---- -----   --------------------       ------------------------
RUN  .          1                        :RUN NUMBER
PDAT .        LAT                        :Permanent Datum
EPD  .M           0.000000               :Elevation of Permanent Datum above Mean Sea Level
EPD  .M           0.000000               :Elevation of tool zero above Mean Sea Level
LMF  .          DF                       :Logging Measured From (Name of Logging Elevation Reference)
APD  .M          26.400000               :Elevation of Depth Reference (LMF) above Permanent Datum
#-----------------------------------------------------------------------------
~CURVE INFORMATION
#MNEM.UNIT   API CODE                                  DESCRIPTION
#---- -----  --------                                  -----------------------
TIME .S                                                :TIME {F10.1}
TENS_SL.LBF                                            :Cable Tension {F13.4}
DEPT_SL..1IN                                           :Station logging depth {F13.4}
PDEP_XPT.M                                             :XPT Probe Depth {F13.4}
MTEP_SAP.DEGC                                          :Sapphire Gauge Manometer Temperature {F13.4}
MTEP_HYD.DEGC                                          :Hydrostatic Sapphire Gauge Manometer Temperature {F13.4}
PCO_HYD.PSI                                            :Hydrostatic Sapphire Dynamic Compensation {F13.4}
PND_HYD.PSI                                            :Hydrostatic Sapphire Pressure Without Dynamic Compensation {F13.4}
CP_HYD.PSI                                             :Hydrostatic Sapphire Pressure With Dynamic Compensation {F13.4}
MTEP_QG.DEGC                                           :CQG Manometer Temperature {F13.4}
PTNO_XPT.                                              :XPT Pretest Number {I11}
ETIM_XPT.S                                             :Elapsed Logging Time {F13.4}
PCO_SAP.PSI                                            :Sapphire Dynamic Compensation {F13.4}
PND_SAP.PSI                                            :Sapphire Pressure Without Dynamic Compensation {F13.4}
CP_SAP.PSI                                             :Sapphire Pressure With Dynamic Compensation {F13.4}
QNDP .PSI                                              :CQG Pressure Without Dynamic Compensation {F13.4}
QCP  .PSI                                              :CQG Pressure With Dynamic Compensation {F13.4}
QPCO .PSI                                              :CQG Dynamic Compensation {F13.4}
#-----------------------------------------------------------------------------
# 
#     TIME      TENS_SL      DEPT_SL      PDEP_XPT     MTEP_SAP     MTEP_HYD     PCO_HYD      PND_HYD       CP_HYD      MTEP_QG       PTNO_XPT       ETIM_XPT     PCO_SAP      PND_SAP       CP_SAP        QNDP         QCP          QPCO
#
~A  
# ...
    1577.0    4754.6708 1496483.0000    3799.4575     128.3670     128.7664      -0.1080    6181.9398    6181.8320     129.3602         29     245.1646      -0.1109    5571.8460    5571.7350    5570.3647    5569.9652      -0.3997
    1578.0    4753.6585 1496483.0000    3799.4575     128.3648     128.7648      -0.1071    6181.8992    6181.7920     129.3588         29     246.1646      -0.1120    5571.8420    5571.7299    5570.4394    5570.0378      -0.4015
    1579.0    4760.6218 1496483.0000    3799.4575     128.3615     128.7617      -0.1092    6181.8665    6181.7572     129.3577         29     247.1646      -0.1125    5571.7541    5571.6418    5570.5020    5570.0993      -0.4026
    1580.0    4789.0421 1496483.0000    3799.4575     128.3609     128.7608      -0.1116    6181.9774    6181.8660     129.3564         29     248.1646      -0.1118    5571.9285    5571.8167    5570.5529    5570.1495      -0.4034
    1581.0    4844.6095 1496483.0000    3799.4575     128.3579     128.7586      -0.1114    6181.8936    6181.7820     129.3554         29     249.1646      -0.1105    5571.9591    5571.8485    5570.6054    5570.2016      -0.4038
    1582.0    4866.1891 1496483.0000    3799.4575     128.3573     128.7557      -0.1086    6181.8068    6181.6983     129.3537         29     250.1646      -0.1095    5572.0827    5571.9733    5570.6455    5570.2412      -0.4043
    1583.0    4856.5061 1496483.0000    3799.4575     128.3547     128.7539      -0.1054    6181.7921    6181.6868     129.3531         29     251.1646      -0.1088    5572.1310    5572.0223    5570.6857    5570.2809      -0.4048
    1584.0    4855.6462 1496483.0000    3799.4575     128.3531     128.7525      -0.1040    6181.8291    6181.7251     129.3513         29     252.1646      -0.1080    5572.0912    5571.9831    5570.7330    5570.3272      -0.4058
    1585.0    4861.6952 1496483.0000    3799.4575     128.3492     128.7509      -0.1046    6181.8103    6181.7058     129.3504         29     253.1646      -0.1077    5572.1054    5571.9974    5570.7770    5570.3702      -0.4069
    1586.0    4844.0735 1496483.0000    3799.4575     128.3490     128.7488      -0.1061    6181.9191    6181.8130     129.3491         29     254.1646      -0.1085    5572.2743    5572.1658    5570.8138    5570.4055      -0.4083
    1587.0    4807.4150 1496483.0000    3799.4575     128.3466     128.7477      -0.1066    6181.8990    6181.7925     129.3479         29     255.1646      -0.1101    5572.2609    5572.1510    5570.8556    5570.4453      -0.4102
    1588.0    4769.8844 1496483.0000    3799.4575     128.3471     128.7435      -0.1065    6181.8813    6181.7748     129.3466         29     256.1646      -0.1110    5572.4704    5572.3595    5570.8947    5570.4835      -0.4113
    1589.0    4752.2925 1496483.0000    3799.4575     128.3423     128.7430      -0.1068    6181.9009    6181.7940     129.3450         29     257.1646      -0.1114    5572.2459    5572.1346    5570.9287    5570.5160      -0.4128
    1590.0    4774.2680 1496483.0000    3799.4575     128.3405     128.7399      -0.1069    6181.9642    6181.8572     129.3438         29     258.1646      -0.1114    5572.3447    5572.2334    5570.9673    5570.5540      -0.4134
    1591.0    4806.7619 1496483.0000    3799.4575     128.3382     128.7386      -0.1065    6181.9228    6181.8164     129.3425         29     259.1646      -0.1106    5572.2658    5572.1554    5571.0046    5570.5915      -0.4131
    1592.0    4837.6462 1496483.0000    3799.4575     128.3351     128.7391      -0.1060    6181.9885    6181.8825     129.3410         29     260.1646      -0.1091    5572.4248    5572.3156    5571.0372    5570.6242      -0.4129
    1593.0    4842.7075 1496483.0000    3799.4575     128.3352     128.7347      -0.1067    6181.8756    6181.7689     129.3398         29     261.1646      -0.1078    5572.4950    5572.3870    5571.0706    5570.6575      -0.4130
    1594.0    4814.3116 1496483.0000    3799.4575     128.3330     128.7330      -0.1077    6181.9064    6181.7985     129.3388         29     262.1646      -0.1083    5572.5030    5572.3947    5571.1004    5570.6868      -0.4137
    1595.0    4756.9755 1496483.0000    3799.4575     128.3317     128.7322      -0.1074    6181.9632    6181.8559     129.3375         29     263.1646      -0.1110    5572.4707    5572.3597    5571.1303    5570.7150      -0.4153
    1596.0    4764.8599 1496483.0000    3799.4575     128.3294     128.7282      -0.1052    6181.8736    6181.7684     129.3360         29     264.1646      -0.1141    5572.5589    5572.4449    5571.1445    5570.7273      -0.4173
    1597.0    4760.7496 1496483.0000    3799.4575     128.3260     128.7263      -0.1020    6181.8997    6181.7975     129.3346         29     265.1646      -0.1151    5572.5162    5572.4009    5571.1704    5570.7515      -0.4190
    1598.0    4801.4204 1496483.0000    3799.4575     128.3239     128.7260      -0.0994    6181.9710    6181.8715     129.3333         29     266.1646      -0.1135    5572.5392    5572.4257    5571.2030    5570.7830      -0.4201
    1599.0    4838.4449 1496483.0000    3799.4575     128.3226     128.7240      -0.0998    6181.9166    6181.8168     129.3321         29     267.1646      -0.1113    5572.5481    5572.4368    5571.2226    5570.8015      -0.4211
    1600.0    4857.0490 1496483.0000    3799.4575     128.3198     128.7212      -0.1039    6181.9197    6181.8159     129.3310         29     268.1646      -0.1097    5572.5794    5572.4695    5571.2496    5570.8277      -0.4220
    1601.0    4837.0000 1496483.0000    3799.4575     128.3206     128.7210      -0.1090    6181.9412    6181.8321     129.3296         29     269.1646      -0.1078    5572.5926    5572.4848    5571.2773    5570.8549      -0.4225
    1602.0    4835.6830 1496483.0000    3799.4575     128.3174     128.7180      -0.1124    6181.7792    6181.6666     129.3280         29     270.1646      -0.1052    5572.6859    5572.5807    5571.3038    5570.8815      -0.4223
    1603.0    4824.7198 1496483.0000    3799.4575     128.3142     128.7147      -0.1138    6181.8515    6181.7377     129.3270         29     271.1646      -0.1044    5572.6037    5572.4992    5571.3317    5570.9093      -0.4224
    1604.0    4798.5551 1496483.0000    3799.4575     128.3122     128.7132      -0.1134    6181.8724    6181.7592     129.3256         29     272.1646      -0.1069    5572.7245    5572.6178    5571.3561    5570.9332      -0.4229
    1605.0    4772.5429 1496483.0000    3799.4575     128.3104     128.7122      -0.1105    6181.8848    6181.7742     129.3243         29     273.1646      -0.1102    5572.7088    5572.5987    5571.3871    5570.9635      -0.4235
    1606.0    4756.4816 1496483.0000    3799.4575     128.3090     128.7092      -0.1057    6181.8535    6181.7479     129.3229         29     274.1646      -0.1116    5572.8235    5572.7117    5571.4101    5570.9863      -0.4240
    1607.0    4761.6952 1496483.0000    3799.4575     128.3069     128.7076      -0.1020    6182.0176    6181.9156     129.3215         29     275.1646      -0.1118    5572.7939    5572.6820    5571.4287    5571.0039      -0.4246
    1608.0    4756.4204 1496483.0000    3799.4575     128.3052     128.7053      -0.1012    6181.9331    6181.8318     129.3202         29     276.1646      -0.1124    5572.8490    5572.7364    5571.4528    5571.0277      -0.4253
    1609.0    4797.2312 1496483.0000    3799.4575     128.3027     128.7040      -0.1028    6181.9189    6181.8160     129.3190         29     277.1646      -0.1121    5572.8242    5572.7119    5571.4693    5571.0431      -0.4262
    1610.0    4842.9510 1496483.0000    3799.4575     128.3006     128.7024      -0.1051    6181.9619    6181.8568     129.3178         29     278.1646      -0.1104    5572.8415    5572.7313    5571.4895    5571.0626      -0.4269
    1611.0    4863.4939 1496483.0000    3799.4575     128.2978     128.7000      -0.1072    6181.8765    6181.7693     129.3161         29     279.1646      -0.1086    5572.8576    5572.7490    5571.5059    5571.0782      -0.4276
