~VERSION INFORMATION
VERS.           2.0   :CWLS Log ASCII Standard - VERSION 2.0
WRAP.           NO    :One Line per depth step
PROD.  Schlumberger   :LAS Producer
PROG.  DLIS to ASCII 2.2                               :LAS Program name and version
CREA.        2020/10/30 12:18                          :LAS Creation date {YYYY/MM/DD hh:mm}
SOURCE.     XPT_HRLA_TLD_MCFL_049LTP.DLIS              :DLIS File Name
FILE-ID.     XPT_HRLA_TLD_MCFL_049LTP                  :File Identification Number
#--------------------------------------------------
~WELL INFORMATION
#MNEM.UNIT      DATA             DESCRIPTION
#---- ------ --------------   -----------------------------
STRT .S          815.0       :START TIME      
STOP .S         1341.0       :STOP TIME      
STEP .S            1.0       :STEP     
NULL .          -999.25      :NULL VALUE
COMP .        Nexus Energy                             :COMPANY
WELL .        Crux-3                                   :WELL
FLD  .        Crux                                     :FIELD
LOC  .        Easting: 656981.7mE                      :LOCATION
CNTY .        Sedco-703                                :COUNTY
STAT .        Northern Territory                       :STATE
CTRY .        Australia                                :COUNTRY
API  .                                                 :API NUMBER
UWI  .                                                 :UNIQUE WELL ID
DATE .        31-Dec-2007                              :LOG DATE {DD-MMM-YYYY}
SRVC .        Schlumberger                             :SERVICE COMPANY
LATI .DEG     12*57'32.63" S                           :LATITUDE
LONG .DEG     124*26'50.07" E                          :LONGITUDE
GDAT .                                                 :GeoDetic Datum
#-----------------------------------------------------------------------------
~PARAMETER INFORMATION
#MNEM.UNIT    VALUE                      DESCRIPTION
#---- -----   --------------------       ------------------------
RUN  .          1                        :RUN NUMBER
PDAT .        LAT                        :Permanent Datum
EPD  .M           0.000000               :Elevation of Permanent Datum above Mean Sea Level
EPD  .M           0.000000               :Elevation of tool zero above Mean Sea Level
LMF  .          DF                       :Logging Measured From (Name of Logging Elevation Reference)
APD  .M          26.400000               :Elevation of Depth Reference (LMF) above Permanent Datum
#-----------------------------------------------------------------------------
~CURVE INFORMATION
#MNEM.UNIT   API CODE                                  DESCRIPTION
#---- -----  --------                                  -----------------------
TIME .S                                                :TIME {F10.1}
TENS_SL.LBF                                            :Cable Tension {F13.4}
DEPT_SL..1IN                                           :Station logging depth {F13.4}
PDEP_XPT.M                                             :XPT Probe Depth {F13.4}
MTEP_SAP.DEGC                                          :Sapphire Gauge Manometer Temperature {F13.4}
MTEP_HYD.DEGC                                          :Hydrostatic Sapphire Gauge Manometer Temperature {F13.4}
PCO_HYD.PSI                                            :Hydrostatic Sapphire Dynamic Compensation {F13.4}
PND_HYD.PSI                                            :Hydrostatic Sapphire Pressure Without Dynamic Compensation {F13.4}
CP_HYD.PSI                                             :Hydrostatic Sapphire Pressure With Dynamic Compensation {F13.4}
MTEP_QG.DEGC                                           :CQG Manometer Temperature {F13.4}
PTNO_XPT.                                              :XPT Pretest Number {I11}
ETIM_XPT.S                                             :Elapsed Logging Time {F13.4}
PCO_SAP.PSI                                            :Sapphire Dynamic Compensation {F13.4}
PND_SAP.PSI                                            :Sapphire Pressure Without Dynamic Compensation {F13.4}
CP_SAP.PSI                                             :Sapphire Pressure With Dynamic Compensation {F13.4}
QNDP .PSI                                              :CQG Pressure Without Dynamic Compensation {F13.4}
QCP  .PSI                                              :CQG Pressure With Dynamic Compensation {F13.4}
QPCO .PSI                                              :CQG Dynamic Compensation {F13.4}
#-----------------------------------------------------------------------------
# 
#     TIME      TENS_SL      DEPT_SL      PDEP_XPT     MTEP_SAP     MTEP_HYD     PCO_HYD      PND_HYD       CP_HYD      MTEP_QG       PTNO_XPT       ETIM_XPT     PCO_SAP      PND_SAP       CP_SAP        QNDP         QCP          QPCO
#
~A  
# ...
     850.0    4694.6888 1451040.0000    3684.0325     122.2447     122.8067       0.0284    5998.4250    5998.4534     122.8023         12      35.4819       0.0268    5996.6494    5996.6761    5993.7603    5993.8437       0.0836
     851.0    4702.9487 1451040.0000    3684.0325     122.2459     122.8087       0.0284    5998.3761    5998.4046     122.8029         12      36.4819       0.0240    5996.5546    5996.5784    5993.7405    5993.8245       0.0840
     852.0    4753.7206 1451040.0000    3684.0325     122.2433     122.8061       0.0261    5998.2488    5998.2748     122.8030         12      37.4819       0.0215    5996.4383    5996.4598    5993.6910    5993.7759       0.0849
     853.0    4775.0363 1451040.0000    3684.0325     122.2460     122.8096       0.0224    5998.2927    5998.3149     122.8031         12      38.4819       0.0201    5996.3589    5996.3789    5993.6400    5993.7255       0.0856
     854.0    4784.1194 1451040.0000    3684.0325     122.2454     122.8098       0.0188    5998.3276    5998.3466     122.8036         12      39.4819       0.0204    5996.3795    5996.3998    5993.5210    5993.6069       0.0858
     855.0    4795.9637 1451040.0000    3684.0325     122.2465     122.8105       0.0160    5998.1743    5998.1905     122.8035         12      40.4819       0.0223    5996.3351    5996.3575    5993.5116    5993.5970       0.0854
     856.0    4785.4350 1451040.0000    3684.0325     122.2465     122.8095       0.0141    5998.2671    5998.2811     122.8040         12      41.4819       0.0251    5996.3338    5996.3590    5993.5613    5993.6464       0.0852
     857.0    4746.0150 1451040.0000    3684.0325     122.2470     122.8098       0.0134    5998.3457    5998.3589     122.8044         12      42.4819       0.0273    5996.4000    5996.4271    5993.6777    5993.7630       0.0853
     858.0    4703.9894 1451040.0000    3684.0325     122.2480     122.8105       0.0140    5998.4131    5998.4272     122.8046         12      43.4819       0.0273    5996.4408    5996.4682    5993.7153    5993.8003       0.0851
     859.0    4679.8806 1451040.0000    3684.0325     122.2473     122.8105       0.0155    5998.4295    5998.4452     122.8048         12      44.4819       0.0258    5996.6496    5996.6753    5993.8497    5993.9347       0.0848
     860.0    4667.0725 1451040.0000    3684.0325     122.2477     122.8114       0.0167    5998.5536    5998.5702     122.8051         12      45.4819       0.0238    5996.6191    5996.6427    5993.8499    5993.9344       0.0846
     861.0    4651.9894 1451040.0000    3684.0325     122.2514     122.8113       0.0170    5998.4571    5998.4742     122.8057         12      46.4819       0.0226    5996.6278    5996.6503    5993.7789    5993.8639       0.0849
     862.0    4704.4987 1451040.0000    3684.0325     122.2461     122.8118       0.0179    5998.4264    5998.4441     122.8057         12      47.4819       0.0217    5996.4461    5996.4676    5993.7454    5993.8309       0.0855
     863.0    4776.0000 1451040.0000    3684.0325     122.2504     122.8116       0.0202    5998.4004    5998.4205     122.8060         12      48.4819       0.0216    5996.4293    5996.4508    5993.6757    5993.7615       0.0857
     864.0    4777.4456 1451040.0000    3684.0325     122.2495     122.8120       0.0232    5998.2490    5998.2724     122.8061         12      49.4819       0.0231    5996.3959    5996.4188    5993.6622    5993.7482       0.0857
     865.0    4789.1194 1451040.0000    3684.0325     122.2493     122.8123       0.0256    5998.0948    5998.1203     122.8064         12      50.4819       0.0244    5996.1980    5996.2224    5993.4509    5993.5368       0.0859
     866.0    4807.2281 1451040.0000    3684.0325     122.2505     122.8132       0.0275    5998.1793    5998.2070     122.8069         12      51.4819       0.0246    5996.3250    5996.3494    5993.5264    5993.6128       0.0864
     867.0    4769.2219 1451040.0000    3684.0325     122.2517     122.8143       0.0290    5998.2134    5998.2427     122.8069         12      52.4819       0.0241    5996.4451    5996.4691    5993.6167    5993.7036       0.0868
     868.0    4710.8444 1451040.0000    3684.0325     122.2530     122.8144       0.0292    5998.3125    5998.3417     122.8076         12      53.4819       0.0235    5996.5477    5996.5711    5993.7097    5993.7967       0.0871
     869.0    4684.1344 1451040.0000    3684.0325     122.2531     122.8140       0.0275    5998.4029    5998.4305     122.8079         12      54.4819       0.0223    5996.6236    5996.6458    5993.7951    5993.8825       0.0874
     870.0    4657.8081 1451040.0000    3684.0325     122.2514     122.8158       0.0254    5998.5771    5998.6025     122.8079         12      55.4819       0.0203    5996.6862    5996.7063    5993.9317    5994.0192       0.0875
     871.0    4654.3006 1451040.0000    3684.0325     122.2543     122.8158       0.0250    5998.5884    5998.6133     122.8082         12      56.4819       0.0199    5996.6898    5996.7098    5993.9029    5993.9903       0.0875
     872.0    4671.0831 1451040.0000    3684.0325     122.2537     122.8160       0.0250    5998.4820    5998.5069     122.8086         12      57.4819       0.0217    5996.6636    5996.6854    5993.8802    5993.9676       0.0874
     873.0    4709.0212 1451040.0000    3684.0325     122.2523     122.8166       0.0228    5998.5330    5998.5560     122.8087         12      58.4819       0.0233    5996.6026    5996.6260    5993.7790    5993.8669       0.0879
     874.0    4757.7206 1451040.0000    3684.0325     122.2538     122.8160       0.0187    5998.3517    5998.3703     122.8090         12      59.4819       0.0235    5996.3984    5996.4218    5993.6244    5993.7129       0.0886
     875.0    4787.7100 1451040.0000    3684.0325     122.2545     122.8179       0.0163    5998.2758    5998.2921     122.8096         12      60.4819       0.0230    5996.3868    5996.4097    5993.5482    5993.6371       0.0890
     876.0    4787.8081 1451040.0000    3684.0325     122.2561     122.8181       0.0161    5998.1343    5998.1504     122.8097         12      61.4819       0.0233    5996.4814    5996.5048    5993.6126    5993.7020       0.0891
     877.0    4760.2069 1451040.0000    3684.0325     122.2549     122.8185       0.0162    5998.3017    5998.3178     122.8102         12      62.4819       0.0238    5996.3603    5996.3842    5993.6079    5993.6968       0.0890
     878.0    4695.1856 1451040.0000    3684.0325     122.2551     122.8172       0.0159    5998.2683    5998.2845     122.8103         12      63.4819       0.0242    5996.5116    5996.5358    5993.6683    5993.7572       0.0888
     879.0    4658.0831 1451040.0000    3684.0325     122.2573     122.8188       0.0166    5998.3772    5998.3938     122.8106         12      64.4819       0.0241    5996.5336    5996.5575    5993.7771    5993.8660       0.0886
     880.0    4675.7825 1451040.0000    3684.0325     122.2570     122.8189       0.0190    5998.4492    5998.4680     122.8109         12      65.4819       0.0245    5996.6354    5996.6598    5993.8131    5993.9014       0.0883
     881.0    4681.5181 1451040.0000    3684.0325     122.2579     122.8195       0.0215    5998.5313    5998.5526     122.8113         12      66.4819       0.0252    5996.7282    5996.7536    5993.9319    5994.0203       0.0883
     882.0    4669.9169 1451040.0000    3684.0325     122.2598     122.8189       0.0230    5998.5605    5998.5835     122.8116         12      67.4819       0.0242    5996.7287    5996.7527    5993.8423    5993.9306       0.0884
     883.0    4663.3006 1451040.0000    3684.0325     122.2571     122.8198       0.0242    5998.4676    5998.4917     122.8118         12      68.4819       0.0206    5996.6279    5996.6486    5993.7884    5993.8768       0.0885
     884.0    4708.5138 1451040.0000    3684.0325     122.2590     122.8201       0.0258    5998.3946    5998.4203     122.8122         12      69.4819       0.0176    5996.5116    5996.5294    5993.7464    5993.8353       0.0889
