~VERSION INFORMATION
VERS.           2.0   :CWLS Log ASCII Standard - VERSION 2.0
WRAP.           NO    :One Line per depth step
PROD.  Schlumberger   :LAS Producer
PROG.  DLIS to ASCII 2.2                               :LAS Program name and version
CREA.        2020/10/30 12:18                          :LAS Creation date {YYYY/MM/DD hh:mm}
SOURCE.     XPT_HRLA_TLD_MCFL_061LTP.DLIS              :DLIS File Name
FILE-ID.     XPT_HRLA_TLD_MCFL_061LTP                  :File Identification Number
#--------------------------------------------------
~WELL INFORMATION
#MNEM.UNIT      DATA             DESCRIPTION
#---- ------ --------------   -----------------------------
STRT .S         9381.0       :START TIME      
STOP .S         9562.0       :STOP TIME      
STEP .S            1.0       :STEP     
NULL .          -999.25      :NULL VALUE
COMP .        Nexus Energy                             :COMPANY
WELL .        Crux-3                                   :WELL
FLD  .        Crux                                     :FIELD
LOC  .        Easting: 656981.7mE                      :LOCATION
CNTY .        Sedco-703                                :COUNTY
STAT .        Northern Territory                       :STATE
CTRY .        Australia                                :COUNTRY
API  .                                                 :API NUMBER
UWI  .                                                 :UNIQUE WELL ID
DATE .        31-Dec-2007                              :LOG DATE {DD-MMM-YYYY}
SRVC .        Schlumberger                             :SERVICE COMPANY
LATI .DEG     12*57'32.63" S                           :LATITUDE
LONG .DEG     124*26'50.07" E                          :LONGITUDE
GDAT .                                                 :GeoDetic Datum
#-----------------------------------------------------------------------------
~PARAMETER INFORMATION
#MNEM.UNIT    VALUE                      DESCRIPTION
#---- -----   --------------------       ------------------------
RUN  .          1                        :RUN NUMBER
PDAT .        LAT                        :Permanent Datum
EPD  .M           0.000000               :Elevation of Permanent Datum above Mean Sea Level
EPD  .M           0.000000               :Elevation of tool zero above Mean Sea Level
LMF  .          DF                       :Logging Measured From (Name of Logging Elevation Reference)
APD  .M          26.400000               :Elevation of Depth Reference (LMF) above Permanent Datum
#-----------------------------------------------------------------------------
~CURVE INFORMATION
#MNEM.UNIT   API CODE                                  DESCRIPTION
#---- -----  --------                                  -----------------------
TIME .S                                                :TIME {F10.1}
TENS_SL.LBF                                            :Cable Tension {F13.4}
DEPT_SL..1IN                                           :Station logging depth {F13.4}
PDEP_XPT.M                                             :XPT Probe Depth {F13.4}
MTEP_SAP.DEGC                                          :Sapphire Gauge Manometer Temperature {F13.4}
MTEP_HYD.DEGC                                          :Hydrostatic Sapphire Gauge Manometer Temperature {F13.4}
PCO_HYD.PSI                                            :Hydrostatic Sapphire Dynamic Compensation {F13.4}
PND_HYD.PSI                                            :Hydrostatic Sapphire Pressure Without Dynamic Compensation {F13.4}
CP_HYD.PSI                                             :Hydrostatic Sapphire Pressure With Dynamic Compensation {F13.4}
MTEP_QG.DEGC                                           :CQG Manometer Temperature {F13.4}
PTNO_XPT.                                              :XPT Pretest Number {I11}
ETIM_XPT.S                                             :Elapsed Logging Time {F13.4}
PCO_SAP.PSI                                            :Sapphire Dynamic Compensation {F13.4}
PND_SAP.PSI                                            :Sapphire Pressure Without Dynamic Compensation {F13.4}
CP_SAP.PSI                                             :Sapphire Pressure With Dynamic Compensation {F13.4}
QNDP .PSI                                              :CQG Pressure Without Dynamic Compensation {F13.4}
QCP  .PSI                                              :CQG Pressure With Dynamic Compensation {F13.4}
QPCO .PSI                                              :CQG Dynamic Compensation {F13.4}
#-----------------------------------------------------------------------------
# 
#     TIME      TENS_SL      DEPT_SL      PDEP_XPT     MTEP_SAP     MTEP_HYD     PCO_HYD      PND_HYD       CP_HYD      MTEP_QG       PTNO_XPT       ETIM_XPT     PCO_SAP      PND_SAP       CP_SAP        QNDP         QCP          QPCO
#
~A  
# ...
    9486.0    5030.7640 1547081.0000    3927.9766     129.3294     129.8940       0.0580    6385.8428    6385.9009     129.8329         25     104.6220       0.0238    6383.0874    6383.1112    6380.2194    6380.5335       0.3143
    9487.0    5072.7180 1547081.0000    3927.9766     129.3313     129.8944       0.0575    6385.7500    6385.8076     129.8337         25     105.6220       0.0254    6383.0590    6383.0844    6380.1781    6380.4731       0.2948
    9488.0    5072.8180 1547081.0000    3927.9766     129.3326     129.8950       0.0571    6385.6620    6385.7191     129.8345         25     106.6220       0.0267    6382.9402    6382.9668    6380.1046    6380.3826       0.2781
    9489.0    5091.1960 1547081.0000    3927.9766     129.3329     129.8978       0.0570    6385.6111    6385.6682     129.8356         25     107.6220       0.0277    6382.7300    6382.7577    6379.9162    6380.1804       0.2642
    9490.0    5102.9760 1547081.0000    3927.9766     129.3315     129.8989       0.0569    6385.6034    6385.6605     129.8365         25     108.6220       0.0282    6382.9442    6382.9725    6380.1259    6380.3781       0.2522
    9491.0    5059.9720 1547081.0000    3927.9766     129.3337     129.8978       0.0555    6385.6605    6385.7160     129.8372         25     109.6220       0.0295    6382.9411    6382.9706    6380.1778    6380.4192       0.2416
    9492.0    4974.7760 1547081.0000    3927.9766     129.3337     129.9008       0.0547    6385.7071    6385.7618     129.8378         25     110.6220       0.0333    6383.0968    6383.1301    6380.2705    6380.5030       0.2325
    9493.0    4950.5740 1547081.0000    3927.9766     129.3324     129.9008       0.0564    6385.8008    6385.8571     129.8385         25     111.6220       0.0393    6382.9942    6383.0334    6380.4008    6380.6253       0.2247
    9494.0    4947.0480 1547081.0000    3927.9766     129.3350     129.9024       0.0594    6385.9659    6386.0252     129.8392         25     112.6220       0.0455    6383.3343    6383.3798    6380.5610    6380.7783       0.2173
    9495.0    4965.8800 1547081.0000    3927.9766     129.3353     129.9031       0.0604    6386.1048    6386.1654     129.8398         25     113.6220       0.0495    6383.3113    6383.3608    6380.5908    6380.8002       0.2094
    9496.0    4963.5840 1547081.0000    3927.9766     129.3369     129.9031       0.0579    6385.8213    6385.8793     129.8404         25     114.6220       0.0491    6383.2153    6383.2645    6380.5100    6380.7115       0.2016
    9497.0    5037.5920 1547081.0000    3927.9766     129.3384     129.9061       0.0545    6385.8545    6385.9088     129.8412         25     115.6220       0.0445    6383.0835    6383.1282    6380.3732    6380.5682       0.1949
    9498.0    5072.2060 1547081.0000    3927.9766     129.3392     129.9069       0.0516    6385.7578    6385.8093     129.8416         25     116.6220       0.0382    6383.0275    6383.0657    6380.2869    6380.4762       0.1895
    9499.0    5083.7700 1547081.0000    3927.9766     129.3409     129.9076       0.0496    6385.7992    6385.8489     129.8421         26     117.6220       0.0331    6380.8183    6380.8514    6378.1979    6378.3823       0.1844
    9500.0    5087.6700 1547081.0000    3927.9766     129.3407     129.9069       0.0491    6385.6206    6385.6696     129.8427         26     118.6220       0.0307    6380.8991    6380.9296    6378.1536    6378.3332       0.1797
    9501.0    5080.7560 1547081.0000    3927.9766     129.3403     129.9090       0.0513    6385.5066    6385.5581     129.8433         26     119.6220       0.0322    6379.9656    6379.9976    6377.3324    6377.5084       0.1761
    9502.0    5034.5940 1547081.0000    3927.9766     129.3413     129.9093       0.0561    6385.6508    6385.7071     129.8440         26     120.6220       0.0384    6380.6394    6380.6777    6377.9073    6378.0821       0.1748
    9503.0    4975.9000 1547081.0000    3927.9766     129.3411     129.9103       0.0605    6385.6213    6385.6817     129.8445         26     121.6220       0.0484    6376.9740    6377.0223    6374.3327    6374.5082       0.1756
    9504.0    4950.7800 1547081.0000    3927.9766     129.3421     129.9123       0.0625    6385.8301    6385.8926     129.8451         26     122.6220       0.0596    6378.0218    6378.0814    6375.3397    6375.5184       0.1786
    9505.0    4946.3780 1547081.0000    3927.9766     129.3458     129.9137       0.0607    6385.9345    6385.9954     129.8456         26     123.6220       0.0674    6378.3373    6378.4044    6375.6958    6375.8786       0.1828
    9506.0    4941.0240 1547081.0000    3927.9766     129.3449     129.9145       0.0570    6385.8242    6385.8812     129.8461         26     124.6220       0.0730    6378.3911    6378.4639    6375.6578    6375.8454       0.1876
    9507.0    4938.0000 1547081.0000    3927.9766     129.3478     129.9159       0.0545    6385.7781    6385.8328     129.8466         26     125.6220       0.0752    6378.0346    6378.1098    6375.2747    6375.4671       0.1924
    9508.0    4984.0280 1547081.0000    3927.9766     129.3488     129.9174       0.0558    6385.7307    6385.7865     129.8472         26     126.6220       0.0733    6381.7358    6381.8088    6378.9262    6379.1216       0.1953
    9509.0    5059.8940 1547081.0000    3927.9766     129.3497     129.9179       0.0587    6385.7153    6385.7741     129.8480         26     127.6220       0.0681    6382.9629    6383.0310    6380.2498    6380.4465       0.1968
    9510.0    5085.8900 1547081.0000    3927.9766     129.3509     129.9164       0.0603    6385.6488    6385.7092     129.8484         26     128.6220       0.0619    6383.0369    6383.0988    6380.2742    6380.4706       0.1965
    9511.0    5092.0860 1547081.0000    3927.9766     129.3516     129.9185       0.0605    6385.5697    6385.6303     129.8492         26     129.6220       0.0559    6383.0252    6383.0813    6380.2410    6380.4367       0.1956
    9512.0    5073.3640 1547081.0000    3927.9766     129.3530     129.9217       0.0610    6385.6111    6385.6721     129.8498         26     130.6220       0.0512    6382.9814    6383.0326    6380.1806    6380.3759       0.1952
    9513.0    5075.7940 1547081.0000    3927.9766     129.3535     129.9221       0.0615    6385.6274    6385.6889     129.8505         26     131.6220       0.0479    6382.9962    6383.0442    6380.2407    6380.4365       0.1958
    9514.0    5086.0000 1547081.0000    3927.9766     129.3549     129.9228       0.0604    6385.6727    6385.7332     129.8509         26     132.6220       0.0472    6383.0367    6383.0840    6380.2277    6380.4240       0.1965
    9515.0    5043.7040 1547081.0000    3927.9766     129.3543     129.9241       0.0588    6385.6619    6385.7208     129.8517         26     133.6220       0.0488    6383.0146    6383.0634    6380.3056    6380.5024       0.1968
    9516.0    4973.8380 1547081.0000    3927.9766     129.3563     129.9245       0.0591    6385.7064    6385.7654     129.8524         26     134.6220       0.0509    6382.9940    6383.0451    6380.3182    6380.5159       0.1975
    9517.0    4953.8420 1547081.0000    3927.9766     129.3558     129.9259       0.0615    6385.7110    6385.7726     129.8529         26     135.6220       0.0520    6383.0483    6383.1001    6380.3386    6380.5368       0.1982
    9518.0    4936.8520 1547081.0000    3927.9766     129.3581     129.9272       0.0634    6385.7675    6385.8309     129.8535         26     136.6220       0.0520    6383.1726    6383.2245    6380.4040    6380.6022       0.1983
    9519.0    4925.2440 1547081.0000    3927.9766     129.3579     129.9290       0.0624    6385.8604    6385.9226     129.8538         26     137.6220       0.0523    6383.2274    6383.2797    6380.4761    6380.6734       0.1974
    9520.0    4944.6600 1547081.0000    3927.9766     129.3594     129.9294       0.0592    6385.8051    6385.8641     129.8546         26     138.6220       0.0533    6383.0449    6383.0982    6380.3899    6380.5866       0.1967
