~VERSION INFORMATION
VERS.           2.0   :CWLS Log ASCII Standard - VERSION 2.0
WRAP.           NO    :One Line per depth step
PROD.  Schlumberger   :LAS Producer
PROG.  DLIS to ASCII 2.2                               :LAS Program name and version
CREA.        2020/10/30 12:18                          :LAS Creation date {YYYY/MM/DD hh:mm}
SOURCE.     XPT_HRLA_TLD_MCFL_045LTP.DLIS              :DLIS File Name
FILE-ID.     XPT_HRLA_TLD_MCFL_045LTP                  :File Identification Number
#--------------------------------------------------
~WELL INFORMATION
#MNEM.UNIT      DATA             DESCRIPTION
#---- ------ --------------   -----------------------------
STRT .S         3688.0       :START TIME      
STOP .S         4251.0       :STOP TIME      
STEP .S            1.0       :STEP     
NULL .          -999.25      :NULL VALUE
COMP .        Nexus Energy                             :COMPANY
WELL .        Crux-3                                   :WELL
FLD  .        Crux                                     :FIELD
LOC  .        Easting: 656981.7mE                      :LOCATION
CNTY .        Sedco-703                                :COUNTY
STAT .        Northern Territory                       :STATE
CTRY .        Australia                                :COUNTRY
API  .                                                 :API NUMBER
UWI  .                                                 :UNIQUE WELL ID
DATE .        31-Dec-2007                              :LOG DATE {DD-MMM-YYYY}
SRVC .        Schlumberger                             :SERVICE COMPANY
LATI .DEG     12*57'32.63" S                           :LATITUDE
LONG .DEG     124*26'50.07" E                          :LONGITUDE
GDAT .                                                 :GeoDetic Datum
#-----------------------------------------------------------------------------
~PARAMETER INFORMATION
#MNEM.UNIT    VALUE                      DESCRIPTION
#---- -----   --------------------       ------------------------
RUN  .          1                        :RUN NUMBER
PDAT .        LAT                        :Permanent Datum
EPD  .M           0.000000               :Elevation of Permanent Datum above Mean Sea Level
EPD  .M           0.000000               :Elevation of tool zero above Mean Sea Level
LMF  .          DF                       :Logging Measured From (Name of Logging Elevation Reference)
APD  .M          26.400000               :Elevation of Depth Reference (LMF) above Permanent Datum
#-----------------------------------------------------------------------------
~CURVE INFORMATION
#MNEM.UNIT   API CODE                                  DESCRIPTION
#---- -----  --------                                  -----------------------
TIME .S                                                :TIME {F10.1}
TENS_SL.LBF                                            :Cable Tension {F13.4}
DEPT_SL..1IN                                           :Station logging depth {F13.4}
PDEP_XPT.M                                             :XPT Probe Depth {F13.4}
MTEP_SAP.DEGC                                          :Sapphire Gauge Manometer Temperature {F13.4}
MTEP_HYD.DEGC                                          :Hydrostatic Sapphire Gauge Manometer Temperature {F13.4}
PCO_HYD.PSI                                            :Hydrostatic Sapphire Dynamic Compensation {F13.4}
PND_HYD.PSI                                            :Hydrostatic Sapphire Pressure Without Dynamic Compensation {F13.4}
CP_HYD.PSI                                             :Hydrostatic Sapphire Pressure With Dynamic Compensation {F13.4}
MTEP_QG.DEGC                                           :CQG Manometer Temperature {F13.4}
PTNO_XPT.                                              :XPT Pretest Number {I11}
ETIM_XPT.S                                             :Elapsed Logging Time {F13.4}
PCO_SAP.PSI                                            :Sapphire Dynamic Compensation {F13.4}
PND_SAP.PSI                                            :Sapphire Pressure Without Dynamic Compensation {F13.4}
CP_SAP.PSI                                             :Sapphire Pressure With Dynamic Compensation {F13.4}
QNDP .PSI                                              :CQG Pressure Without Dynamic Compensation {F13.4}
QCP  .PSI                                              :CQG Pressure With Dynamic Compensation {F13.4}
QPCO .PSI                                              :CQG Dynamic Compensation {F13.4}
#-----------------------------------------------------------------------------
# 
#     TIME      TENS_SL      DEPT_SL      PDEP_XPT     MTEP_SAP     MTEP_HYD     PCO_HYD      PND_HYD       CP_HYD      MTEP_QG       PTNO_XPT       ETIM_XPT     PCO_SAP      PND_SAP       CP_SAP        QNDP         QCP          QPCO
#
~A  
# ...
    4003.0    4947.3050 1440603.0000    3657.5227     121.8519     122.3869      -0.0084    5955.4957    5955.4872     122.4734          8     315.0725      -0.0113    5524.1545    5524.1433    5521.6699    5521.6542      -0.0154
    4004.0    4965.1600 1440603.0000    3657.5227     121.8530     122.3861      -0.0075    5955.4276    5955.4203     122.4735          8     316.0725      -0.0110    5524.3167    5524.3057    5521.6786    5521.6627      -0.0159
    4005.0    4979.3475 1440603.0000    3657.5227     121.8514     122.3858      -0.0082    5955.3820    5955.3737     122.4732          8     317.0725      -0.0117    5524.2769    5524.2652    5521.6944    5521.6778      -0.0167
    4006.0    4969.3325 1440603.0000    3657.5227     121.8527     122.3871      -0.0085    5955.4381    5955.4298     122.4732          8     318.0725      -0.0113    5524.2364    5524.2252    5521.7018    5521.6852      -0.0168
    4007.0    4942.5625 1440603.0000    3657.5227     121.8512     122.3863      -0.0082    5955.4803    5955.4720     122.4732          8     319.0725      -0.0105    5524.2450    5524.2346    5521.7186    5521.7023      -0.0164
    4008.0    4871.7675 1440603.0000    3657.5227     121.8512     122.3865      -0.0078    5955.4314    5955.4236     122.4728          8     320.0725      -0.0109    5524.2833    5524.2726    5521.7314    5521.7152      -0.0161
    4009.0    4856.5800 1440603.0000    3657.5227     121.8514     122.3856      -0.0080    5955.4368    5955.4290     122.4732          8     321.0725      -0.0125    5524.2623    5524.2499    5521.7450    5521.7288      -0.0163
    4010.0    4863.3475 1440603.0000    3657.5227     121.8510     122.3852      -0.0077    5955.4770    5955.4692     122.4732          8     322.0725      -0.0138    5524.2910    5524.2771    5521.7621    5521.7455      -0.0166
    4011.0    4853.5500 1440603.0000    3657.5227     121.8517     122.3850      -0.0065    5955.5952    5955.5888     122.4728          8     323.0725      -0.0141    5524.4502    5524.4361    5521.7770    5521.7604      -0.0166
    4012.0    4842.1775 1440603.0000    3657.5227     121.8510     122.3857      -0.0052    5955.5656    5955.5603     122.4731          8     324.0725      -0.0137    5524.3640    5524.3504    5521.7877    5521.7711      -0.0166
    4013.0    4935.8850 1440603.0000    3657.5227     121.8508     122.3856      -0.0052    5955.4220    5955.4169     122.4728          8     325.0725      -0.0128    5524.4426    5524.4299    5521.7983    5521.7813      -0.0172
    4014.0    4960.9425 1440603.0000    3657.5227     121.8492     122.3854      -0.0072    5955.3607    5955.3535     122.4728          8     326.0725      -0.0114    5524.4580    5524.4466    5521.7997    5521.7821      -0.0177
    4015.0    4972.4200 1440603.0000    3657.5227     121.8491     122.3855      -0.0104    5955.4214    5955.4109     122.4728          8     327.0725      -0.0101    5524.3325    5524.3224    5521.8057    5521.7881      -0.0178
    4016.0    4966.4500 1440603.0000    3657.5227     121.8499     122.3848      -0.0129    5955.3712    5955.3582     122.4727          8     328.0725      -0.0091    5524.4422    5524.4330    5521.8108    5521.7932      -0.0174
    4017.0    4983.2600 1440603.0000    3657.5227     121.8502     122.3856      -0.0132    5955.3621    5955.3489     122.4727          8     329.0725      -0.0095    5524.3888    5524.3791    5521.8173    5521.8003      -0.0171
    4018.0    4953.7500 1440603.0000    3657.5227     121.8499     122.3850      -0.0122    5955.4160    5955.4038     122.4726          8     330.0725      -0.0120    5524.4057    5524.3937    5521.8337    5521.8166      -0.0173
    4019.0    4860.4925 1440603.0000    3657.5227     121.8499     122.3824      -0.0119    5955.3461    5955.3344     122.4724          8     331.0725      -0.0157    5524.4340    5524.4183    5521.8494    5521.8316      -0.0179
    4020.0    4853.4200 1440603.0000    3657.5227     121.8496     122.3836      -0.0127    5955.5693    5955.5567     122.4727          8     332.0725      -0.0186    5524.4269    5524.4084    5521.8622    5521.8436      -0.0187
    4021.0    4845.5650 1440603.0000    3657.5227     121.8492     122.3835      -0.0132    5955.6392    5955.6260     122.4725          8     333.0725      -0.0186    5524.4214    5524.4030    5521.8784    5521.8589      -0.0194
    4022.0    4841.9575 1440603.0000    3657.5227     121.8481     122.3838      -0.0129    5955.6500    5955.6370     122.4722          8     334.0725      -0.0163    5524.4347    5524.4181    5521.8848    5521.8648      -0.0200
    4023.0    4868.6675 1440603.0000    3657.5227     121.8466     122.3835      -0.0117    5955.5820    5955.5702     122.4722          8     335.0725      -0.0141    5524.3996    5524.3854    5521.8966    5521.8761      -0.0204
    4024.0    4894.6400 1440603.0000    3657.5227     121.8477     122.3822      -0.0109    5955.5515    5955.5407     122.4722          8     336.0725      -0.0139    5524.4530    5524.4392    5521.9075    5521.8870      -0.0205
    4025.0    4953.1300 1440603.0000    3657.5227     121.8471     122.3824      -0.0105    5955.4654    5955.4547     122.4721          8     337.0725      -0.0155    5524.4253    5524.4099    5521.9206    5521.9005      -0.0201
    4026.0    4940.4050 1440603.0000    3657.5227     121.8472     122.3820      -0.0101    5955.4980    5955.4878     122.4722          8     338.0725      -0.0167    5524.4941    5524.4775    5521.9335    5521.9140      -0.0194
    4027.0    4920.7250 1440603.0000    3657.5227     121.8481     122.3834      -0.0092    5955.3922    5955.3831     122.4721          8     339.0725      -0.0168    5524.5614    5524.5445    5521.9425    5521.9235      -0.0192
    4028.0    4929.9275 1440603.0000    3657.5227     121.8469     122.3819      -0.0083    5955.2817    5955.2734     122.4718          8     340.0725      -0.0167    5524.4746    5524.4580    5521.9552    5521.9357      -0.0195
    4029.0    4930.3050 1440603.0000    3657.5227     121.8457     122.3828      -0.0084    5955.3329    5955.3246     122.4718          8     341.0725      -0.0163    5524.5509    5524.5348    5521.9699    5521.9498      -0.0200
    4030.0    4946.3475 1440603.0000    3657.5227     121.8448     122.3818      -0.0085    5955.4424    5955.4341     122.4718          8     342.0725      -0.0144    5524.5026    5524.4882    5521.9779    5521.9578      -0.0199
    4031.0    4935.0275 1440603.0000    3657.5227     121.8452     122.3825      -0.0075    5955.5575    5955.5499     122.4718          8     343.0725      -0.0106    5524.6249    5524.6143    5521.9870    5521.9674      -0.0195
    4032.0    4895.7675 1440603.0000    3657.5227     121.8465     122.3820      -0.0054    5955.5640    5955.5585     122.4718          8     344.0725      -0.0068    5524.5746    5524.5677    5521.9969    5521.9774      -0.0196
    4033.0    4878.2600 1440603.0000    3657.5227     121.8453     122.3814      -0.0036    5955.4836    5955.4798     122.4714          8     345.0725      -0.0049    5524.5886    5524.5838    5522.0065    5521.9865      -0.0202
    4034.0    4855.4200 1440603.0000    3657.5227     121.8448     122.3811      -0.0034    5955.5402    5955.5368     122.4716          8     346.0725      -0.0039    5524.5583    5524.5544    5522.0166    5521.9961      -0.0205
    4035.0    4846.4775 1440603.0000    3657.5227     121.8458     122.3824      -0.0047    5955.6007    5955.5959     122.4716          8     347.0725      -0.0033    5524.5901    5524.5867    5522.0217    5522.0016      -0.0202
    4036.0    4827.2900 1440603.0000    3657.5227     121.8448     122.3805      -0.0072    5955.5934    5955.5863     122.4715          8     348.0725      -0.0041    5524.7037    5524.6996    5522.0339    5522.0139      -0.0199
    4037.0    4835.3500 1440603.0000    3657.5227     121.8455     122.3820      -0.0098    5955.6463    5955.6364     122.4713          8     349.0725      -0.0079    5524.5900    5524.5821    5522.0429    5522.0229      -0.0200
