~VERSION INFORMATION
VERS.           2.0   :CWLS Log ASCII Standard - VERSION 2.0
WRAP.           NO    :One Line per depth step
PROD.  Schlumberger   :LAS Producer
PROG.  DLIS to ASCII 2.2                               :LAS Program name and version
CREA.        2020/10/30 12:18                          :LAS Creation date {YYYY/MM/DD hh:mm}
SOURCE.     XPT_HRLA_TLD_MCFL_068LTP.DLIS              :DLIS File Name
FILE-ID.     XPT_HRLA_TLD_MCFL_068LTP                  :File Identification Number
#--------------------------------------------------
~WELL INFORMATION
#MNEM.UNIT      DATA             DESCRIPTION
#---- ------ --------------   -----------------------------
STRT .S           82.0       :START TIME      
STOP .S          488.0       :STOP TIME      
STEP .S            1.0       :STEP     
NULL .          -999.25      :NULL VALUE
COMP .        Nexus Energy                             :COMPANY
WELL .        Crux-3                                   :WELL
FLD  .        Crux                                     :FIELD
LOC  .        Easting: 656981.7mE                      :LOCATION
CNTY .        Sedco-703                                :COUNTY
STAT .        Northern Territory                       :STATE
CTRY .        Australia                                :COUNTRY
API  .                                                 :API NUMBER
UWI  .                                                 :UNIQUE WELL ID
DATE .        31-Dec-2007                              :LOG DATE {DD-MMM-YYYY}
SRVC .        Schlumberger                             :SERVICE COMPANY
LATI .DEG     12*57'32.63" S                           :LATITUDE
LONG .DEG     124*26'50.07" E                          :LONGITUDE
GDAT .                                                 :GeoDetic Datum
#-----------------------------------------------------------------------------
~PARAMETER INFORMATION
#MNEM.UNIT    VALUE                      DESCRIPTION
#---- -----   --------------------       ------------------------
RUN  .          1                        :RUN NUMBER
PDAT .        LAT                        :Permanent Datum
EPD  .M           0.000000               :Elevation of Permanent Datum above Mean Sea Level
EPD  .M           0.000000               :Elevation of tool zero above Mean Sea Level
LMF  .          DF                       :Logging Measured From (Name of Logging Elevation Reference)
APD  .M          26.400000               :Elevation of Depth Reference (LMF) above Permanent Datum
#-----------------------------------------------------------------------------
~CURVE INFORMATION
#MNEM.UNIT   API CODE                                  DESCRIPTION
#---- -----  --------                                  -----------------------
TIME .S                                                :TIME {F10.1}
TENS_SL.LBF                                            :Cable Tension {F13.4}
DEPT_SL..1IN                                           :Station logging depth {F13.4}
PDEP_XPT.M                                             :XPT Probe Depth {F13.4}
MTEP_SAP.DEGC                                          :Sapphire Gauge Manometer Temperature {F13.4}
MTEP_HYD.DEGC                                          :Hydrostatic Sapphire Gauge Manometer Temperature {F13.4}
PCO_HYD.PSI                                            :Hydrostatic Sapphire Dynamic Compensation {F13.4}
PND_HYD.PSI                                            :Hydrostatic Sapphire Pressure Without Dynamic Compensation {F13.4}
CP_HYD.PSI                                             :Hydrostatic Sapphire Pressure With Dynamic Compensation {F13.4}
MTEP_QG.DEGC                                           :CQG Manometer Temperature {F13.4}
PTNO_XPT.                                              :XPT Pretest Number {I11}
ETIM_XPT.S                                             :Elapsed Logging Time {F13.4}
PCO_SAP.PSI                                            :Sapphire Dynamic Compensation {F13.4}
PND_SAP.PSI                                            :Sapphire Pressure Without Dynamic Compensation {F13.4}
CP_SAP.PSI                                             :Sapphire Pressure With Dynamic Compensation {F13.4}
QNDP .PSI                                              :CQG Pressure Without Dynamic Compensation {F13.4}
QCP  .PSI                                              :CQG Pressure With Dynamic Compensation {F13.4}
QPCO .PSI                                              :CQG Dynamic Compensation {F13.4}
#-----------------------------------------------------------------------------
# 
#     TIME      TENS_SL      DEPT_SL      PDEP_XPT     MTEP_SAP     MTEP_HYD     PCO_HYD      PND_HYD       CP_HYD      MTEP_QG       PTNO_XPT       ETIM_XPT     PCO_SAP      PND_SAP       CP_SAP        QNDP         QCP          QPCO
#
~A  
      82.0    5102.6203 1566781.0000    3978.0146     132.7336     133.3704       0.0000    6464.5178    6464.5178     133.0896         31       0.1413       0.0000    6461.7000    6461.7000    6458.9262    6458.9262       0.0000
      83.0    5072.6093 1566781.0000    3978.0146     132.7334     133.3712       0.0000    6464.5195    6464.5195     133.0904         31       1.1413       0.0000    6461.5882    6461.5882    6458.8761    6458.8761       0.0000
      84.0    5041.2626 1566781.0000    3978.0146     132.7354     133.3730       0.0000    6464.5384    6464.5384     133.0915         31       2.1413       0.0000    6461.7924    6461.7924    6458.9321    6458.9321       0.0000
      85.0    4974.4459 1566781.0000    3978.0146     132.7356     133.3737       0.0000    6464.5140    6464.5140     133.0928         31       3.1413       0.0000    6461.8419    6461.8419    6459.0211    6459.0211       0.0000
      86.0    4962.3157 1566781.0000    3978.0146     132.7366     133.3750       0.0000    6464.5972    6464.5972     133.0940         31       4.1413       0.0000    6461.8558    6461.8558    6458.9864    6458.9864       0.0000
      87.0    4950.0972 1566781.0000    3978.0146     132.7387     133.3765       0.0000    6464.7844    6464.7844     133.0950         31       5.1413       0.0000    6461.9671    6461.9671    6459.1650    6459.1650       0.0000
      88.0    4971.8918 1566781.0000    3978.0146     132.7390     133.3773       0.0583    6464.7538    6464.8122     133.0961         31       6.1413       0.0559    6462.0472    6462.1031    6459.1483    6459.5104       0.3620
      89.0    4968.8235 1566781.0000    3978.0146     132.7389     133.3779       0.0567    6464.7381    6464.7947     133.0973         31       7.1413       0.0567    6461.8777    6461.9343    6459.1161    6459.4793       0.3634
      90.0    5057.5121 1566781.0000    3978.0146     132.7415     133.3803       0.0570    6464.6526    6464.7098     133.0983         31       8.1413       0.0574    6461.8848    6461.9420    6458.9709    6459.3342       0.3633
      91.0    5015.6733 1566781.0000    3978.0146     132.7435     133.3800       0.0580    6464.5214    6464.5795     133.0995         31       9.1413       0.0587    6461.8045    6461.8631    6458.9415    6459.3043       0.3629
      92.0    5041.2495 1566781.0000    3978.0146     132.7436     133.3810       0.0576    6464.3811    6464.4388     133.1006         31      10.1413       0.0596    6461.6180    6461.6775    6458.9197    6459.2825       0.3628
      93.0    5054.3598 1566781.0000    3978.0146     132.7443     133.3818       0.0558    6464.4610    6464.5166     133.1016         31      11.1413       0.0593    6461.6781    6461.7372    6458.8787    6459.2415       0.3627
      94.0    5006.5121 1566781.0000    3978.0146     132.7445     133.3842       0.0547    6464.5101    6464.5647     133.1028         31      12.1413       0.0598    6461.6948    6461.7546    6458.9161    6459.2784       0.3624
      95.0    4969.7594 1566781.0000    3978.0146     132.7459     133.3849       0.0559    6464.5469    6464.6028     133.1039         31      13.1413       0.0610    6461.9136    6461.9745    6459.0669    6459.4288       0.3619
      96.0    5022.8587 1566781.0000    3978.0146     132.7484     133.3855       0.0594    6464.6998    6464.7591     133.1049         31      14.1413       0.0616    6461.9775    6462.0391    6459.0967    6459.4586       0.3620
      97.0    5011.8278 1566781.0000    3978.0146     132.7493     133.3859       0.0640    6464.7236    6464.7878     133.1061         31      15.1413       0.0600    6461.9797    6462.0398    6459.1597    6459.5221       0.3625
      98.0    4957.6292 1566781.0000    3978.0146     132.7502     133.3866       0.0670    6464.7105    6464.7777     133.1073         31      16.1413       0.0593    6462.0104    6462.0694    6459.1545    6459.5168       0.3621
      99.0    5004.4238 1566781.0000    3978.0146     132.7518     133.3882       0.0693    6464.6345    6464.7039     133.1082         31      17.1413       0.0614    6461.8612    6461.9228    6459.0384    6459.3997       0.3613
     100.0    5015.0530 1566781.0000    3978.0146     132.7516     133.3920       0.0698    6464.6071    6464.6770     133.1093         31      18.1413       0.0644    6461.8155    6461.8797    6458.9731    6459.3342       0.3610
     101.0    5065.8367 1566781.0000    3978.0146     132.7516     133.3919       0.0672    6464.5614    6464.6286     133.1104         31      19.1413       0.0644    6461.6970    6461.7615    6458.8976    6459.2594       0.3619
     102.0    5077.7064 1566781.0000    3978.0146     132.7541     133.3948       0.0614    6464.4085    6464.4697     133.1114         31      20.1413       0.0618    6461.6087    6461.6706    6458.7732    6459.1355       0.3624
     103.0    5079.4569 1566781.0000    3978.0146     132.7559     133.3935       0.0545    6464.4706    6464.5251     133.1125         31      21.1413       0.0598    6461.6677    6461.7275    6458.8321    6459.1944       0.3622
     104.0    5050.0132 1566781.0000    3978.0146     132.7578     133.3953       0.0495    6464.5750    6464.6245     133.1137         31      22.1413       0.0583    6461.8810    6461.9392    6459.0024    6459.3647       0.3621
     105.0    4965.4238 1566781.0000    3978.0146     132.7565     133.3956       0.0477    6464.6021    6464.6499     133.1147         31      23.1413       0.0552    6461.9094    6461.9644    6459.1471    6459.5099       0.3628
     106.0    4968.4238 1566781.0000    3978.0146     132.7576     133.3964       0.0481    6464.7319    6464.7800     133.1158         31      24.1413       0.0519    6461.9631    6462.0151    6459.1056    6459.4688       0.3633
     107.0    4973.2605 1566781.0000    3978.0146     132.7596     133.3979       0.0489    6464.9069    6464.9557     133.1172         31      25.1413       0.0515    6462.0153    6462.0670    6459.2871    6459.6499       0.3628
     108.0    4979.5121 1566781.0000    3978.0146     132.7601     133.3980       0.0504    6464.7932    6464.8435     133.1180         31      26.1413       0.0563    6462.0207    6462.0769    6459.1438    6459.5056       0.3617
     109.0    4956.7463 1566781.0000    3978.0146     132.7616     133.3994       0.0521    6464.6898    6464.7421     133.1193         31      27.1413       0.0596    6461.9409    6462.0005    6459.1018    6459.4636       0.3617
     110.0    5091.3267 1566781.0000    3978.0146     132.7626     133.4001       0.0553    6464.5948    6464.6503     133.1202         31      28.1413       0.0621    6461.6779    6461.7400    6458.9065    6459.2682       0.3616
     111.0    5067.8697 1566781.0000    3978.0146     132.7628     133.4016       0.0585    6464.4744    6464.5330     133.1215         31      29.1413       0.0611    6461.5829    6461.6440    6458.7995    6459.1613       0.3618
     112.0    5059.5872 1566781.0000    3978.0146     132.7651     133.4013       0.0592    6464.3318    6464.3909     133.1226         31      30.1413       0.0595    6461.4741    6461.5337    6458.6554    6459.0177       0.3624
     113.0    5051.7064 1566781.0000    3978.0146     132.7672     133.4044       0.0593    6464.4026    6464.4617     133.1238         31      31.1413       0.0571    6461.7652    6461.8225    6458.9024    6459.2657       0.3634
     114.0    5043.0021 1566781.0000    3978.0146     132.7678     133.4050       0.0594    6464.5297    6464.5893     133.1248         31      32.1413       0.0544    6461.8410    6461.8955    6458.9905    6459.3548       0.3641
     115.0    4974.8787 1566781.0000    3978.0146     132.7669     133.4051       0.0586    6464.4944    6464.5530     133.1258         31      33.1413       0.0513    6461.7524    6461.8037    6458.9221    6459.2854       0.3634
     116.0    5031.3929 1566781.0000    3978.0146     132.7677     133.4061       0.0565    6464.6065    6464.6633     133.1271         31      34.1413       0.0500    6461.8952    6461.9451    6459.0753    6459.4377       0.3624
