~VERSION INFORMATION
VERS.           2.0   :CWLS Log ASCII Standard - VERSION 2.0
WRAP.           NO    :One Line per depth step
PROD.  Schlumberger   :LAS Producer
PROG.  DLIS to ASCII 2.2                               :LAS Program name and version
CREA.        2020/10/30 12:18                          :LAS Creation date {YYYY/MM/DD hh:mm}
SOURCE.     XPT_HRLA_TLD_MCFL_045LTP.DLIS              :DLIS File Name
FILE-ID.     XPT_HRLA_TLD_MCFL_045LTP                  :File Identification Number
#--------------------------------------------------
~WELL INFORMATION
#MNEM.UNIT      DATA             DESCRIPTION
#---- ------ --------------   -----------------------------
STRT .S         3688.0       :START TIME      
STOP .S         4251.0       :STOP TIME      
STEP .S            1.0       :STEP     
NULL .          -999.25      :NULL VALUE
COMP .        Nexus Energy                             :COMPANY
WELL .        Crux-3                                   :WELL
FLD  .        Crux                                     :FIELD
LOC  .        Easting: 656981.7mE                      :LOCATION
CNTY .        Sedco-703                                :COUNTY
STAT .        Northern Territory                       :STATE
CTRY .        Australia                                :COUNTRY
API  .                                                 :API NUMBER
UWI  .                                                 :UNIQUE WELL ID
DATE .        31-Dec-2007                              :LOG DATE {DD-MMM-YYYY}
SRVC .        Schlumberger                             :SERVICE COMPANY
LATI .DEG     12*57'32.63" S                           :LATITUDE
LONG .DEG     124*26'50.07" E                          :LONGITUDE
GDAT .                                                 :GeoDetic Datum
#-----------------------------------------------------------------------------
~PARAMETER INFORMATION
#MNEM.UNIT    VALUE                      DESCRIPTION
#---- -----   --------------------       ------------------------
RUN  .          1                        :RUN NUMBER
PDAT .        LAT                        :Permanent Datum
EPD  .M           0.000000               :Elevation of Permanent Datum above Mean Sea Level
EPD  .M           0.000000               :Elevation of tool zero above Mean Sea Level
LMF  .          DF                       :Logging Measured From (Name of Logging Elevation Reference)
APD  .M          26.400000               :Elevation of Depth Reference (LMF) above Permanent Datum
#-----------------------------------------------------------------------------
~CURVE INFORMATION
#MNEM.UNIT   API CODE                                  DESCRIPTION
#---- -----  --------                                  -----------------------
TIME .S                                                :TIME {F10.1}
TENS_SL.LBF                                            :Cable Tension {F13.4}
DEPT_SL..1IN                                           :Station logging depth {F13.4}
PDEP_XPT.M                                             :XPT Probe Depth {F13.4}
MTEP_SAP.DEGC                                          :Sapphire Gauge Manometer Temperature {F13.4}
MTEP_HYD.DEGC                                          :Hydrostatic Sapphire Gauge Manometer Temperature {F13.4}
PCO_HYD.PSI                                            :Hydrostatic Sapphire Dynamic Compensation {F13.4}
PND_HYD.PSI                                            :Hydrostatic Sapphire Pressure Without Dynamic Compensation {F13.4}
CP_HYD.PSI                                             :Hydrostatic Sapphire Pressure With Dynamic Compensation {F13.4}
MTEP_QG.DEGC                                           :CQG Manometer Temperature {F13.4}
PTNO_XPT.                                              :XPT Pretest Number {I11}
ETIM_XPT.S                                             :Elapsed Logging Time {F13.4}
PCO_SAP.PSI                                            :Sapphire Dynamic Compensation {F13.4}
PND_SAP.PSI                                            :Sapphire Pressure Without Dynamic Compensation {F13.4}
CP_SAP.PSI                                             :Sapphire Pressure With Dynamic Compensation {F13.4}
QNDP .PSI                                              :CQG Pressure Without Dynamic Compensation {F13.4}
QCP  .PSI                                              :CQG Pressure With Dynamic Compensation {F13.4}
QPCO .PSI                                              :CQG Dynamic Compensation {F13.4}
#-----------------------------------------------------------------------------
# 
#     TIME      TENS_SL      DEPT_SL      PDEP_XPT     MTEP_SAP     MTEP_HYD     PCO_HYD      PND_HYD       CP_HYD      MTEP_QG       PTNO_XPT       ETIM_XPT     PCO_SAP      PND_SAP       CP_SAP        QNDP         QCP          QPCO
#
~A  
    3688.0    4784.0475 1440603.0000    3657.5227     121.9811     122.4884       0.0000    5955.4331    5955.4331     122.5226          6       0.0725       0.0000    5953.6465    5953.6465    5951.2376    5951.2376       0.0000
    3689.0    4894.1050 1440603.0000    3657.5227     121.9819     122.4892       0.0000    5955.3213    5955.3213     122.5228          6       1.0725       0.0000    5953.6069    5953.6069    5951.1188    5951.1188       0.0000
    3690.0    4989.2050 1440603.0000    3657.5227     121.9800     122.4890       0.0000    5955.2116    5955.2116     122.5228          6       2.0725       0.0000    5953.5387    5953.5387    5951.0246    5951.0246       0.0000
    3691.0    5040.1725 1440603.0000    3657.5227     121.9807     122.4875       0.0000    5955.1696    5955.1696     122.5228          6       3.0725       0.0000    5953.4396    5953.4396    5950.9123    5950.9123       0.0000
    3692.0    5001.3900 1440603.0000    3657.5227     121.9815     122.4863       0.0000    5954.8739    5954.8739     122.5228          6       4.0725       0.0000    5953.2759    5953.2759    5950.6799    5950.6799       0.0000
    3693.0    4958.6475 1440603.0000    3657.5227     121.9794     122.4861       0.0000    5954.7465    5954.7465     122.5229          6       5.0725       0.0000    5953.0941    5953.0941    5950.5880    5950.5880       0.0000
    3694.0    4831.3875 1440603.0000    3657.5227     121.9785     122.4854      -0.0298    5954.7585    5954.7287     122.5230          6       6.0725      -0.0172    5953.1471    5953.1300    5950.7193    5950.7130      -0.0064
    3695.0    4728.8525 1440603.0000    3657.5227     121.9780     122.4849      -0.0238    5954.9062    5954.8823     122.5229          6       7.0725      -0.0177    5953.3965    5953.3789    5950.9091    5950.9028      -0.0066
    3696.0    4661.0425 1440603.0000    3657.5227     121.9791     122.4839      -0.0215    5955.1363    5955.1148     122.5227          6       8.0725      -0.0193    5953.5223    5953.5028    5951.0487    5951.0419      -0.0070
    3697.0    4636.4350 1440603.0000    3657.5227     121.9788     122.4840      -0.0218    5955.2493    5955.2277     122.5226          6       9.0725      -0.0212    5953.7451    5953.7238    5951.1816    5951.1738      -0.0077
    3698.0    4647.9450 1440603.0000    3657.5227     121.9786     122.4839      -0.0233    5955.4669    5955.4437     122.5227          6      10.0725      -0.0235    5953.9328    5953.9093    5951.2998    5951.2915      -0.0084
    3699.0    4730.5975 1440603.0000    3657.5227     121.9765     122.4853      -0.0249    5955.5159    5955.4910     122.5227          6      11.0725      -0.0255    5953.7487    5953.7233    5951.2222    5951.2134      -0.0090
    3700.0    4819.0600 1440603.0000    3657.5227     121.9763     122.4824      -0.0278    5955.3101    5955.2822     122.5227          6      12.0725      -0.0269    5953.6886    5953.6616    5951.1882    5951.1784      -0.0096
    3701.0    4873.7550 1440603.0000    3657.5227     121.9759     122.4815      -0.0308    5955.2323    5955.2015     122.5226          6      13.0725      -0.0279    5953.6180    5953.5902    5951.0955    5951.0858      -0.0099
    3702.0    4910.5225 1440603.0000    3657.5227     121.9765     122.4817      -0.0318    5955.1292    5955.0975     122.5224          6      14.0725      -0.0283    5953.4883    5953.4600    5951.0261    5951.0159      -0.0102
    3703.0    4930.2900 1440603.0000    3657.5227     121.9750     122.4808      -0.0287    5955.1748    5955.1462     122.5225          6      15.0725      -0.0278    5953.5354    5953.5076    5951.0079    5950.9976      -0.0104
    3704.0    4933.7825 1440603.0000    3657.5227     121.9759     122.4808      -0.0243    5955.1748    5955.1505     122.5224          6      16.0725      -0.0279    5953.6058    5953.5780    5951.0139    5951.0036      -0.0105
    3705.0    4931.4350 1440603.0000    3657.5227     121.9743     122.4793      -0.0202    5955.0987    5955.0786     122.5225          6      17.0725      -0.0300    5953.5217    5953.4915    5950.9988    5950.9885      -0.0104
    3706.0    4937.5075 1440603.0000    3657.5227     121.9723     122.4814      -0.0170    5955.1807    5955.1638     122.5225          6      18.0725      -0.0335    5953.5249    5953.4914    5951.0532    5951.0425      -0.0106
    3707.0    4943.9275 1440603.0000    3657.5227     121.9732     122.4799      -0.0152    5955.2243    5955.2092     122.5221          6      19.0725      -0.0354    5953.6130    5953.5775    5951.1134    5951.1021      -0.0110
    3708.0    4939.2300 1440603.0000    3657.5227     121.9725     122.4793      -0.0169    5955.2756    5955.2586     122.5222          6      20.0725      -0.0351    5953.6528    5953.6177    5951.0936    5951.0824      -0.0112
    3709.0    4885.4900 1440603.0000    3657.5227     121.9718     122.4791      -0.0222    5955.1568    5955.1345     122.5224          6      21.0725      -0.0339    5953.4743    5953.4402    5951.0392    5951.0285      -0.0108
    3710.0    4808.8375 1440603.0000    3657.5227     121.9702     122.4793      -0.0272    5955.2359    5955.2087     122.5223          6      22.0725      -0.0326    5953.6792    5953.6466    5951.1501    5951.1399      -0.0104
    3711.0    4725.1425 1440603.0000    3657.5227     121.9711     122.4796      -0.0296    5955.3559    5955.3262     122.5223          6      23.0725      -0.0296    5953.8013    5953.7718    5951.1973    5951.1866      -0.0105
    3712.0    4661.3325 1440603.0000    3657.5227     121.9696     122.4767      -0.0310    5955.2938    5955.2629     122.5223          6      24.0725      -0.0247    5953.7078    5953.6832    5951.2027    5951.1915      -0.0111
    3713.0    4641.2325 1440603.0000    3657.5227     121.9699     122.4760      -0.0330    5955.4227    5955.3897     122.5221          6      25.0725      -0.0205    5953.8718    5953.8514    5951.3352    5951.3234      -0.0118
    3714.0    4665.2650 1440603.0000    3657.5227     121.9701     122.4758      -0.0332    5955.5223    5955.4891     122.5221          6      26.0725      -0.0187    5953.9459    5953.9273    5951.3832    5951.3706      -0.0128
    3715.0    4778.1050 1440603.0000    3657.5227     121.9686     122.4763      -0.0311    5955.4547    5955.4237     122.5221          6      27.0725      -0.0196    5953.7953    5953.7756    5951.3237    5951.3104      -0.0134
    3716.0    4874.9450 1440603.0000    3657.5227     121.9702     122.4759      -0.0276    5955.3870    5955.3593     122.5221          6      28.0725      -0.0217    5953.8106    5953.7888    5951.2355    5951.2210      -0.0144
    3717.0    4954.3350 1440603.0000    3657.5227     121.9681     122.4740      -0.0263    5955.2468    5955.2204     122.5220          6      29.0725      -0.0249    5953.6412    5953.6164    5951.1267    5951.1121      -0.0148
    3718.0    4997.0000 1440603.0000    3657.5227     121.9673     122.4734      -0.0260    5955.2023    5955.1765     122.5219          6      30.0725      -0.0262    5953.4553    5953.4290    5951.0253    5951.0107      -0.0148
    3719.0    4994.7525 1440603.0000    3657.5227     121.9673     122.4743      -0.0238    5955.0979    5955.0740     122.5220          6      31.0725      -0.0263    5953.4005    5953.3741    5950.9098    5950.8957      -0.0142
    3720.0    4958.7500 1440603.0000    3657.5227     121.9677     122.4742      -0.0207    5955.0450    5955.0244     122.5218          6      32.0725      -0.0250    5953.4840    5953.4590    5950.9073    5950.8931      -0.0140
    3721.0    4859.9100 1440603.0000    3657.5227     121.9657     122.4717      -0.0194    5955.0570    5955.0375     122.5220          6      33.0725      -0.0233    5953.5378    5953.5145    5951.0038    5950.9896      -0.0143
    3722.0    4776.5625 1440603.0000    3657.5227     121.9663     122.4731      -0.0196    5955.2005    5955.1810     122.5218          6      34.0725      -0.0220    5953.5189    5953.4970    5951.1191    5951.1044      -0.0145
