~VERSION INFORMATION
VERS.           2.0   :CWLS Log ASCII Standard - VERSION 2.0
WRAP.           NO    :One Line per depth step
PROD.  Schlumberger   :LAS Producer
PROG.  DLIS to ASCII 2.2                               :LAS Program name and version
CREA.        2020/10/30 12:18                          :LAS Creation date {YYYY/MM/DD hh:mm}
SOURCE.     XPT_HRLA_TLD_MCFL_066LTP.DLIS              :DLIS File Name
FILE-ID.     XPT_HRLA_TLD_MCFL_066LTP                  :File Identification Number
#--------------------------------------------------
~WELL INFORMATION
#MNEM.UNIT      DATA             DESCRIPTION
#---- ------ --------------   -----------------------------
STRT .S         3575.0       :START TIME      
STOP .S         3949.0       :STOP TIME      
STEP .S            1.0       :STEP     
NULL .          -999.25      :NULL VALUE
COMP .        Nexus Energy                             :COMPANY
WELL .        Crux-3                                   :WELL
FLD  .        Crux                                     :FIELD
LOC  .        Easting: 656981.7mE                      :LOCATION
CNTY .        Sedco-703                                :COUNTY
STAT .        Northern Territory                       :STATE
CTRY .        Australia                                :COUNTRY
API  .                                                 :API NUMBER
UWI  .                                                 :UNIQUE WELL ID
DATE .        31-Dec-2007                              :LOG DATE {DD-MMM-YYYY}
SRVC .        Schlumberger                             :SERVICE COMPANY
LATI .DEG     12*57'32.63" S                           :LATITUDE
LONG .DEG     124*26'50.07" E                          :LONGITUDE
GDAT .                                                 :GeoDetic Datum
#-----------------------------------------------------------------------------
~PARAMETER INFORMATION
#MNEM.UNIT    VALUE                      DESCRIPTION
#---- -----   --------------------       ------------------------
RUN  .          1                        :RUN NUMBER
PDAT .        LAT                        :Permanent Datum
EPD  .M           0.000000               :Elevation of Permanent Datum above Mean Sea Level
EPD  .M           0.000000               :Elevation of tool zero above Mean Sea Level
LMF  .          DF                       :Logging Measured From (Name of Logging Elevation Reference)
APD  .M          26.400000               :Elevation of Depth Reference (LMF) above Permanent Datum
#-----------------------------------------------------------------------------
~CURVE INFORMATION
#MNEM.UNIT   API CODE                                  DESCRIPTION
#---- -----  --------                                  -----------------------
TIME .S                                                :TIME {F10.1}
TENS_SL.LBF                                            :Cable Tension {F13.4}
DEPT_SL..1IN                                           :Station logging depth {F13.4}
PDEP_XPT.M                                             :XPT Probe Depth {F13.4}
MTEP_SAP.DEGC                                          :Sapphire Gauge Manometer Temperature {F13.4}
MTEP_HYD.DEGC                                          :Hydrostatic Sapphire Gauge Manometer Temperature {F13.4}
PCO_HYD.PSI                                            :Hydrostatic Sapphire Dynamic Compensation {F13.4}
PND_HYD.PSI                                            :Hydrostatic Sapphire Pressure Without Dynamic Compensation {F13.4}
CP_HYD.PSI                                             :Hydrostatic Sapphire Pressure With Dynamic Compensation {F13.4}
MTEP_QG.DEGC                                           :CQG Manometer Temperature {F13.4}
PTNO_XPT.                                              :XPT Pretest Number {I11}
ETIM_XPT.S                                             :Elapsed Logging Time {F13.4}
PCO_SAP.PSI                                            :Sapphire Dynamic Compensation {F13.4}
PND_SAP.PSI                                            :Sapphire Pressure Without Dynamic Compensation {F13.4}
CP_SAP.PSI                                             :Sapphire Pressure With Dynamic Compensation {F13.4}
QNDP .PSI                                              :CQG Pressure Without Dynamic Compensation {F13.4}
QCP  .PSI                                              :CQG Pressure With Dynamic Compensation {F13.4}
QPCO .PSI                                              :CQG Dynamic Compensation {F13.4}
#-----------------------------------------------------------------------------
# 
#     TIME      TENS_SL      DEPT_SL      PDEP_XPT     MTEP_SAP     MTEP_HYD     PCO_HYD      PND_HYD       CP_HYD      MTEP_QG       PTNO_XPT       ETIM_XPT     PCO_SAP      PND_SAP       CP_SAP        QNDP         QCP          QPCO
#
~A  
# ...
    3890.0    5032.4110 1556924.0000    3952.9780     132.4888     133.0485       0.0060    6424.6126    6424.6185     132.5769         31     315.4710       0.0056    5694.9919    5694.9977    5692.0422    5692.4094       0.3671
    3891.0    5087.2180 1556924.0000    3952.9780     132.4878     133.0480       0.0062    6424.5599    6424.5662     132.5779         31     316.4710       0.0020    5695.0088    5695.0108    5692.0426    5692.4093       0.3665
    3892.0    5056.5220 1556924.0000    3952.9780     132.4890     133.0474       0.0057    6424.5248    6424.5307     132.5790         31     317.4710      -0.0012    5694.9979    5694.9968    5692.0408    5692.4064       0.3657
    3893.0    5057.8330 1556924.0000    3952.9780     132.4888     133.0468       0.0061    6424.2376    6424.2438     132.5802         31     318.4710      -0.0024    5694.9234    5694.9209    5692.0445    5692.4090       0.3645
    3894.0    5090.2530 1556924.0000    3952.9780     132.4884     133.0483       0.0088    6424.3969    6424.4056     132.5813         31     319.4710      -0.0016    5695.0238    5695.0222    5692.0496    5692.4120       0.3626
    3895.0    5079.5590 1556924.0000    3952.9780     132.4901     133.0485       0.0132    6424.5596    6424.5730     132.5825         31     320.4710       0.0005    5694.9694    5694.9700    5692.0522    5692.4130       0.3610
    3896.0    5013.2690 1556924.0000    3952.9780     132.4889     133.0479       0.0158    6424.5532    6424.5691     132.5835         31     321.4710       0.0029    5694.8896    5694.8926    5692.0516    5692.4117       0.3602
    3897.0    4988.0650 1556924.0000    3952.9780     132.4881     133.0494       0.0154    6424.6909    6424.7061     132.5848         31     322.4710       0.0045    5694.9265    5694.9309    5692.0680    5692.4279       0.3597
    3898.0    4996.4710 1556924.0000    3952.9780     132.4888     133.0484       0.0134    6424.6941    6424.7075     132.5857         31     323.4710       0.0052    5694.8363    5694.8417    5692.0603    5692.4191       0.3590
    3899.0    4977.6890 1556924.0000    3952.9780     132.4902     133.0502       0.0111    6424.9160    6424.9269     132.5868         31     324.4710       0.0059    5694.9181    5694.9240    5692.0553    5692.4137       0.3584
    3900.0    4943.2830 1556924.0000    3952.9780     132.4899     133.0507       0.0088    6424.7657    6424.7745     132.5877         31     325.4710       0.0066    5694.9644    5694.9711    5692.0524    5692.4103       0.3578
    3901.0    4974.2160 1556924.0000    3952.9780     132.4902     133.0502       0.0068    6424.6387    6424.6454     132.5891         31     326.4710       0.0063    5694.9639    5694.9701    5692.0570    5692.4143       0.3574
    3902.0    5043.3690 1556924.0000    3952.9780     132.4887     133.0488       0.0061    6424.6233    6424.6292     132.5900         31     327.4710       0.0146    5694.8787    5694.8933    5692.0571    5692.4364       0.3793
    3903.0    5071.0650 1556924.0000    3952.9780     132.4893     133.0482       0.0063    6424.5072    6424.5135     132.5913         31     328.4710       0.0921    5694.8524    5694.9445    5692.0581    5692.5908       0.5329
    3904.0    5091.7170 1556924.0000    3952.9780     132.4910     133.0487       0.0067    6424.4480    6424.4549     132.5922         31     329.4710       0.3105    5695.0708    5695.3812    5692.0563    5692.9882       0.9320
    3905.0    5110.7100 1556924.0000    3952.9780     132.4889     133.0507       0.0069    6424.3670    6424.3738     132.5933         31     330.4710       0.6437    5695.0020    5695.6456    5692.0633    5693.5815       1.5179
    3906.0    5098.5730 1556924.0000    3952.9780     132.4904     133.0508       0.0074    6424.5217    6424.5290     132.5942         31     331.4710       0.9636    5694.9473    5695.9108    5692.0633    5694.1648       2.1014
    3907.0    5026.7190 1556924.0000    3952.9780     132.4891     133.0509       0.0082    6424.5326    6424.5409     132.5957         31     332.4710       1.1464    5694.6272    5695.7736    5691.6871    5694.2212       2.5342
    3908.0    4971.2970 1556924.0000    3952.9780     132.5786     133.0496       0.0084    6424.3291    6424.3374     132.6250         31     333.4710       1.1745    6311.1096    6312.2840    6297.6856    6300.5134       2.8279
    3909.0    4971.2320 1556924.0000    3952.9780     132.6217     133.0495       0.0079    6424.2698    6424.2777     132.6345         31     334.4710       1.0556    6428.5283    6429.5837    6416.7949    6419.7654       2.9704
    3910.0    4960.8770 1556924.0000    3952.9780     132.6243     133.0516       0.0071    6424.5471    6424.5543     132.6397         31     335.4710       0.7745    6427.9295    6428.7041    6417.2017    6420.0847       2.8830
    3911.0    4945.0510 1556924.0000    3952.9780     132.6221     133.0503       0.0065    6424.6287    6424.6350     132.6453         31     336.4710       0.3708    6427.0037    6427.3745    6417.4842    6420.0691       2.5848
    3912.0    4948.1880 1556924.0000    3952.9780     132.6160     133.0517       0.0061    6424.5942    6424.6001     132.6520         31     337.4710      -0.0216    6426.0508    6426.0293    6417.6734    6419.9188       2.2456
    3913.0    4998.3250 1556924.0000    3952.9780     132.6071     133.0519       0.0058    6424.4752    6424.4810     132.6592         31     338.4710      -0.2744    6425.1079    6424.8336    6417.8979    6419.9158       2.0177
    3914.0    5075.2090 1556924.0000    3952.9780     132.6008     133.0515       0.0062    6424.5087    6424.5150     132.6653         31     339.4710      -0.3769    6424.5924    6424.2154    6418.1761    6420.0652       1.8890
    3915.0    5098.1600 1556924.0000    3952.9780     132.5908     133.0502       0.0077    6424.5171    6424.5248     132.6711         31     340.4710      -0.3948    6423.9614    6423.5665    6418.3638    6420.1362       1.7726
    3916.0    5076.5290 1556924.0000    3952.9780     132.5837     133.0516       0.0102    6424.4260    6424.4364     132.6764         31     341.4710      -0.3849    6423.4138    6423.0289    6418.4207    6420.0446       1.6240
    3917.0    5062.3410 1556924.0000    3952.9780     132.5786     133.0507       0.0125    6424.3039    6424.3164     132.6811         31     342.4710      -0.3629    6423.1758    6422.8128    6418.5359    6419.9970       1.4611
    3918.0    5052.1810 1556924.0000    3952.9780     132.5700     133.0524       0.0137    6424.5016    6424.5153     132.6854         31     343.4710      -0.3362    6422.9464    6422.6102    6418.7987    6420.0959       1.2972
    3919.0    5036.8050 1556924.0000    3952.9780     132.5642     133.0517       0.0141    6424.4727    6424.4868     132.6892         31     344.4710      -0.3071    6422.7719    6422.4649    6418.9273    6420.0679       1.1405
    3920.0    4991.8050 1556924.0000    3952.9780     132.5604     133.0534       0.0146    6424.4914    6424.5061     132.6921         31     345.4710      -0.2768    6422.6880    6422.4113    6419.0358    6420.0309       0.9951
    3921.0    4963.2900 1556924.0000    3952.9780     132.5546     133.0524       0.0147    6424.5420    6424.5566     132.6946         31     346.4710      -0.2474    6422.5757    6422.3282    6419.1502    6420.0123       0.8623
    3922.0    4949.5220 1556924.0000    3952.9780     132.5500     133.0526       0.0135    6424.6568    6424.6703     132.6974         31     347.4710      -0.2205    6422.4048    6422.1845    6419.2389    6419.9826       0.7437
    3923.0    4956.4850 1556924.0000    3952.9780     132.5476     133.0533       0.0120    6424.6205    6424.6324     132.6993         31     348.4710      -0.1946    6422.3780    6422.1832    6419.3313    6419.9708       0.6395
    3924.0    4966.5220 1556924.0000    3952.9780     132.5451     133.0527       0.0103    6424.5561    6424.5664     132.7010         31     349.4710      -0.1703    6422.3208    6422.1507    6419.4212    6419.9696       0.5482
