~VERSION INFORMATION
VERS.           2.0   :CWLS Log ASCII Standard - VERSION 2.0
WRAP.           NO    :One Line per depth step
PROD.  Schlumberger   :LAS Producer
PROG.  DLIS to ASCII 2.2                               :LAS Program name and version
CREA.        2020/10/30 12:18                          :LAS Creation date {YYYY/MM/DD hh:mm}
SOURCE.     XPT_HRLA_TLD_MCFL_037LTP.DLIS              :DLIS File Name
FILE-ID.     XPT_HRLA_TLD_MCFL_037LTP                  :File Identification Number
#--------------------------------------------------
~WELL INFORMATION
#MNEM.UNIT      DATA             DESCRIPTION
#---- ------ --------------   -----------------------------
STRT .S        35745.0       :START TIME      
STOP .S        36558.0       :STOP TIME      
STEP .S            1.0       :STEP     
NULL .          -999.25      :NULL VALUE
COMP .        Nexus Energy                             :COMPANY
WELL .        Crux-3                                   :WELL
FLD  .        Crux                                     :FIELD
LOC  .        Easting: 656981.7mE                      :LOCATION
CNTY .        Sedco-703                                :COUNTY
STAT .        Northern Territory                       :STATE
CTRY .        Australia                                :COUNTRY
API  .                                                 :API NUMBER
UWI  .                                                 :UNIQUE WELL ID
DATE .        31-Dec-2007                              :LOG DATE {DD-MMM-YYYY}
SRVC .        Schlumberger                             :SERVICE COMPANY
LATI .DEG     12*57'32.63" S                           :LATITUDE
LONG .DEG     124*26'50.07" E                          :LONGITUDE
GDAT .                                                 :GeoDetic Datum
#-----------------------------------------------------------------------------
~PARAMETER INFORMATION
#MNEM.UNIT    VALUE                      DESCRIPTION
#---- -----   --------------------       ------------------------
RUN  .          1                        :RUN NUMBER
PDAT .        LAT                        :Permanent Datum
EPD  .M           0.000000               :Elevation of Permanent Datum above Mean Sea Level
EPD  .M           0.000000               :Elevation of tool zero above Mean Sea Level
LMF  .          DF                       :Logging Measured From (Name of Logging Elevation Reference)
APD  .M          26.400000               :Elevation of Depth Reference (LMF) above Permanent Datum
#-----------------------------------------------------------------------------
~CURVE INFORMATION
#MNEM.UNIT   API CODE                                  DESCRIPTION
#---- -----  --------                                  -----------------------
TIME .S                                                :TIME {F10.1}
TENS_SL.LBF                                            :Cable Tension {F13.4}
DEPT_SL..1IN                                           :Station logging depth {F13.4}
PDEP_XPT.M                                             :XPT Probe Depth {F13.4}
MTEP_SAP.DEGC                                          :Sapphire Gauge Manometer Temperature {F13.4}
MTEP_HYD.DEGC                                          :Hydrostatic Sapphire Gauge Manometer Temperature {F13.4}
PCO_HYD.PSI                                            :Hydrostatic Sapphire Dynamic Compensation {F13.4}
PND_HYD.PSI                                            :Hydrostatic Sapphire Pressure Without Dynamic Compensation {F13.4}
CP_HYD.PSI                                             :Hydrostatic Sapphire Pressure With Dynamic Compensation {F13.4}
MTEP_QG.DEGC                                           :CQG Manometer Temperature {F13.4}
PTNO_XPT.                                              :XPT Pretest Number {I11}
ETIM_XPT.S                                             :Elapsed Logging Time {F13.4}
PCO_SAP.PSI                                            :Sapphire Dynamic Compensation {F13.4}
PND_SAP.PSI                                            :Sapphire Pressure Without Dynamic Compensation {F13.4}
CP_SAP.PSI                                             :Sapphire Pressure With Dynamic Compensation {F13.4}
QNDP .PSI                                              :CQG Pressure Without Dynamic Compensation {F13.4}
QCP  .PSI                                              :CQG Pressure With Dynamic Compensation {F13.4}
QPCO .PSI                                              :CQG Dynamic Compensation {F13.4}
#-----------------------------------------------------------------------------
# 
#     TIME      TENS_SL      DEPT_SL      PDEP_XPT     MTEP_SAP     MTEP_HYD     PCO_HYD      PND_HYD       CP_HYD      MTEP_QG       PTNO_XPT       ETIM_XPT     PCO_SAP      PND_SAP       CP_SAP        QNDP         QCP          QPCO
#
~A  
# ...
   36375.0    4687.4920 1417595.0000    3599.0823     118.7518     119.3092       0.0156    5862.7318    5862.7474     119.1126          2     629.7480      -0.0009    5504.4195    5504.4186    5501.4952    5501.6310       0.1356
   36376.0    4717.0080 1417595.0000    3599.0823     118.7506     119.3092       0.0137    5862.6397    5862.6534     119.1129          2     630.7480       0.0018    5504.4289    5504.4308    5501.4998    5501.6353       0.1356
   36377.0    4701.7880 1417595.0000    3599.0823     118.7519     119.3087       0.0106    5862.4767    5862.4872     119.1136          2     631.7480       0.0052    5504.4439    5504.4491    5501.4948    5501.6306       0.1358
   36378.0    4711.2120 1417595.0000    3599.0823     118.7517     119.3095       0.0076    5862.3977    5862.4054     119.1143          2     632.7480       0.0081    5504.4626    5504.4706    5501.4998    5501.6361       0.1365
   36379.0    4721.9840 1417595.0000    3599.0823     118.7526     119.3096       0.0058    5862.5540    5862.5599     119.1145          2     633.7480       0.0113    5504.4761    5504.4873    5501.4991    5501.6355       0.1365
   36380.0    4642.4680 1417595.0000    3599.0823     118.7526     119.3094       0.0047    5862.5621    5862.5669     119.1153          2     634.7480       0.0153    5504.4614    5504.4768    5501.4981    5501.6343       0.1361
   36381.0    4604.5280 1417595.0000    3599.0823     118.7519     119.3089       0.0038    5862.5674    5862.5713     119.1153          2     635.7480       0.0180    5504.4733    5504.4914    5501.5030    5501.6383       0.1355
   36382.0    4586.0400 1417595.0000    3599.0823     118.7528     119.3103       0.0039    5862.6514    5862.6553     119.1160          2     636.7480       0.0180    5504.3891    5504.4069    5501.5041    5501.6391       0.1351
   36383.0    4606.4320 1417595.0000    3599.0823     118.7535     119.3090       0.0053    5862.8543    5862.8596     119.1165          2     637.7480       0.0161    5504.4596    5504.4758    5501.5018    5501.6366       0.1348
   36384.0    4595.5520 1417595.0000    3599.0823     118.7536     119.3103       0.0082    5862.8199    5862.8279     119.1169          2     638.7480       0.0134    5504.4839    5504.4974    5501.4967    5501.6309       0.1342
   36385.0    4621.1640 1417595.0000    3599.0823     118.7543     119.3100       0.0119    5862.7070    5862.7189     119.1171          2     639.7480       0.0108    5504.4322    5504.4430    5501.5034    5501.6367       0.1334
   36386.0    4664.1640 1417595.0000    3599.0823     118.7559     119.3090       0.0156    5862.5834    5862.5988     119.1177          2     640.7480       0.0082    5504.5548    5504.5632    5501.5035    5501.6368       0.1331
   36387.0    4686.2200 1417595.0000    3599.0823     118.7535     119.3103       0.0181    5862.5275    5862.5457     119.1180          2     641.7480       0.0060    5504.4428    5504.4485    5501.5035    5501.6368       0.1332
   36388.0    4692.2440 1417595.0000    3599.0823     118.7534     119.3109       0.0180    5862.5235    5862.5413     119.1184          2     642.7480       0.0041    5504.4242    5504.4284    5501.5018    5501.6351       0.1331
   36389.0    4707.9600 1417595.0000    3599.0823     118.7543     119.3105       0.0149    5862.4803    5862.4952     119.1188          2     643.7480       0.0031    5504.4707    5504.4737    5501.4999    5501.6327       0.1329
   36390.0    4695.0480 1417595.0000    3599.0823     118.7557     119.3125       0.0099    5862.5585    5862.5685     119.1195          2     644.7480       0.0028    5504.5765    5504.5794    5501.5070    5501.6403       0.1332
   36391.0    4635.1440 1417595.0000    3599.0823     118.7551     119.3119       0.0064    5862.6670    5862.6733     119.1197          2     645.7480       0.0019    5504.4530    5504.4547    5501.5047    5501.6382       0.1336
   36392.0    4605.0320 1417595.0000    3599.0823     118.7560     119.3133       0.0061    5862.6788    5862.6851     119.1201          2     646.7480       0.0000    5504.5387    5504.5388    5501.5066    5501.6404       0.1337
   36393.0    4589.7800 1417595.0000    3599.0823     118.7533     119.3118       0.0073    5862.6662    5862.6735     119.1205          2     647.7480      -0.0013    5504.4344    5504.4329    5501.5032    5501.6370       0.1336
   36394.0    4590.4880 1417595.0000    3599.0823     118.7538     119.3105       0.0075    5862.6680    5862.6753     119.1213          2     648.7480      -0.0000    5504.4565    5504.4565    5501.5054    5501.6387       0.1335
   36395.0    4581.5280 1417595.0000    3599.0823     118.7541     119.3118       0.0076    5862.7261    5862.7338     119.1213          2     649.7480       0.0034    5504.3305    5504.3337    5501.5018    5501.6351       0.1334
   36396.0    4639.3360 1417595.0000    3599.0823     118.7537     119.3134       0.0092    5862.6307    5862.6401     119.1222          2     650.7480       0.0072    5504.4376    5504.4446    5501.5106    5501.6439       0.1331
   36397.0    4694.4080 1417595.0000    3599.0823     118.7545     119.3126       0.0110    5862.6157    5862.6267     119.1224          2     651.7480       0.0098    5504.4629    5504.4729    5501.5054    5501.6387       0.1332
   36398.0    4707.4960 1417595.0000    3599.0823     118.7561     119.3124       0.0109    5862.6203    5862.6311     119.1229          2     652.7480       0.0111    5504.4811    5504.4923    5501.5054    5501.6387       0.1331
   36399.0    4694.5360 1417595.0000    3599.0823     118.7548     119.3126       0.0108    5862.4966    5862.5074     119.1238          2     653.7480       0.0113    5504.5187    5504.5299    5501.5067    5501.6394       0.1328
   36400.0    4668.3080 1417595.0000    3599.0823     118.7556     119.3130       0.0127    5862.5152    5862.5279     119.1239          2     654.7480       0.0107    5504.4285    5504.4392    5501.5076    5501.6397       0.1321
   36401.0    4628.8360 1417595.0000    3599.0823     118.7545     119.3134       0.0158    5862.5290    5862.5450     119.1245          2     655.7480       0.0107    5504.3030    5504.3137    5501.5078    5501.6396       0.1317
   36402.0    4609.7720 1417595.0000    3599.0823     118.7552     119.3134       0.0180    5862.5138    5862.5320     119.1246          2     656.7480       0.0115    5504.3734    5504.3847    5501.5017    5501.6330       0.1314
   36403.0    4623.4560 1417595.0000    3599.0823     118.7558     119.3141       0.0193    5862.6615    5862.6808     119.1252          2     657.7480       0.0122    5504.4458    5504.4580    5501.5102    5501.6413       0.1311
   36404.0    4673.8800 1417595.0000    3599.0823     118.7556     119.3154       0.0194    5862.6443    5862.6638     119.1254          2     658.7480       0.0122    5504.5183    5504.5305    5501.5059    5501.6367       0.1308
   36405.0    4704.7080 1417595.0000    3599.0823     118.7576     119.3141       0.0175    5862.5813    5862.5987     119.1258          2     659.7480       0.0116    5504.5188    5504.5304    5501.5076    5501.6380       0.1305
   36406.0    4703.2680 1417595.0000    3599.0823     118.7569     119.3141       0.0142    5862.5717    5862.5858     119.1265          2     660.7480       0.0109    5504.4239    5504.4349    5501.5061    5501.6367       0.1306
   36407.0    4688.2840 1417595.0000    3599.0823     118.7571     119.3169       0.0118    5862.6501    5862.6619     119.1269          2     661.7480       0.0100    5504.4301    5504.4400    5501.5096    5501.6404       0.1307
   36408.0    4678.7640 1417595.0000    3599.0823     118.7576     119.3153       0.0108    5862.5596    5862.5703     119.1274          2     662.7480       0.0094    5504.4266    5504.4358    5501.5119    5501.6427       0.1306
   36409.0    4621.6480 1417595.0000    3599.0823     118.7571     119.3149       0.0099    5862.6836    5862.6934     119.1277          2     663.7480       0.0092    5504.4862    5504.4954    5501.5095    5501.6401       0.1306
