~VERSION INFORMATION
VERS.           2.0   :CWLS Log ASCII Standard - VERSION 2.0
WRAP.           NO    :One Line per depth step
PROD.  Schlumberger   :LAS Producer
PROG.  DLIS to ASCII 2.2                               :LAS Program name and version
CREA.        2020/10/30 12:18                          :LAS Creation date {YYYY/MM/DD hh:mm}
SOURCE.     XPT_HRLA_TLD_MCFL_066LTP.DLIS              :DLIS File Name
FILE-ID.     XPT_HRLA_TLD_MCFL_066LTP                  :File Identification Number
#--------------------------------------------------
~WELL INFORMATION
#MNEM.UNIT      DATA             DESCRIPTION
#---- ------ --------------   -----------------------------
STRT .S         3575.0       :START TIME      
STOP .S         3949.0       :STOP TIME      
STEP .S            1.0       :STEP     
NULL .          -999.25      :NULL VALUE
COMP .        Nexus Energy                             :COMPANY
WELL .        Crux-3                                   :WELL
FLD  .        Crux                                     :FIELD
LOC  .        Easting: 656981.7mE                      :LOCATION
CNTY .        Sedco-703                                :COUNTY
STAT .        Northern Territory                       :STATE
CTRY .        Australia                                :COUNTRY
API  .                                                 :API NUMBER
UWI  .                                                 :UNIQUE WELL ID
DATE .        31-Dec-2007                              :LOG DATE {DD-MMM-YYYY}
SRVC .        Schlumberger                             :SERVICE COMPANY
LATI .DEG     12*57'32.63" S                           :LATITUDE
LONG .DEG     124*26'50.07" E                          :LONGITUDE
GDAT .                                                 :GeoDetic Datum
#-----------------------------------------------------------------------------
~PARAMETER INFORMATION
#MNEM.UNIT    VALUE                      DESCRIPTION
#---- -----   --------------------       ------------------------
RUN  .          1                        :RUN NUMBER
PDAT .        LAT                        :Permanent Datum
EPD  .M           0.000000               :Elevation of Permanent Datum above Mean Sea Level
EPD  .M           0.000000               :Elevation of tool zero above Mean Sea Level
LMF  .          DF                       :Logging Measured From (Name of Logging Elevation Reference)
APD  .M          26.400000               :Elevation of Depth Reference (LMF) above Permanent Datum
#-----------------------------------------------------------------------------
~CURVE INFORMATION
#MNEM.UNIT   API CODE                                  DESCRIPTION
#---- -----  --------                                  -----------------------
TIME .S                                                :TIME {F10.1}
TENS_SL.LBF                                            :Cable Tension {F13.4}
DEPT_SL..1IN                                           :Station logging depth {F13.4}
PDEP_XPT.M                                             :XPT Probe Depth {F13.4}
MTEP_SAP.DEGC                                          :Sapphire Gauge Manometer Temperature {F13.4}
MTEP_HYD.DEGC                                          :Hydrostatic Sapphire Gauge Manometer Temperature {F13.4}
PCO_HYD.PSI                                            :Hydrostatic Sapphire Dynamic Compensation {F13.4}
PND_HYD.PSI                                            :Hydrostatic Sapphire Pressure Without Dynamic Compensation {F13.4}
CP_HYD.PSI                                             :Hydrostatic Sapphire Pressure With Dynamic Compensation {F13.4}
MTEP_QG.DEGC                                           :CQG Manometer Temperature {F13.4}
PTNO_XPT.                                              :XPT Pretest Number {I11}
ETIM_XPT.S                                             :Elapsed Logging Time {F13.4}
PCO_SAP.PSI                                            :Sapphire Dynamic Compensation {F13.4}
PND_SAP.PSI                                            :Sapphire Pressure Without Dynamic Compensation {F13.4}
CP_SAP.PSI                                             :Sapphire Pressure With Dynamic Compensation {F13.4}
QNDP .PSI                                              :CQG Pressure Without Dynamic Compensation {F13.4}
QCP  .PSI                                              :CQG Pressure With Dynamic Compensation {F13.4}
QPCO .PSI                                              :CQG Dynamic Compensation {F13.4}
#-----------------------------------------------------------------------------
# 
#     TIME      TENS_SL      DEPT_SL      PDEP_XPT     MTEP_SAP     MTEP_HYD     PCO_HYD      PND_HYD       CP_HYD      MTEP_QG       PTNO_XPT       ETIM_XPT     PCO_SAP      PND_SAP       CP_SAP        QNDP         QCP          QPCO
#
~A  
# ...
    3925.0    4988.0860 1556924.0000    3952.9780     132.5403     133.0547       0.0085    6424.7254    6424.7340     132.7024         31     350.4710      -0.1510    6422.2456    6422.0944    6419.4376    6419.9061       0.4685
    3926.0    5062.0930 1556924.0000    3952.9780     132.5377     133.0540       0.0060    6424.5929    6424.5990     132.7038         31     351.4710      -0.1380    6422.0623    6421.9241    6419.4140    6419.8138       0.3998
    3927.0    5101.7610 1556924.0000    3952.9780     132.5387     133.0538       0.0046    6424.5565    6424.5610     132.7051         31     352.4710      -0.1274    6422.3390    6422.2118    6419.5047    6419.8461       0.3413
    3928.0    5104.0650 1556924.0000    3952.9780     132.5351     133.0540       0.0061    6424.4976    6424.5036     132.7056         31     353.4710      -0.1149    6422.0976    6421.9828    6419.4282    6419.7199       0.2919
    3929.0    5094.5730 1556924.0000    3952.9780     132.5325     133.0536       0.0099    6424.4467    6424.4566     132.7066         31     354.4710      -0.1017    6421.9638    6421.8620    6419.3818    6419.6315       0.2497
    3930.0    5049.0950 1556924.0000    3952.9780     132.5295     133.0527       0.0131    6424.4228    6424.4359     132.7075         31     355.4710      -0.0896    6421.9207    6421.8310    6419.4740    6419.6884       0.2144
    3931.0    4995.0370 1556924.0000    3952.9780     132.5258     133.0535       0.0136    6424.4993    6424.5130     132.7077         31     356.4710      -0.0785    6421.9446    6421.8663    6419.5452    6419.7304       0.1852
    3932.0    4958.5220 1556924.0000    3952.9780     132.5299     133.0549       0.0122    6424.5683    6424.5804     132.7085         31     357.4710      -0.0667    6422.0383    6421.9714    6419.5234    6419.6845       0.1610
    3933.0    4954.1810 1556924.0000    3952.9780     132.5251     133.0555       0.0102    6424.5743    6424.5846     132.7089         31     358.4710      -0.0563    6422.0282    6421.9718    6419.5775    6419.7187       0.1413
    3934.0    4982.6080 1556924.0000    3952.9780     132.5259     133.0555       0.0076    6424.6357    6424.6433     132.7093         31     359.4710      -0.0506    6422.1615    6422.1110    6419.6459    6419.7715       0.1255
    3935.0    5039.5570 1556924.0000    3952.9780     132.5255     133.0549       0.0048    6424.5813    6424.5861     132.7093         31     360.4710      -0.0489    6422.0290    6421.9802    6419.6147    6419.7283       0.1135
    3936.0    5068.4060 1556924.0000    3952.9780     132.5238     133.0547       0.0041    6424.5664    6424.5703     132.7097         31     361.4710      -0.0473    6422.0127    6421.9653    6419.5919    6419.6962       0.1044
    3937.0    5072.7750 1556924.0000    3952.9780     132.5244     133.0563       0.0067    6424.5840    6424.5906     132.7102         31     362.4710      -0.0422    6421.9273    6421.8853    6419.5523    6419.6499       0.0975
    3938.0    5075.1670 1556924.0000    3952.9780     132.5219     133.0547       0.0107    6424.5059    6424.5165     132.7104         31     363.4710      -0.0348    6421.8424    6421.8077    6419.4905    6419.5825       0.0919
    3939.0    5026.2620 1556924.0000    3952.9780     132.5203     133.0555       0.0131    6424.5142    6424.5273     132.7107         31     364.4710      -0.0276    6421.9441    6421.9165    6419.5472    6419.6347       0.0873
    3940.0    4989.7100 1556924.0000    3952.9780     132.5212     133.0559       0.0135    6424.5786    6424.5923     132.7108         31     365.4710      -0.0213    6421.9557    6421.9346    6419.6281    6419.7119       0.0839
    3941.0    4959.6750 1556924.0000    3952.9780     132.5211     133.0561       0.0133    6424.6165    6424.6296     132.7111         31     366.4710      -0.0170    6421.9731    6421.9561    6419.6342    6419.7157       0.0814
    3942.0    4964.2740 1556924.0000    3952.9780     132.5213     133.0570       0.0121    6424.6519    6424.6641     132.7114         31     367.4710      -0.0160    6421.9415    6421.9254    6419.6254    6419.7051       0.0798
    3943.0    5008.3480 1556924.0000    3952.9780     132.5197     133.0572       0.0082    6424.6542    6424.6625     132.7116         31     368.4710      -0.0183    6421.9271    6421.9088    6419.6442    6419.7234       0.0793
    3944.0    5038.7380 1556924.0000    3952.9780     132.5212     133.0563       0.0031    6424.6611    6424.6465     132.7117         31     369.4710      -0.0203    6422.0520    6422.0615    6419.6475    6419.7510       0.0796
    3945.0    5070.1090 1556924.0000    3952.9780     132.5211     133.0574       0.0031    6424.6280    6424.6465     132.7124         31     370.4710      -0.0203    6421.9553    6422.0615    6419.5199    6419.7510       0.0796
    3946.0    5070.3040 1556924.0000    3952.9780     132.5184     133.0570       0.0031    6424.5617    6424.6465     132.7125         31     371.4710      -0.0203    6421.7397    6422.0615    6419.4605    6419.7510       0.0796
    3947.0    5076.4060 1556924.0000    3952.9780     132.5182     133.0570       0.0031    6424.4525    6424.6465     132.7125         31     372.4710      -0.0203    6421.7884    6422.0615    6419.4312    6419.7510       0.0796
    3948.0    5042.6240 1556924.0000    3952.9780     132.5184     133.0556       0.0031    6424.4485    6424.6465     132.7127         31     373.4710      -0.0203    6421.8652    6422.0615    6419.4752    6419.7510       0.0796
    3949.0    4976.7330 1556924.0000    3952.9780     132.5199     133.0559       0.0031    6424.4573    6424.6465     132.7132         31     374.4710      -0.0203    6421.8680    6422.0615    6419.5201    6419.7510       0.0796
