~VERSION INFORMATION
VERS.           2.0   :CWLS Log ASCII Standard - VERSION 2.0
WRAP.           NO    :One Line per depth step
PROD.  Schlumberger   :LAS Producer
PROG.  DLIS to ASCII 2.2                               :LAS Program name and version
CREA.        2020/10/30 12:18                          :LAS Creation date {YYYY/MM/DD hh:mm}
SOURCE.     XPT_HRLA_TLD_MCFL_068LTP.DLIS              :DLIS File Name
FILE-ID.     XPT_HRLA_TLD_MCFL_068LTP                  :File Identification Number
#--------------------------------------------------
~WELL INFORMATION
#MNEM.UNIT      DATA             DESCRIPTION
#---- ------ --------------   -----------------------------
STRT .S           82.0       :START TIME      
STOP .S          488.0       :STOP TIME      
STEP .S            1.0       :STEP     
NULL .          -999.25      :NULL VALUE
COMP .        Nexus Energy                             :COMPANY
WELL .        Crux-3                                   :WELL
FLD  .        Crux                                     :FIELD
LOC  .        Easting: 656981.7mE                      :LOCATION
CNTY .        Sedco-703                                :COUNTY
STAT .        Northern Territory                       :STATE
CTRY .        Australia                                :COUNTRY
API  .                                                 :API NUMBER
UWI  .                                                 :UNIQUE WELL ID
DATE .        31-Dec-2007                              :LOG DATE {DD-MMM-YYYY}
SRVC .        Schlumberger                             :SERVICE COMPANY
LATI .DEG     12*57'32.63" S                           :LATITUDE
LONG .DEG     124*26'50.07" E                          :LONGITUDE
GDAT .                                                 :GeoDetic Datum
#-----------------------------------------------------------------------------
~PARAMETER INFORMATION
#MNEM.UNIT    VALUE                      DESCRIPTION
#---- -----   --------------------       ------------------------
RUN  .          1                        :RUN NUMBER
PDAT .        LAT                        :Permanent Datum
EPD  .M           0.000000               :Elevation of Permanent Datum above Mean Sea Level
EPD  .M           0.000000               :Elevation of tool zero above Mean Sea Level
LMF  .          DF                       :Logging Measured From (Name of Logging Elevation Reference)
APD  .M          26.400000               :Elevation of Depth Reference (LMF) above Permanent Datum
#-----------------------------------------------------------------------------
~CURVE INFORMATION
#MNEM.UNIT   API CODE                                  DESCRIPTION
#---- -----  --------                                  -----------------------
TIME .S                                                :TIME {F10.1}
TENS_SL.LBF                                            :Cable Tension {F13.4}
DEPT_SL..1IN                                           :Station logging depth {F13.4}
PDEP_XPT.M                                             :XPT Probe Depth {F13.4}
MTEP_SAP.DEGC                                          :Sapphire Gauge Manometer Temperature {F13.4}
MTEP_HYD.DEGC                                          :Hydrostatic Sapphire Gauge Manometer Temperature {F13.4}
PCO_HYD.PSI                                            :Hydrostatic Sapphire Dynamic Compensation {F13.4}
PND_HYD.PSI                                            :Hydrostatic Sapphire Pressure Without Dynamic Compensation {F13.4}
CP_HYD.PSI                                             :Hydrostatic Sapphire Pressure With Dynamic Compensation {F13.4}
MTEP_QG.DEGC                                           :CQG Manometer Temperature {F13.4}
PTNO_XPT.                                              :XPT Pretest Number {I11}
ETIM_XPT.S                                             :Elapsed Logging Time {F13.4}
PCO_SAP.PSI                                            :Sapphire Dynamic Compensation {F13.4}
PND_SAP.PSI                                            :Sapphire Pressure Without Dynamic Compensation {F13.4}
CP_SAP.PSI                                             :Sapphire Pressure With Dynamic Compensation {F13.4}
QNDP .PSI                                              :CQG Pressure Without Dynamic Compensation {F13.4}
QCP  .PSI                                              :CQG Pressure With Dynamic Compensation {F13.4}
QPCO .PSI                                              :CQG Dynamic Compensation {F13.4}
#-----------------------------------------------------------------------------
# 
#     TIME      TENS_SL      DEPT_SL      PDEP_XPT     MTEP_SAP     MTEP_HYD     PCO_HYD      PND_HYD       CP_HYD      MTEP_QG       PTNO_XPT       ETIM_XPT     PCO_SAP      PND_SAP       CP_SAP        QNDP         QCP          QPCO
#
~A  
# ...
     152.0    5046.6534 1566781.0000    3978.0146     132.8043     133.4412       0.0501    6464.3809    6464.4311     133.1662         31      70.1413       0.0511    6461.6445    6461.6956    6458.9215    6459.2788       0.3572
     153.0    4994.5121 1566781.0000    3978.0146     132.8062     133.4437       0.0492    6464.4900    6464.5393     133.1678         31      71.1413       0.0544    6461.7487    6461.8030    6458.9379    6459.2959       0.3580
     154.0    4950.6954 1566781.0000    3978.0146     132.8072     133.4447       0.0490    6464.5883    6464.6373     133.1687         31      72.1413       0.0559    6461.7427    6461.7986    6458.9730    6459.3314       0.3586
     155.0    4958.3157 1566781.0000    3978.0146     132.8087     133.4456       0.0496    6464.5986    6464.6483     133.1697         31      73.1413       0.0571    6461.8704    6461.9275    6459.0581    6459.4170       0.3588
     156.0    4945.3907 1566781.0000    3978.0146     132.8079     133.4475       0.0494    6464.6187    6464.6679     133.1710         31      74.1413       0.0581    6461.8579    6461.9160    6459.0854    6459.4442       0.3586
     157.0    4974.7594 1566781.0000    3978.0146     132.8106     133.4460       0.0476    6464.5241    6464.5717     133.1719         31      75.1413       0.0578    6461.7489    6461.8068    6458.9964    6459.3546       0.3581
     158.0    5034.2164 1566781.0000    3978.0146     132.8098     133.4486       0.0465    6464.5575    6464.6039     133.1730         31      76.1413       0.0567    6461.7236    6461.7803    6459.0113    6459.3683       0.3572
     159.0    5073.5541 1566781.0000    3978.0146     132.8117     133.4490       0.0475    6464.5137    6464.5612     133.1740         31      77.1413       0.0562    6461.8746    6461.9308    6459.0253    6459.3817       0.3563
     160.0    5071.2737 1566781.0000    3978.0146     132.8143     133.4499       0.0496    6464.4733    6464.5229     133.1752         31      78.1413       0.0564    6461.7856    6461.8422    6458.9569    6459.3129       0.3559
     161.0    4990.8167 1566781.0000    3978.0146     132.8152     133.4511       0.0511    6464.4818    6464.5330     133.1763         31      79.1413       0.0557    6461.7117    6461.7675    6458.9311    6459.2871       0.3560
     162.0    4933.7285 1566781.0000    3978.0146     132.8143     133.4513       0.0513    6464.4176    6464.4689     133.1775         31      80.1413       0.0538    6461.7083    6461.7620    6458.9591    6459.3156       0.3565
     163.0    4934.7594 1566781.0000    3978.0146     132.8168     133.4527       0.0516    6464.5179    6464.5697     133.1786         31      81.1413       0.0527    6461.9282    6461.9810    6459.0764    6459.4331       0.3567
     164.0    4989.9779 1566781.0000    3978.0146     132.8168     133.4535       0.0516    6464.6113    6464.6631     133.1796         31      82.1413       0.0529    6461.8062    6461.8590    6459.0701    6459.4267       0.3566
     165.0    5012.3135 1566781.0000    3978.0146     132.8174     133.4558       0.0505    6464.6436    6464.6942     133.1807         31      83.1413       0.0509    6461.8188    6461.8698    6459.0857    6459.4378       0.3523
     166.0    5076.4128 1566781.0000    3978.0146     132.8188     133.4555       0.0478    6464.5232    6464.5711     133.1820         31      84.1413       0.0427    6461.7594    6461.8020    6458.9917    6459.3283       0.3367
     167.0    5085.5651 1566781.0000    3978.0146     132.8207     133.4559       0.0456    6464.4736    6464.5191     133.1830         31      85.1413       0.0271    6461.7238    6461.7507    6458.9222    6459.2294       0.3070
     168.0    5086.7395 1566781.0000    3978.0146     132.8201     133.4568       0.0457    6464.3996    6464.4451     133.1843         31      86.1413       0.0077    6461.5812    6461.5888    6458.8445    6459.1150       0.2704
     169.0    5071.7285 1566781.0000    3978.0146     132.8231     133.4580       0.0472    6464.4891    6464.5362     133.1850         31      87.1413      -0.0097    6462.3721    6462.3622    6459.5374    6459.7752       0.2376
     170.0    5050.8608 1566781.0000    3978.0146     132.8212     133.4581       0.0491    6464.4307    6464.4799     133.1856         31      88.1413      -0.0209    6451.7539    6451.7329    6449.1186    6449.3312       0.2128
     171.0    4972.2715 1566781.0000    3978.0146     132.8155     133.4590       0.0500    6464.5091    6464.5589     133.1850         31      89.1413      -0.0243    6419.1460    6419.1216    6417.1742    6417.3679       0.1938
     172.0    4976.8918 1566781.0000    3978.0146     132.8177     133.4619       0.0497    6464.6312    6464.6808     133.1860         31      90.1413      -0.0192    6418.4336    6418.4145    6416.1785    6416.3588       0.1804
     173.0    4959.4128 1566781.0000    3978.0146     132.8178     133.4612       0.0475    6464.6703    6464.7179     133.1870         31      91.1413      -0.0068    6417.6010    6417.5943    6415.4139    6415.5870       0.1732
     174.0    4960.2295 1566781.0000    3978.0146     132.8178     133.4628       0.0448    6464.7769    6464.8218     133.1877         31      92.1413       0.0069    6414.4228    6414.4296    6412.0926    6412.2602       0.1674
     175.0    4922.7484 1566781.0000    3978.0146     132.8190     133.4639       0.0462    6464.7354    6464.7815     133.1882         31      93.1413       0.0153    6411.7256    6411.7410    6408.1001    6408.2577       0.1577
     176.0    4997.1171 1566781.0000    3978.0146     132.8188     133.4643       0.0554    6464.7397    6464.7951     133.1885         31      94.1413       0.0185    6409.3560    6409.3743    6404.4668    6404.6107       0.1440
     177.0    5089.0000 1566781.0000    3978.0146     132.8205     133.4631       0.0719    6464.6576    6464.7297     133.1889         31      95.1413       0.0228    6400.5312    6400.5539    6392.7462    6392.8788       0.1328
     178.0    5087.0221 1566781.0000    3978.0146     132.8197     133.4650       0.0895    6464.6265    6464.7159     133.1890         31      96.1413       0.0323    6387.9502    6387.9826    6380.7236    6380.8537       0.1302
     179.0    5071.0441 1566781.0000    3978.0146     132.8193     133.4673       0.1022    6464.3477    6464.4497     133.1894         31      97.1413       0.0448    6380.8076    6380.8523    6375.1419    6375.2799       0.1379
     180.0    5050.9559 1566781.0000    3978.0146     132.8179     133.4688       0.1067    6464.6074    6464.7139     133.1897         31      98.1413       0.0582    6371.4180    6371.4762    6369.1397    6369.2934       0.1538
     181.0    5067.2295 1566781.0000    3978.0146     132.8228     133.4753       0.1032    6464.7058    6464.8089     133.1904         31      99.1413       0.0721    6372.7311    6372.8032    6370.4360    6370.6099       0.1738
     182.0    5009.2626 1566781.0000    3978.0146     132.8259     133.4761       0.0927    6464.6465    6464.7390     133.1909         31     100.1413       0.0827    6374.5723    6374.6549    6372.1226    6372.3161       0.1935
     183.0    4948.8036 1566781.0000    3978.0146     132.8253     133.4753       0.0781    6464.7598    6464.8378     133.1915         31     101.1413       0.0848    6375.3781    6375.4628    6372.9819    6373.1924       0.2105
     184.0    4975.7395 1566781.0000    3978.0146     132.8274     133.4766       0.0655    6464.7952    6464.8607     133.1923         31     102.1413       0.0774    6375.3348    6375.4123    6372.8347    6373.0576       0.2227
     185.0    4966.0972 1566781.0000    3978.0146     132.8317     133.4785       0.0590    6464.8551    6464.9140     133.1930         31     103.1413       0.0653    6372.7281    6372.7934    6370.0141    6370.2402       0.2261
     186.0    4980.5452 1566781.0000    3978.0146     132.8279     133.4784       0.0574    6464.9141    6464.9716     133.1934         31     104.1413       0.0504    6368.5800    6368.6305    6366.1420    6366.3591       0.2170
