~VERSION INFORMATION
VERS.           2.0   :CWLS Log ASCII Standard - VERSION 2.0
WRAP.           NO    :One Line per depth step
PROD.  Schlumberger   :LAS Producer
PROG.  DLIS to ASCII 2.2                               :LAS Program name and version
CREA.        2020/10/30 12:18                          :LAS Creation date {YYYY/MM/DD hh:mm}
SOURCE.     XPT_HRLA_TLD_MCFL_049LTP.DLIS              :DLIS File Name
FILE-ID.     XPT_HRLA_TLD_MCFL_049LTP                  :File Identification Number
#--------------------------------------------------
~WELL INFORMATION
#MNEM.UNIT      DATA             DESCRIPTION
#---- ------ --------------   -----------------------------
STRT .S          815.0       :START TIME      
STOP .S         1341.0       :STOP TIME      
STEP .S            1.0       :STEP     
NULL .          -999.25      :NULL VALUE
COMP .        Nexus Energy                             :COMPANY
WELL .        Crux-3                                   :WELL
FLD  .        Crux                                     :FIELD
LOC  .        Easting: 656981.7mE                      :LOCATION
CNTY .        Sedco-703                                :COUNTY
STAT .        Northern Territory                       :STATE
CTRY .        Australia                                :COUNTRY
API  .                                                 :API NUMBER
UWI  .                                                 :UNIQUE WELL ID
DATE .        31-Dec-2007                              :LOG DATE {DD-MMM-YYYY}
SRVC .        Schlumberger                             :SERVICE COMPANY
LATI .DEG     12*57'32.63" S                           :LATITUDE
LONG .DEG     124*26'50.07" E                          :LONGITUDE
GDAT .                                                 :GeoDetic Datum
#-----------------------------------------------------------------------------
~PARAMETER INFORMATION
#MNEM.UNIT    VALUE                      DESCRIPTION
#---- -----   --------------------       ------------------------
RUN  .          1                        :RUN NUMBER
PDAT .        LAT                        :Permanent Datum
EPD  .M           0.000000               :Elevation of Permanent Datum above Mean Sea Level
EPD  .M           0.000000               :Elevation of tool zero above Mean Sea Level
LMF  .          DF                       :Logging Measured From (Name of Logging Elevation Reference)
APD  .M          26.400000               :Elevation of Depth Reference (LMF) above Permanent Datum
#-----------------------------------------------------------------------------
~CURVE INFORMATION
#MNEM.UNIT   API CODE                                  DESCRIPTION
#---- -----  --------                                  -----------------------
TIME .S                                                :TIME {F10.1}
TENS_SL.LBF                                            :Cable Tension {F13.4}
DEPT_SL..1IN                                           :Station logging depth {F13.4}
PDEP_XPT.M                                             :XPT Probe Depth {F13.4}
MTEP_SAP.DEGC                                          :Sapphire Gauge Manometer Temperature {F13.4}
MTEP_HYD.DEGC                                          :Hydrostatic Sapphire Gauge Manometer Temperature {F13.4}
PCO_HYD.PSI                                            :Hydrostatic Sapphire Dynamic Compensation {F13.4}
PND_HYD.PSI                                            :Hydrostatic Sapphire Pressure Without Dynamic Compensation {F13.4}
CP_HYD.PSI                                             :Hydrostatic Sapphire Pressure With Dynamic Compensation {F13.4}
MTEP_QG.DEGC                                           :CQG Manometer Temperature {F13.4}
PTNO_XPT.                                              :XPT Pretest Number {I11}
ETIM_XPT.S                                             :Elapsed Logging Time {F13.4}
PCO_SAP.PSI                                            :Sapphire Dynamic Compensation {F13.4}
PND_SAP.PSI                                            :Sapphire Pressure Without Dynamic Compensation {F13.4}
CP_SAP.PSI                                             :Sapphire Pressure With Dynamic Compensation {F13.4}
QNDP .PSI                                              :CQG Pressure Without Dynamic Compensation {F13.4}
QCP  .PSI                                              :CQG Pressure With Dynamic Compensation {F13.4}
QPCO .PSI                                              :CQG Dynamic Compensation {F13.4}
#-----------------------------------------------------------------------------
# 
#     TIME      TENS_SL      DEPT_SL      PDEP_XPT     MTEP_SAP     MTEP_HYD     PCO_HYD      PND_HYD       CP_HYD      MTEP_QG       PTNO_XPT       ETIM_XPT     PCO_SAP      PND_SAP       CP_SAP        QNDP         QCP          QPCO
#
~A  
# ...
    1270.0    4706.4137 1451040.0000    3684.0325     122.3600     122.9370       0.0128    5998.4131    5998.4258     122.9090         14     455.4819       0.0149    5534.3261    5534.3411    5531.5895    5531.6802       0.0907
    1271.0    4650.0981 1451040.0000    3684.0325     122.3604     122.9380       0.0131    5998.4593    5998.4723     122.9093         14     456.4819       0.0150    5534.3249    5534.3400    5531.5905    5531.6803       0.0897
    1272.0    4624.3263 1451040.0000    3684.0325     122.3602     122.9389       0.0150    5998.5170    5998.5321     122.9098         14     457.4819       0.0145    5534.2522    5534.2669    5531.5899    5531.6797       0.0898
    1273.0    4626.0831 1451040.0000    3684.0325     122.3621     122.9374       0.0169    5998.5101    5998.5268     122.9097         14     458.4819       0.0125    5534.3389    5534.3514    5531.5911    5531.6811       0.0901
    1274.0    4645.7100 1451040.0000    3684.0325     122.3601     122.9386       0.0180    5998.6217    5998.6398     122.9102         14     459.4819       0.0100    5534.2746    5534.2846    5531.5911    5531.6815       0.0902
    1275.0    4652.0725 1451040.0000    3684.0325     122.3616     122.9396       0.0187    5998.5605    5998.5791     122.9104         14     460.4819       0.0086    5534.3966    5534.4054    5531.5898    5531.6801       0.0906
    1276.0    4698.6694 1451040.0000    3684.0325     122.3625     122.9399       0.0184    5998.5466    5998.5651     122.9105         14     461.4819       0.0097    5534.3401    5534.3496    5531.5886    5531.6800       0.0913
    1277.0    4730.7612 1451040.0000    3684.0325     122.3613     122.9404       0.0168    5998.4487    5998.4655     122.9110         14     462.4819       0.0121    5534.3163    5534.3284    5531.5929    5531.6847       0.0919
    1278.0    4698.3988 1451040.0000    3684.0325     122.3604     122.9403       0.0148    5998.4249    5998.4396     122.9114         14     463.4819       0.0147    5534.2665    5534.2810    5531.5896    5531.6809       0.0916
    1279.0    4701.4563 1451040.0000    3684.0325     122.3623     122.9399       0.0143    5998.2698    5998.2841     122.9118         14     464.4819       0.0172    5534.3682    5534.3855    5531.5910    5531.6818       0.0909
    1280.0    4739.1663 1451040.0000    3684.0325     122.3625     122.9411       0.0159    5998.3252    5998.3411     122.9120         14     465.4819       0.0189    5534.3866    5534.4054    5531.5948    5531.6855       0.0906
    1281.0    4755.2900 1451040.0000    3684.0325     122.3621     122.9412       0.0182    5998.3933    5998.4114     122.9121         14     466.4819       0.0176    5534.3550    5534.3726    5531.5920    5531.6828       0.0906
    1282.0    4695.4394 1451040.0000    3684.0325     122.3629     122.9406       0.0203    5998.4076    5998.4278     122.9126         14     467.4819       0.0126    5534.3680    5534.3808    5531.5967    5531.6875       0.0909
    1283.0    4635.6631 1451040.0000    3684.0325     122.3648     122.9427       0.0218    5998.4727    5998.4944     122.9126         14     468.4819       0.0072    5534.3712    5534.3785    5531.5933    5531.6841       0.0909
    1284.0    4621.3625 1451040.0000    3684.0325     122.3644     122.9398       0.0217    5998.4988    5998.5203     122.9131         14     469.4819       0.0049    5534.2612    5534.2661    5531.5939    5531.6852       0.0911
    1285.0    4610.0363 1451040.0000    3684.0325     122.3634     122.9434       0.0205    5998.6597    5998.6800     122.9132         14     470.4819       0.0064    5534.2641    5534.2705    5531.5928    5531.6846       0.0918
    1286.0    4615.2644 1451040.0000    3684.0325     122.3634     122.9434       0.0192    5998.6597    5998.6789     122.9138         14     471.4819       0.0107    5534.2872    5534.2978    5531.5914    5531.6834       0.0920
    1287.0    4635.4925 1451040.0000    3684.0325     122.3629     122.9441       0.0185    5998.5469    5998.5655     122.9140         14     472.4819       0.0167    5534.2949    5534.3118    5531.5934    5531.6852       0.0917
    1288.0    4701.5606 1451040.0000    3684.0325     122.3643     122.9440       0.0184    5998.5462    5998.5648     122.9143         14     473.4819       0.0224    5534.2962    5534.3184    5531.5940    5531.6853       0.0915
    1289.0    4745.9169 1451040.0000    3684.0325     122.3635     122.9434       0.0192    5998.4209    5998.4402     122.9146         14     474.4819       0.0249    5534.3114    5534.3363    5531.5915    5531.6835       0.0922
    1290.0    4711.3519 1451040.0000    3684.0325     122.3654     122.9442       0.0209    5998.4287    5998.4497     122.9148         14     475.4819       0.0280    5534.3036    5534.3317    5531.5905    5531.6915       0.1010
    1291.0    4693.7463 1451040.0000    3684.0325     122.3670     122.9443       0.0224    5998.3452    5998.3678     122.9150         14     476.4819       0.0697    5534.3610    5534.4308    5531.5920    5531.7678       0.1759
    1292.0    4727.0212 1451040.0000    3684.0325     122.3665     122.9444       0.0231    5998.2333    5998.2563     122.9156         14     477.4819       0.1955    5535.9155    5536.1108    5533.1490    5533.5346       0.3855
    1293.0    4723.1963 1451040.0000    3684.0325     122.3661     122.9472       0.0229    5998.2606    5998.2835     122.9159         14     478.4819       0.3979    5535.4178    5535.8157    5532.6992    5533.4168       0.7175
    1294.0    4693.3369 1451040.0000    3684.0325     122.3652     122.9459       0.0217    5998.3355    5998.3572     122.9159         14     479.4819       0.6010    5536.4092    5537.0102    5533.6936    5534.7631       1.0694
    1295.0    4684.9894 1451040.0000    3684.0325     122.3661     122.9457       0.0187    5998.3667    5998.3856     122.9163         14     480.4819       0.7247    5534.5409    5535.2655    5531.8980    5533.2432       1.3453
    1296.0    4648.3519 1451040.0000    3684.0325     122.4252     122.9470       0.0155    5998.3349    5998.3506     122.9352         14     481.4819       0.7519    5959.7167    5960.4684    5948.2893    5949.8288       1.5397
    1297.0    4614.3625 1451040.0000    3684.0325     122.4486     122.9474       0.0136    5998.5226    5998.5363     122.9393         14     482.4819       0.6817    6000.4783    6001.1601    5992.2208    5993.8622       1.6414
    1298.0    4630.0212 1451040.0000    3684.0325     122.4528     122.9469       0.0132    5998.4576    5998.4707     122.9419         14     483.4819       0.5111    6000.0635    6000.5746    5992.3514    5993.9647       1.6134
    1299.0    4702.8144 1451040.0000    3684.0325     122.4518     122.9465       0.0131    5998.3330    5998.3462     122.9455         14     484.4819       0.2592    5999.4487    5999.7079    5992.4808    5993.9345       1.4537
    1300.0    4753.4094 1451040.0000    3684.0325     122.4473     122.9476       0.0138    5998.4043    5998.4181     122.9496         14     485.4819       0.0082    5998.8601    5998.8685    5992.6976    5993.9526       1.2549
    1301.0    4746.8444 1451040.0000    3684.0325     122.4417     122.9480       0.0168    5998.3598    5998.3765     122.9535         14     486.4819      -0.1586    5998.4056    5998.2471    5992.9333    5994.0446       1.1113
    1302.0    4728.8081 1451040.0000    3684.0325     122.4376     122.9483       0.0208    5998.2047    5998.2256     122.9571         14     487.4819      -0.2294    5998.0099    5997.7803    5993.0775    5994.1023       1.0249
    1303.0    4706.9894 1451040.0000    3684.0325     122.4322     122.9487       0.0234    5998.2746    5998.2981     122.9606         14     488.4819      -0.2427    5997.6464    5997.4036    5993.1364    5994.0867       0.9502
    1304.0    4658.3050 1451040.0000    3684.0325     122.4272     122.9480       0.0235    5998.3850    5998.4085     122.9635         14     489.4819      -0.2389    5997.4617    5997.2227    5993.3721    5994.2278       0.8558
