~VERSION INFORMATION
VERS.           2.0   :CWLS Log ASCII Standard - VERSION 2.0
WRAP.           NO    :One Line per depth step
PROD.  Schlumberger   :LAS Producer
PROG.  DLIS to ASCII 2.2                               :LAS Program name and version
CREA.        2020/10/30 12:18                          :LAS Creation date {YYYY/MM/DD hh:mm}
SOURCE.     XPT_HRLA_TLD_MCFL_040LTP.DLIS              :DLIS File Name
FILE-ID.     XPT_HRLA_TLD_MCFL_040LTP                  :File Identification Number
#--------------------------------------------------
~WELL INFORMATION
#MNEM.UNIT      DATA             DESCRIPTION
#---- ------ --------------   -----------------------------
STRT .S          916.0       :START TIME      
STOP .S         1395.0       :STOP TIME      
STEP .S            1.0       :STEP     
NULL .          -999.25      :NULL VALUE
COMP .        Nexus Energy                             :COMPANY
WELL .        Crux-3                                   :WELL
FLD  .        Crux                                     :FIELD
LOC  .        Easting: 656981.7mE                      :LOCATION
CNTY .        Sedco-703                                :COUNTY
STAT .        Northern Territory                       :STATE
CTRY .        Australia                                :COUNTRY
API  .                                                 :API NUMBER
UWI  .                                                 :UNIQUE WELL ID
DATE .        31-Dec-2007                              :LOG DATE {DD-MMM-YYYY}
SRVC .        Schlumberger                             :SERVICE COMPANY
LATI .DEG     12*57'32.63" S                           :LATITUDE
LONG .DEG     124*26'50.07" E                          :LONGITUDE
GDAT .                                                 :GeoDetic Datum
#-----------------------------------------------------------------------------
~PARAMETER INFORMATION
#MNEM.UNIT    VALUE                      DESCRIPTION
#---- -----   --------------------       ------------------------
RUN  .          1                        :RUN NUMBER
PDAT .        LAT                        :Permanent Datum
EPD  .M           0.000000               :Elevation of Permanent Datum above Mean Sea Level
EPD  .M           0.000000               :Elevation of tool zero above Mean Sea Level
LMF  .          DF                       :Logging Measured From (Name of Logging Elevation Reference)
APD  .M          26.400000               :Elevation of Depth Reference (LMF) above Permanent Datum
#-----------------------------------------------------------------------------
~CURVE INFORMATION
#MNEM.UNIT   API CODE                                  DESCRIPTION
#---- -----  --------                                  -----------------------
TIME .S                                                :TIME {F10.1}
TENS_SL.LBF                                            :Cable Tension {F13.4}
DEPT_SL..1IN                                           :Station logging depth {F13.4}
PDEP_XPT.M                                             :XPT Probe Depth {F13.4}
MTEP_SAP.DEGC                                          :Sapphire Gauge Manometer Temperature {F13.4}
MTEP_HYD.DEGC                                          :Hydrostatic Sapphire Gauge Manometer Temperature {F13.4}
PCO_HYD.PSI                                            :Hydrostatic Sapphire Dynamic Compensation {F13.4}
PND_HYD.PSI                                            :Hydrostatic Sapphire Pressure Without Dynamic Compensation {F13.4}
CP_HYD.PSI                                             :Hydrostatic Sapphire Pressure With Dynamic Compensation {F13.4}
MTEP_QG.DEGC                                           :CQG Manometer Temperature {F13.4}
PTNO_XPT.                                              :XPT Pretest Number {I11}
ETIM_XPT.S                                             :Elapsed Logging Time {F13.4}
PCO_SAP.PSI                                            :Sapphire Dynamic Compensation {F13.4}
PND_SAP.PSI                                            :Sapphire Pressure Without Dynamic Compensation {F13.4}
CP_SAP.PSI                                             :Sapphire Pressure With Dynamic Compensation {F13.4}
QNDP .PSI                                              :CQG Pressure Without Dynamic Compensation {F13.4}
QCP  .PSI                                              :CQG Pressure With Dynamic Compensation {F13.4}
QPCO .PSI                                              :CQG Dynamic Compensation {F13.4}
#-----------------------------------------------------------------------------
# 
#     TIME      TENS_SL      DEPT_SL      PDEP_XPT     MTEP_SAP     MTEP_HYD     PCO_HYD      PND_HYD       CP_HYD      MTEP_QG       PTNO_XPT       ETIM_XPT     PCO_SAP      PND_SAP       CP_SAP        QNDP         QCP          QPCO
#
~A  
# ...
     986.0    4767.0609 1419728.0000    3604.5000     119.1213     119.6780       0.0059    5871.3629    5871.3687     119.6835          4      69.8453       0.0094    5869.6427    5869.6520    5867.0808    5867.1409       0.0600
     987.0    4779.2984 1419728.0000    3604.5000     119.1218     119.6783       0.0079    5871.3635    5871.3714     119.6836          4      70.8453       0.0098    5869.6526    5869.6624    5867.0902    5867.1493       0.0593
     988.0    4776.7734 1419728.0000    3604.5000     119.1210     119.6793       0.0083    5871.2289    5871.2372     119.6838          4      71.8453       0.0094    5869.5340    5869.5435    5866.9071    5866.9643       0.0572
     989.0    4778.5359 1419728.0000    3604.5000     119.1225     119.6775       0.0070    5871.2464    5871.2533     119.6843          4      72.8453       0.0058    5869.5987    5869.6044    5866.9898    5867.0401       0.0503
     990.0    4774.7734 1419728.0000    3604.5000     119.1207     119.6803       0.0051    5871.4463    5871.4516     119.6845          4      73.8453      -0.0016    5869.5865    5869.5851    5867.0609    5867.0966       0.0357
     991.0    4706.3750 1419728.0000    3604.5000     119.1222     119.6788       0.0041    5871.4897    5871.4939     119.6843          4      74.8453      -0.0122    5869.6738    5869.6616    5867.0705    5867.0855       0.0151
     992.0    4683.8562 1419728.0000    3604.5000     119.1220     119.6787       0.0044    5871.4194    5871.4238     119.6846          4      75.8453      -0.0243    5869.7424    5869.7182    5867.1788    5867.1704      -0.0082
     993.0    4689.6078 1419728.0000    3604.5000     119.1220     119.6788       0.0060    5871.5493    5871.5553     119.6847          4      76.8453      -0.0360    5865.6587    5865.6226    5860.1753    5860.1424      -0.0330
     994.0    4680.0109 1419728.0000    3604.5000     119.1196     119.6788       0.0107    5871.6089    5871.6196     119.6841          4      77.8453      -0.0435    5850.5259    5850.4824    5844.9245    5844.8660      -0.0585
     995.0    4665.3203 1419728.0000    3604.5000     119.1183     119.6795       0.0208    5871.6167    5871.6375     119.6841          4      78.8453      -0.0435    5841.6255    5841.5819    5839.4219    5839.3423      -0.0798
     996.0    4667.2266 1419728.0000    3604.5000     119.1180     119.6803       0.0350    5871.5649    5871.5998     119.6836          4      79.8453      -0.0347    5836.6450    5836.6104    5834.4072    5834.3163      -0.0907
     997.0    4737.3156 1419728.0000    3604.5000     119.1162     119.6795       0.0472    5871.4976    5871.5449     119.6833          4      80.8453      -0.0209    5830.9395    5830.9186    5828.7329    5828.6426      -0.0903
     998.0    4774.5141 1419728.0000    3604.5000     119.1156     119.6807       0.0528    5871.5107    5871.5634     119.6828          4      81.8453      -0.0058    5821.6308    5821.6252    5818.4173    5818.3342      -0.0830
     999.0    4781.5359 1419728.0000    3604.5000     119.1159     119.6817       0.0523    5871.5027    5871.5548     119.6825          4      82.8453       0.0091    5819.0500    5819.0589    5814.4098    5814.3371      -0.0725
    1000.0    4774.3922 1419728.0000    3604.5000     119.1178     119.6863       0.0472    5871.5674    5871.6145     119.6823          4      83.8453       0.0222    5816.1411    5816.1633    5813.8091    5813.7499      -0.0592
    1001.0    4767.0828 1419728.0000    3604.5000     119.1187     119.6843       0.0376    5871.4378    5871.4755     119.6825          4      84.8453       0.0301    5817.2745    5817.3046    5814.7673    5814.7221      -0.0452
    1002.0    4696.6844 1419728.0000    3604.5000     119.1177     119.6857       0.0243    5871.5038    5871.5281     119.6822          4      85.8453       0.0294    5818.0333    5818.0627    5815.5486    5815.5127      -0.0361
    1003.0    4688.2266 1419728.0000    3604.5000     119.1201     119.6854       0.0127    5871.5136    5871.5263     119.6821          4      86.8453       0.0222    5818.7216    5818.7439    5816.1540    5816.1169      -0.0370
    1004.0    4684.7734 1419728.0000    3604.5000     119.1203     119.6854       0.0066    5871.6028    5871.6093     119.6823          4      87.8453       0.0120    5818.7753    5818.7872    5816.1270    5816.0798      -0.0473
    1005.0    4673.0109 1419728.0000    3604.5000     119.1196     119.6849       0.0058    5871.6653    5871.6712     119.6820          4      88.8453      -0.0007    5819.2007    5819.2000    5816.4701    5816.4063      -0.0637
    1006.0    4713.2656 1419728.0000    3604.5000     119.1195     119.6856       0.0078    5871.5596    5871.5674     119.6818          4      89.8453      -0.0159    5816.0780    5816.0620    5813.5170    5813.4334      -0.0835
    1007.0    4734.5250 1419728.0000    3604.5000     119.1184     119.6863       0.0105    5871.5709    5871.5815     119.6813          4      90.8453      -0.0307    5804.0127    5803.9822    5801.5542    5801.4494      -0.1049
    1008.0    4763.2047 1419728.0000    3604.5000     119.1189     119.6863       0.0128    5871.5011    5871.5139     119.6810          4      91.8453      -0.0406    5795.9579    5795.9171    5793.3932    5793.2673      -0.1259
    1009.0    4769.6906 1419728.0000    3604.5000     119.1182     119.6860       0.0138    5871.5040    5871.5177     119.6804          4      92.8453      -0.0464    5785.1324    5785.0860    5782.7226    5782.5789      -0.1436
    1010.0    4756.4750 1419728.0000    3604.5000     119.1168     119.6884       0.0132    5871.5293    5871.5426     119.6800          4      93.8453      -0.0497    5774.3583    5774.3086    5772.1533    5771.9967      -0.1567
    1011.0    4754.0000 1419728.0000    3604.5000     119.1149     119.6863       0.0112    5871.4539    5871.4650     119.6795          4      94.8453      -0.0449    5767.1186    5767.0739    5764.8667    5764.7091      -0.1577
    1012.0    4710.0437 1419728.0000    3604.5000     119.1154     119.6881       0.0082    5871.5998    5871.6081     119.6788          4      95.8453      -0.0161    5758.4856    5758.4695    5756.1930    5756.0668      -0.1264
    1013.0    4685.9391 1419728.0000    3604.5000     119.1119     119.6883       0.0053    5871.6472    5871.6523     119.6783          4      96.8453       0.0448    5750.3189    5750.3637    5748.0371    5747.9889      -0.0482
    1014.0    4661.0219 1419728.0000    3604.5000     119.1118     119.6878       0.0030    5871.6920    5871.6948     119.6777          4      97.8453       0.1235    5740.3925    5740.5161    5738.2773    5738.3402       0.0628
    1015.0    4678.1328 1419728.0000    3604.5000     119.1136     119.6864       0.0025    5871.6125    5871.6152     119.6772          4      98.8453       0.1928    5736.0044    5736.1972    5733.6290    5733.8028       0.1737
    1016.0    4708.2047 1419728.0000    3604.5000     119.1145     119.6877       0.0048    5871.6416    5871.6463     119.6764          4      99.8453       0.2354    5730.8551    5731.0907    5728.6234    5728.8879       0.2646
    1017.0    4771.3266 1419728.0000    3604.5000     119.1354     119.6876       0.0083    5871.5901    5871.5984     119.6827          4     100.8453       0.2510    5871.0802    5871.3312    5866.8410    5867.1783       0.3375
    1018.0    4776.9281 1419728.0000    3604.5000     119.1392     119.6871       0.0100    5871.5138    5871.5238     119.6829          4     101.8453       0.2405    5870.7693    5871.0099    5866.7898    5867.1819       0.3920
    1019.0    4751.4859 1419728.0000    3604.5000     119.1406     119.6877       0.0087    5871.6088    5871.6176     119.6835          4     102.8453       0.2051    5870.5860    5870.7910    5866.7616    5867.1807       0.4192
    1020.0    4731.7844 1419728.0000    3604.5000     119.1400     119.6885       0.0061    5871.4800    5871.4862     119.6841          4     103.8453       0.1548    5870.6191    5870.7741    5866.8794    5867.3032       0.4240
