~VERSION INFORMATION
VERS.           2.0   :CWLS Log ASCII Standard - VERSION 2.0
WRAP.           NO    :One Line per depth step
PROD.  Schlumberger   :LAS Producer
PROG.  DLIS to ASCII 2.2                               :LAS Program name and version
CREA.        2020/10/30 12:18                          :LAS Creation date {YYYY/MM/DD hh:mm}
SOURCE.     XPT_HRLA_TLD_MCFL_046LTP.DLIS              :DLIS File Name
FILE-ID.     XPT_HRLA_TLD_MCFL_046LTP                  :File Identification Number
#--------------------------------------------------
~WELL INFORMATION
#MNEM.UNIT      DATA             DESCRIPTION
#---- ------ --------------   -----------------------------
STRT .S         4617.0       :START TIME      
STOP .S         5507.0       :STOP TIME      
STEP .S            1.0       :STEP     
NULL .          -999.25      :NULL VALUE
COMP .        Nexus Energy                             :COMPANY
WELL .        Crux-3                                   :WELL
FLD  .        Crux                                     :FIELD
LOC  .        Easting: 656981.7mE                      :LOCATION
CNTY .        Sedco-703                                :COUNTY
STAT .        Northern Territory                       :STATE
CTRY .        Australia                                :COUNTRY
API  .                                                 :API NUMBER
UWI  .                                                 :UNIQUE WELL ID
DATE .        31-Dec-2007                              :LOG DATE {DD-MMM-YYYY}
SRVC .        Schlumberger                             :SERVICE COMPANY
LATI .DEG     12*57'32.63" S                           :LATITUDE
LONG .DEG     124*26'50.07" E                          :LONGITUDE
GDAT .                                                 :GeoDetic Datum
#-----------------------------------------------------------------------------
~PARAMETER INFORMATION
#MNEM.UNIT    VALUE                      DESCRIPTION
#---- -----   --------------------       ------------------------
RUN  .          1                        :RUN NUMBER
PDAT .        LAT                        :Permanent Datum
EPD  .M           0.000000               :Elevation of Permanent Datum above Mean Sea Level
EPD  .M           0.000000               :Elevation of tool zero above Mean Sea Level
LMF  .          DF                       :Logging Measured From (Name of Logging Elevation Reference)
APD  .M          26.400000               :Elevation of Depth Reference (LMF) above Permanent Datum
#-----------------------------------------------------------------------------
~CURVE INFORMATION
#MNEM.UNIT   API CODE                                  DESCRIPTION
#---- -----  --------                                  -----------------------
TIME .S                                                :TIME {F10.1}
TENS_SL.LBF                                            :Cable Tension {F13.4}
DEPT_SL..1IN                                           :Station logging depth {F13.4}
PDEP_XPT.M                                             :XPT Probe Depth {F13.4}
MTEP_SAP.DEGC                                          :Sapphire Gauge Manometer Temperature {F13.4}
MTEP_HYD.DEGC                                          :Hydrostatic Sapphire Gauge Manometer Temperature {F13.4}
PCO_HYD.PSI                                            :Hydrostatic Sapphire Dynamic Compensation {F13.4}
PND_HYD.PSI                                            :Hydrostatic Sapphire Pressure Without Dynamic Compensation {F13.4}
CP_HYD.PSI                                             :Hydrostatic Sapphire Pressure With Dynamic Compensation {F13.4}
MTEP_QG.DEGC                                           :CQG Manometer Temperature {F13.4}
PTNO_XPT.                                              :XPT Pretest Number {I11}
ETIM_XPT.S                                             :Elapsed Logging Time {F13.4}
PCO_SAP.PSI                                            :Sapphire Dynamic Compensation {F13.4}
PND_SAP.PSI                                            :Sapphire Pressure Without Dynamic Compensation {F13.4}
CP_SAP.PSI                                             :Sapphire Pressure With Dynamic Compensation {F13.4}
QNDP .PSI                                              :CQG Pressure Without Dynamic Compensation {F13.4}
QCP  .PSI                                              :CQG Pressure With Dynamic Compensation {F13.4}
QPCO .PSI                                              :CQG Dynamic Compensation {F13.4}
#-----------------------------------------------------------------------------
# 
#     TIME      TENS_SL      DEPT_SL      PDEP_XPT     MTEP_SAP     MTEP_HYD     PCO_HYD      PND_HYD       CP_HYD      MTEP_QG       PTNO_XPT       ETIM_XPT     PCO_SAP      PND_SAP       CP_SAP        QNDP         QCP          QPCO
#
~A  
# ...
    4792.0    4812.3210 1443523.0000    3664.9392     121.6289     122.4027       0.0055    5967.6162    5967.6218     122.3765          9     174.6870       0.5495    4641.1569    4641.7064    4646.9385    4644.2770      -2.6616
    4793.0    4760.2840 1443523.0000    3664.9392     121.6588     122.4028       0.0033    5967.5664    5967.5697     122.3691          9     175.6870       1.0195    4720.1532    4721.1729    4722.6221    4720.5296      -2.0923
    4794.0    4754.1140 1443523.0000    3664.9392     121.6855     122.4013       0.0008    5967.6089    5967.6099     122.3633          9     176.6870       1.2418    4787.2579    4788.4998    4787.5739    4785.9352      -1.6387
    4795.0    4723.9020 1443523.0000    3664.9392     121.7117     122.4013      -0.0007    5967.6699    5967.6693     122.3586          9     177.6870       1.2574    4846.9080    4848.1653    4845.2051    4843.9304      -1.2745
    4796.0    4712.4960 1443523.0000    3664.9392     121.7358     122.4015       0.0002    5967.6948    5967.6949     122.3545          9     178.6870       1.1614    4899.1099    4900.2712    4896.2194    4895.2778      -0.9416
    4797.0    4721.1830 1443523.0000    3664.9392     121.7562     122.4015       0.0029    5967.6916    5967.6945     122.3519          9     179.6870       1.0277    4939.3110    4940.3387    4935.6174    4935.0061      -0.6114
    4798.0    4778.9600 1443523.0000    3664.9392     121.7704     122.4012       0.0053    5967.4982    5967.5033     122.3507          9     180.6870       0.8930    4975.7014    4976.5945    4971.4816    4971.1905      -0.2911
    4799.0    4823.9230 1443523.0000    3664.9392     121.7871     122.4023       0.0061    5967.6020    5967.6079     122.3507          9     181.6870       0.7704    5013.0884    5013.8587    5008.4468    5008.4508       0.0040
    4800.0    4833.6870 1443523.0000    3664.9392     121.7997     122.4025       0.0061    5967.5449    5967.5508     122.3514          9     182.6870       0.6643    5046.4854    5047.1498    5041.5145    5041.7793       0.2649
    4801.0    4834.6870 1443523.0000    3664.9392     121.8093     122.4032       0.0058    5967.5186    5967.5243     122.3529          9     183.6870       0.5728    5078.4568    5079.0295    5073.3033    5073.7889       0.4855
    4802.0    4838.4350 1443523.0000    3664.9392     121.8198     122.4025       0.0053    5967.5034    5967.5088     122.3553          9     184.6870       0.4912    5109.9104    5110.4017    5104.5606    5105.2271       0.6666
    4803.0    4813.2070 1443523.0000    3664.9392     121.8263     122.4018       0.0051    5967.5150    5967.5199     122.3579          9     185.6870       0.4174    5136.1788    5136.5962    5130.8792    5131.6895       0.8105
    4804.0    4748.1010 1443523.0000    3664.9392     121.8335     122.4026       0.0060    5967.5640    5967.5700     122.3608          9     186.6870       0.3524    5160.8265    5161.1787    5155.5475    5156.4677       0.9201
    4805.0    4749.4190 1443523.0000    3664.9392     121.8383     122.4025       0.0072    5967.6004    5967.6076     122.3642          9     187.6870       0.2962    5185.7231    5186.0192    5180.2512    5181.2510       0.9999
    4806.0    4765.1220 1443523.0000    3664.9392     121.8432     122.4033       0.0072    5967.6860    5967.6933     122.3677          9     188.6870       0.2466    5207.4195    5207.6662    5202.1363    5203.1904       1.0540
    4807.0    4762.1910 1443523.0000    3664.9392     121.8469     122.4023       0.0054    5967.6209    5967.6262     122.3715          9     189.6870       0.2021    5227.4437    5227.6456    5222.1606    5223.2464       1.0858
    4808.0    4728.3980 1443523.0000    3664.9392     121.8494     122.4029       0.0027    5967.7092    5967.7118     122.3754          9     190.6870       0.1620    5247.2884    5247.4503    5242.2011    5243.2994       1.0984
    4809.0    4757.2810 1443523.0000    3664.9392     121.8528     122.4031       0.0006    5967.6069    5967.6074     122.3788          9     191.6870       0.1276    5264.0784    5264.2058    5258.9416    5260.0364       1.0949
    4810.0    4777.0000 1443523.0000    3664.9392     121.8551     122.4031      -0.0004    5967.5514    5967.5509     122.3824          9     192.6870       0.0986    5279.1738    5279.2725    5273.9269    5275.0062       1.0795
    4811.0    4807.9150 1443523.0000    3664.9392     121.8571     122.4033      -0.0003    5967.5711    5967.5706     122.3861          9     193.6870       0.0728    5294.2346    5294.3074    5289.2407    5290.2974       1.0568
    4812.0    4839.1750 1443523.0000    3664.9392     121.8564     122.4020       0.0006    5967.3274    5967.3279     122.3892          9     194.6870       0.0497    5307.2127    5307.2623    5302.3172    5303.3473       1.0300
    4813.0    4855.9310 1443523.0000    3664.9392     121.8573     122.4033       0.0028    5967.4303    5967.4330     122.3926          9     195.6870       0.0323    5318.7614    5318.7936    5314.0321    5315.0318       0.9999
    4814.0    4850.3820 1443523.0000    3664.9392     121.8586     122.4037       0.0052    5967.5015    5967.5067     122.3958          9     196.6870       0.0220    5330.5023    5330.5242    5325.7790    5326.7463       0.9671
    4815.0    4791.7270 1443523.0000    3664.9392     121.8587     122.4035       0.0059    5967.4516    5967.4575     122.3987          9     197.6870       0.0156    5340.7223    5340.7381    5336.1205    5337.0526       0.9322
    4816.0    4734.7110 1443523.0000    3664.9392     121.8567     122.4036       0.0050    5967.5742    5967.5791     122.4021          9     198.6870       0.0092    5351.5553    5351.5645    5346.9781    5347.8736       0.8954
    4817.0    4713.8170 1443523.0000    3664.9392     121.8574     122.4035       0.0041    5967.5731    5967.5772     122.4049          9     199.6870       0.0030    5361.7465    5361.7495    5357.4004    5358.2566       0.8563
    4818.0    4721.9920 1443523.0000    3664.9392     121.8593     122.4043       0.0037    5967.6442    5967.6481     122.4075          9     200.6870      -0.0012    5370.6259    5370.6245    5366.3217    5367.1367       0.8152
    4819.0    4729.7480 1443523.0000    3664.9392     121.8568     122.4032       0.0024    5967.6904    5967.6927     122.4101          9     201.6870      -0.0046    5379.5542    5379.5495    5375.3781    5376.1512       0.7731
    4820.0    4752.9840 1443523.0000    3664.9392     121.8569     122.4039       0.0006    5967.6978    5967.6985     122.4127          9     202.6870      -0.0106    5387.3346    5387.3241    5383.3515    5384.0829       0.7313
    4821.0    4830.3260 1443523.0000    3664.9392     121.8581     122.4036       0.0003    5967.5755    5967.5760     122.4148          9     203.6870      -0.0180    5393.6233    5393.6054    5389.7640    5390.4549       0.6908
    4822.0    4847.9470 1443523.0000    3664.9392     121.8558     122.4042       0.0014    5967.4785    5967.4800     122.4168          9     204.6870      -0.0233    5400.1837    5400.1605    5396.4409    5397.0924       0.6518
    4823.0    4823.4510 1443523.0000    3664.9392     121.8584     122.4035       0.0017    5967.4842    5967.4858     122.4191          9     205.6870      -0.0245    5406.3040    5406.2796    5402.4981    5403.1127       0.6147
    4824.0    4825.3050 1443523.0000    3664.9392     121.8558     122.4035       0.0010    5967.4529    5967.4539     122.4211          9     206.6870      -0.0221    5411.5341    5411.5121    5407.7927    5408.3717       0.5793
    4825.0    4832.7480 1443523.0000    3664.9392     121.8561     122.4042       0.0018    5967.5723    5967.5740     122.4228          9     207.6870      -0.0179    5417.0993    5417.0815    5413.4258    5413.9713       0.5456
    4826.0    4770.7960 1443523.0000    3664.9392     121.8555     122.4041       0.0048    5967.5197    5967.5247     122.4245          9     208.6870      -0.0134    5422.0507    5422.0371    5418.4416    5418.9553       0.5137
