~VERSION INFORMATION
VERS.           2.0   :CWLS Log ASCII Standard - VERSION 2.0
WRAP.           NO    :One Line per depth step
PROD.  Schlumberger   :LAS Producer
PROG.  DLIS to ASCII 2.2                               :LAS Program name and version
CREA.        2020/10/30 12:18                          :LAS Creation date {YYYY/MM/DD hh:mm}
SOURCE.     XPT_HRLA_TLD_MCFL_068LTP.DLIS              :DLIS File Name
FILE-ID.     XPT_HRLA_TLD_MCFL_068LTP                  :File Identification Number
#--------------------------------------------------
~WELL INFORMATION
#MNEM.UNIT      DATA             DESCRIPTION
#---- ------ --------------   -----------------------------
STRT .S           82.0       :START TIME      
STOP .S          488.0       :STOP TIME      
STEP .S            1.0       :STEP     
NULL .          -999.25      :NULL VALUE
COMP .        Nexus Energy                             :COMPANY
WELL .        Crux-3                                   :WELL
FLD  .        Crux                                     :FIELD
LOC  .        Easting: 656981.7mE                      :LOCATION
CNTY .        Sedco-703                                :COUNTY
STAT .        Northern Territory                       :STATE
CTRY .        Australia                                :COUNTRY
API  .                                                 :API NUMBER
UWI  .                                                 :UNIQUE WELL ID
DATE .        31-Dec-2007                              :LOG DATE {DD-MMM-YYYY}
SRVC .        Schlumberger                             :SERVICE COMPANY
LATI .DEG     12*57'32.63" S                           :LATITUDE
LONG .DEG     124*26'50.07" E                          :LONGITUDE
GDAT .                                                 :GeoDetic Datum
#-----------------------------------------------------------------------------
~PARAMETER INFORMATION
#MNEM.UNIT    VALUE                      DESCRIPTION
#---- -----   --------------------       ------------------------
RUN  .          1                        :RUN NUMBER
PDAT .        LAT                        :Permanent Datum
EPD  .M           0.000000               :Elevation of Permanent Datum above Mean Sea Level
EPD  .M           0.000000               :Elevation of tool zero above Mean Sea Level
LMF  .          DF                       :Logging Measured From (Name of Logging Elevation Reference)
APD  .M          26.400000               :Elevation of Depth Reference (LMF) above Permanent Datum
#-----------------------------------------------------------------------------
~CURVE INFORMATION
#MNEM.UNIT   API CODE                                  DESCRIPTION
#---- -----  --------                                  -----------------------
TIME .S                                                :TIME {F10.1}
TENS_SL.LBF                                            :Cable Tension {F13.4}
DEPT_SL..1IN                                           :Station logging depth {F13.4}
PDEP_XPT.M                                             :XPT Probe Depth {F13.4}
MTEP_SAP.DEGC                                          :Sapphire Gauge Manometer Temperature {F13.4}
MTEP_HYD.DEGC                                          :Hydrostatic Sapphire Gauge Manometer Temperature {F13.4}
PCO_HYD.PSI                                            :Hydrostatic Sapphire Dynamic Compensation {F13.4}
PND_HYD.PSI                                            :Hydrostatic Sapphire Pressure Without Dynamic Compensation {F13.4}
CP_HYD.PSI                                             :Hydrostatic Sapphire Pressure With Dynamic Compensation {F13.4}
MTEP_QG.DEGC                                           :CQG Manometer Temperature {F13.4}
PTNO_XPT.                                              :XPT Pretest Number {I11}
ETIM_XPT.S                                             :Elapsed Logging Time {F13.4}
PCO_SAP.PSI                                            :Sapphire Dynamic Compensation {F13.4}
PND_SAP.PSI                                            :Sapphire Pressure Without Dynamic Compensation {F13.4}
CP_SAP.PSI                                             :Sapphire Pressure With Dynamic Compensation {F13.4}
QNDP .PSI                                              :CQG Pressure Without Dynamic Compensation {F13.4}
QCP  .PSI                                              :CQG Pressure With Dynamic Compensation {F13.4}
QPCO .PSI                                              :CQG Dynamic Compensation {F13.4}
#-----------------------------------------------------------------------------
# 
#     TIME      TENS_SL      DEPT_SL      PDEP_XPT     MTEP_SAP     MTEP_HYD     PCO_HYD      PND_HYD       CP_HYD      MTEP_QG       PTNO_XPT       ETIM_XPT     PCO_SAP      PND_SAP       CP_SAP        QNDP         QCP          QPCO
#
~A  
# ...
     257.0    4955.9669 1566781.0000    3978.0146     132.8775     133.5377       0.0357    6464.6429    6464.6787     133.2000         32     175.1413       0.0669    5731.1127    5731.1797    5727.7921    5728.3723       0.5803
     258.0    4964.6754 1566781.0000    3978.0146     132.8759     133.5399       0.0338    6464.6272    6464.6609     133.2017         32     176.1413       0.0657    5730.9445    5731.0103    5727.7880    5728.3665       0.5785
     259.0    4909.8367 1566781.0000    3978.0146     132.8775     133.5382       0.0351    6464.7602    6464.7953     133.2033         32     177.1413       0.0648    5731.0159    5731.0809    5727.7936    5728.3690       0.5755
     260.0    4934.4217 1566781.0000    3978.0146     132.8788     133.5395       0.0390    6464.7639    6464.8028     133.2053         32     178.1413       0.0641    5731.0187    5731.0826    5727.7908    5728.3624       0.5714
     261.0    5028.2915 1566781.0000    3978.0146     132.8806     133.5407       0.0433    6464.7320    6464.7752     133.2071         32     179.1413       0.0644    5731.2129    5731.2773    5727.7898    5728.3570       0.5674
     262.0    5102.0110 1566781.0000    3978.0146     132.8833     133.5405       0.0466    6464.6452    6464.6918     133.2087         32     180.1413       0.0650    5731.0373    5731.1022    5727.7941    5728.3579       0.5638
     263.0    5091.1964 1566781.0000    3978.0146     132.8817     133.5420       0.0486    6464.6209    6464.6696     133.2103         32     181.1413       0.0639    5730.9518    5731.0158    5727.7926    5728.3525       0.5599
     264.0    5059.3157 1566781.0000    3978.0146     132.8825     133.5438       0.0492    6464.5754    6464.6246     133.2118         32     182.1413       0.0610    5731.0027    5731.0636    5727.7949    5728.3504       0.5554
     265.0    5029.5783 1566781.0000    3978.0146     132.8842     133.5440       0.0473    6464.5332    6464.5806     133.2137         32     183.1413       0.0593    5731.0116    5731.0709    5727.8000    5728.3515       0.5515
     266.0    4947.1523 1566781.0000    3978.0146     132.8870     133.5443       0.0434    6464.6302    6464.6734     133.2154         32     184.1413       0.0598    5731.0013    5731.0613    5727.7979    5728.3464       0.5487
     267.0    4945.1082 1566781.0000    3978.0146     132.8869     133.5456       0.0392    6464.7326    6464.7720     133.2170         32     185.1413       0.0607    5730.9994    5731.0600    5727.7948    5728.3411       0.5465
     268.0    4959.1964 1566781.0000    3978.0146     132.8876     133.5462       0.0367    6464.7237    6464.7606     133.2188         32     186.1413       0.0601    5731.0313    5731.0916    5727.7987    5728.3425       0.5437
     269.0    4929.8587 1566781.0000    3978.0146     132.8894     133.5462       0.0357    6464.7957    6464.8315     133.2205         32     187.1413       0.0585    5731.0431    5731.1018    5727.8000    5728.3407       0.5406
     270.0    4941.8566 1566781.0000    3978.0146     132.8906     133.5474       0.0357    6464.8396    6464.8753     133.2220         32     188.1413       0.0570    5731.0581    5731.1152    5727.8052    5728.3431       0.5379
     271.0    5026.9228 1566781.0000    3978.0146     132.8908     133.5477       0.0365    6464.5897    6464.6261     133.2238         32     189.1413       0.0549    5730.9955    5731.0504    5727.8067    5728.3419       0.5351
     272.0    5071.1192 1566781.0000    3978.0146     132.8922     133.5485       0.0379    6464.6549    6464.6929     133.2254         32     190.1413       0.0521    5730.9676    5731.0196    5727.8067    5728.3383       0.5316
     273.0    5082.3046 1566781.0000    3978.0146     132.8931     133.5485       0.0394    6464.5215    6464.5606     133.2269         32     191.1413       0.0492    5731.0071    5731.0563    5727.8081    5728.3353       0.5273
     274.0    5070.1633 1566781.0000    3978.0146     132.8942     133.5502       0.0409    6464.5114    6464.5522     133.2287         32     192.1413       0.0471    5731.0296    5731.0767    5727.8133    5728.3368       0.5233
     275.0    5056.0331 1566781.0000    3978.0146     132.8955     133.5502       0.0423    6464.4419    6464.4843     133.2301         32     193.1413       0.0475    5731.0109    5731.0582    5727.8144    5728.3346       0.5201
     276.0    5031.3598 1566781.0000    3978.0146     132.8954     133.5523       0.0428    6464.6846    6464.7275     133.2317         32     194.1413       0.0502    5731.0405    5731.0906    5727.8190    5728.3360       0.5171
     277.0    4986.9028 1566781.0000    3978.0146     132.8964     133.5515       0.0427    6464.6152    6464.6577     133.2334         32     195.1413       0.0534    5730.9602    5731.0137    5727.8161    5728.3298       0.5139
     278.0    4961.0110 1566781.0000    3978.0146     132.8961     133.5537       0.0428    6464.6270    6464.6699     133.2349         32     196.1413       0.0547    5730.9925    5731.0472    5727.8248    5728.3357       0.5110
     279.0    4962.3466 1566781.0000    3978.0146     132.8988     133.5546       0.0437    6464.7659    6464.8094     133.2367         32     197.1413       0.0493    5730.9574    5731.0065    5727.8180    5728.3140       0.4960
     280.0    5012.9338 1566781.0000    3978.0146     132.8988     133.5544       0.0441    6464.6001    6464.6440     133.2379         32     198.1413       0.0169    5730.8996    5730.9164    5727.8240    5728.2524       0.4285
     281.0    5050.2715 1566781.0000    3978.0146     132.9025     133.5552       0.0444    6464.6551    6464.6995     133.2395         32     199.1413      -0.0656    5730.9962    5730.9307    5727.8253    5728.0979       0.2727
     282.0    5051.9249 1566781.0000    3978.0146     132.9007     133.5569       0.0453    6464.6692    6464.7147     133.2411         32     200.1413      -0.1937    5730.9661    5730.7724    5727.8269    5727.8710       0.0440
     283.0    5005.6754 1566781.0000    3978.0146     132.9015     133.5567       0.0472    6464.6385    6464.6856     133.2426         32     201.1413      -0.3240    5730.9252    5730.6010    5727.8270    5727.6334      -0.1937
     284.0    4949.2826 1566781.0000    3978.0146     132.9042     133.5570       0.0483    6464.6250    6464.6734     133.2441         32     202.1413      -0.4058    5731.0059    5730.6002    5727.8317    5727.4552      -0.3765
     285.0    4946.3377 1566781.0000    3978.0146     132.8736     133.5586       0.0480    6464.6922    6464.7401     133.2366         33     203.1413      -0.4003    5536.9132    5536.5128    5537.0864    5536.6328      -0.4538
     286.0    4917.0110 1566781.0000    3978.0146     132.8552     133.5588       0.0465    6464.6471    6464.6937     133.2328         33     204.1413      -0.2787    5455.7634    5455.4847    5456.1857    5455.8141      -0.3718
     287.0    4916.6512 1566781.0000    3978.0146     132.8525     133.5622       0.0438    6464.7913    6464.8350     133.2319         33     205.1413      -0.0440    5435.4891    5435.4453    5435.6476    5435.5251      -0.1224
     288.0    4960.0420 1566781.0000    3978.0146     132.8510     133.5609       0.0392    6464.7171    6464.7563     133.2309         33     206.1413       0.2437    5426.8211    5427.0649    5426.5192    5426.7390       0.2200
     289.0    5024.4658 1566781.0000    3978.0146     132.8543     133.5626       0.0331    6464.7349    6464.7681     133.2299         33     207.1413       0.4864    5423.6414    5424.1277    5422.9024    5423.4398       0.5372
     290.0    5078.7505 1566781.0000    3978.0146     132.8866     133.5622       0.0283    6464.6461    6464.6746     133.2385         33     208.1413       0.6226    5613.3714    5613.9939    5608.9799    5609.7478       0.7678
     291.0    5052.3598 1566781.0000    3978.0146     132.9147     133.5632       0.0276    6464.6120    6464.6395     133.2433         33     209.1413       0.6397    5713.8178    5714.4573    5708.2506    5709.1505       0.8997
