~VERSION INFORMATION
VERS.           2.0   :CWLS Log ASCII Standard - VERSION 2.0
WRAP.           NO    :One Line per depth step
PROD.  Schlumberger   :LAS Producer
PROG.  DLIS to ASCII 2.2                               :LAS Program name and version
CREA.        2020/10/30 12:18                          :LAS Creation date {YYYY/MM/DD hh:mm}
SOURCE.     XPT_HRLA_TLD_MCFL_045LTP.DLIS              :DLIS File Name
FILE-ID.     XPT_HRLA_TLD_MCFL_045LTP                  :File Identification Number
#--------------------------------------------------
~WELL INFORMATION
#MNEM.UNIT      DATA             DESCRIPTION
#---- ------ --------------   -----------------------------
STRT .S         3688.0       :START TIME      
STOP .S         4251.0       :STOP TIME      
STEP .S            1.0       :STEP     
NULL .          -999.25      :NULL VALUE
COMP .        Nexus Energy                             :COMPANY
WELL .        Crux-3                                   :WELL
FLD  .        Crux                                     :FIELD
LOC  .        Easting: 656981.7mE                      :LOCATION
CNTY .        Sedco-703                                :COUNTY
STAT .        Northern Territory                       :STATE
CTRY .        Australia                                :COUNTRY
API  .                                                 :API NUMBER
UWI  .                                                 :UNIQUE WELL ID
DATE .        31-Dec-2007                              :LOG DATE {DD-MMM-YYYY}
SRVC .        Schlumberger                             :SERVICE COMPANY
LATI .DEG     12*57'32.63" S                           :LATITUDE
LONG .DEG     124*26'50.07" E                          :LONGITUDE
GDAT .                                                 :GeoDetic Datum
#-----------------------------------------------------------------------------
~PARAMETER INFORMATION
#MNEM.UNIT    VALUE                      DESCRIPTION
#---- -----   --------------------       ------------------------
RUN  .          1                        :RUN NUMBER
PDAT .        LAT                        :Permanent Datum
EPD  .M           0.000000               :Elevation of Permanent Datum above Mean Sea Level
EPD  .M           0.000000               :Elevation of tool zero above Mean Sea Level
LMF  .          DF                       :Logging Measured From (Name of Logging Elevation Reference)
APD  .M          26.400000               :Elevation of Depth Reference (LMF) above Permanent Datum
#-----------------------------------------------------------------------------
~CURVE INFORMATION
#MNEM.UNIT   API CODE                                  DESCRIPTION
#---- -----  --------                                  -----------------------
TIME .S                                                :TIME {F10.1}
TENS_SL.LBF                                            :Cable Tension {F13.4}
DEPT_SL..1IN                                           :Station logging depth {F13.4}
PDEP_XPT.M                                             :XPT Probe Depth {F13.4}
MTEP_SAP.DEGC                                          :Sapphire Gauge Manometer Temperature {F13.4}
MTEP_HYD.DEGC                                          :Hydrostatic Sapphire Gauge Manometer Temperature {F13.4}
PCO_HYD.PSI                                            :Hydrostatic Sapphire Dynamic Compensation {F13.4}
PND_HYD.PSI                                            :Hydrostatic Sapphire Pressure Without Dynamic Compensation {F13.4}
CP_HYD.PSI                                             :Hydrostatic Sapphire Pressure With Dynamic Compensation {F13.4}
MTEP_QG.DEGC                                           :CQG Manometer Temperature {F13.4}
PTNO_XPT.                                              :XPT Pretest Number {I11}
ETIM_XPT.S                                             :Elapsed Logging Time {F13.4}
PCO_SAP.PSI                                            :Sapphire Dynamic Compensation {F13.4}
PND_SAP.PSI                                            :Sapphire Pressure Without Dynamic Compensation {F13.4}
CP_SAP.PSI                                             :Sapphire Pressure With Dynamic Compensation {F13.4}
QNDP .PSI                                              :CQG Pressure Without Dynamic Compensation {F13.4}
QCP  .PSI                                              :CQG Pressure With Dynamic Compensation {F13.4}
QPCO .PSI                                              :CQG Dynamic Compensation {F13.4}
#-----------------------------------------------------------------------------
# 
#     TIME      TENS_SL      DEPT_SL      PDEP_XPT     MTEP_SAP     MTEP_HYD     PCO_HYD      PND_HYD       CP_HYD      MTEP_QG       PTNO_XPT       ETIM_XPT     PCO_SAP      PND_SAP       CP_SAP        QNDP         QCP          QPCO
#
~A  
# ...
    3793.0    4937.0700 1440603.0000    3657.5227     121.9348     122.4444      -0.0231    5955.1533    5955.1304     122.5169          6     105.0725      -0.0233    5953.5580    5953.5345    5951.0325    5951.0066      -0.0260
    3794.0    4869.1425 1440603.0000    3657.5227     121.9340     122.4444      -0.0217    5955.2129    5955.1912     122.5166          6     106.0725      -0.0243    5953.6062    5953.5820    5951.1475    5951.1213      -0.0261
    3795.0    4803.7375 1440603.0000    3657.5227     121.9345     122.4444      -0.0198    5955.2691    5955.2494     122.5167          6     107.0725      -0.0256    5953.7570    5953.7312    5951.1552    5951.1265      -0.0288
    3796.0    4759.6800 1440603.0000    3657.5227     121.9337     122.4424      -0.0165    5955.3711    5955.3548     122.5167          6     108.0725      -0.0294    5953.6999    5953.6706    5951.2263    5951.1876      -0.0385
    3797.0    4729.3475 1440603.0000    3657.5227     121.9310     122.4429      -0.0121    5955.4360    5955.4239     122.5164          6     109.0725      -0.0380    5953.7435    5953.7054    5951.2878    5951.2319      -0.0559
    3798.0    4721.5075 1440603.0000    3657.5227     121.9306     122.4419      -0.0098    5955.4249    5955.4151     122.5163          6     110.0725      -0.0493    5953.8721    5953.8226    5951.3221    5951.2456      -0.0766
    3799.0    4728.5800 1440603.0000    3657.5227     121.9320     122.4415      -0.0112    5955.3814    5955.3704     122.5163          6     111.0725      -0.0592    5954.6606    5954.6014    5952.1391    5952.0423      -0.0968
    3800.0    4735.8550 1440603.0000    3657.5227     121.9300     122.4437      -0.0145    5955.4443    5955.4296     122.5157          6     112.0725      -0.0680    5950.9873    5950.9195    5940.6744    5940.5554      -0.1189
    3801.0    4732.8400 1440603.0000    3657.5227     121.9268     122.4437      -0.0186    5955.5635    5955.5450     122.5149          6     113.0725      -0.0783    5929.6821    5929.6038    5927.6631    5927.5179      -0.1454
    3802.0    4717.7825 1440603.0000    3657.5227     121.9259     122.4407      -0.0246    5955.4126    5955.3882     122.5146          6     114.0725      -0.0878    5926.8169    5926.7290    5924.7832    5924.6116      -0.1717
    3803.0    4716.3775 1440603.0000    3657.5227     121.9254     122.4407      -0.0309    5955.4469    5955.4159     122.5144          6     115.0725      -0.0904    5925.2721    5925.1816    5922.6679    5922.4789      -0.1890
    3804.0    4739.5825 1440603.0000    3657.5227     121.9232     122.4407      -0.0333    5955.4722    5955.4390     122.5136          6     116.0725      -0.0842    5916.7071    5916.6229    5914.5406    5914.3449      -0.1956
    3805.0    4816.0025 1440603.0000    3657.5227     121.9221     122.4403      -0.0304    5955.4684    5955.4380     122.5127          6     117.0725      -0.0726    5912.3968    5912.3241    5904.6094    5904.4138      -0.1959
    3806.0    4884.3500 1440603.0000    3657.5227     121.9191     122.4391      -0.0256    5955.4565    5955.4310     122.5117          6     118.0725      -0.0581    5901.2222    5901.1641    5893.6650    5893.4736      -0.1915
    3807.0    4941.9575 1440603.0000    3657.5227     121.9179     122.4389      -0.0221    5955.3863    5955.3643     122.5110          6     119.0725      -0.0412    5892.5544    5892.5133    5890.6187    5890.4386      -0.1800
    3808.0    4966.7825 1440603.0000    3657.5227     121.9188     122.4389      -0.0203    5955.3064    5955.2860     122.5111          6     120.0725      -0.0225    5892.9845    5892.9619    5890.9002    5890.7391      -0.1611
    3809.0    4958.0550 1440603.0000    3657.5227     121.9188     122.4381      -0.0191    5955.2189    5955.1998     122.5105          6     121.0725      -0.0061    5893.7605    5893.7542    5891.6058    5891.4647      -0.1412
    3810.0    4875.6200 1440603.0000    3657.5227     121.9200     122.4381      -0.0176    5955.2859    5955.2683     122.5098          6     122.0725       0.0040    5894.5582    5894.5624    5892.3159    5892.1895      -0.1264
    3811.0    4788.4900 1440603.0000    3657.5227     121.9184     122.4376      -0.0161    5955.3307    5955.3147     122.5096          6     123.0725       0.0057    5895.0124    5895.0180    5892.7695    5892.6505      -0.1191
    3812.0    4713.8675 1440603.0000    3657.5227     121.9194     122.4377      -0.0162    5955.4369    5955.4207     122.5093          6     124.0725      -0.0025    5895.5278    5895.5254    5893.1460    5893.0263      -0.1197
    3813.0    4659.5500 1440603.0000    3657.5227     121.9198     122.4365      -0.0181    5955.4758    5955.4578     122.5088          6     125.0725      -0.0146    5896.0720    5896.0573    5893.6729    5893.5462      -0.1265
    3814.0    4642.4500 1440603.0000    3657.5227     121.9190     122.4358      -0.0198    5955.5283    5955.5083     122.5086          6     126.0725      -0.0330    5896.6093    5896.5761    5894.2512    5894.1097      -0.1413
    3815.0    4667.8875 1440603.0000    3657.5227     121.9207     122.4380      -0.0191    5955.6362    5955.6171     122.5083          6     127.0725      -0.0561    5896.4222    5896.3660    5894.0182    5893.8517      -0.1663
    3816.0    4762.0900 1440603.0000    3657.5227     121.9167     122.4365      -0.0179    5955.5954    5955.5774     122.5075          6     128.0725      -0.0735    5885.4701    5885.3964    5883.2263    5883.0352      -0.1910
    3817.0    4843.9150 1440603.0000    3657.5227     121.9158     122.4336      -0.0181    5955.4448    5955.4268     122.5069          6     129.0725      -0.0900    5875.2813    5875.1915    5873.2249    5873.0031      -0.2217
    3818.0    4895.7400 1440603.0000    3657.5227     121.9132     122.4357      -0.0179    5955.4197    5955.4019     122.5060          6     130.0725      -0.0986    5863.4810    5863.3824    5861.4565    5861.2090      -0.2474
    3819.0    4918.4350 1440603.0000    3657.5227     121.9105     122.4358      -0.0159    5955.4056    5955.3899     122.5053          6     131.0725      -0.0879    5850.6377    5850.5497    5848.7316    5848.4846      -0.2471
    3820.0    4919.8675 1440603.0000    3657.5227     121.9098     122.4349      -0.0140    5955.3321    5955.3179     122.5041          6     132.0725      -0.0430    5837.5280    5837.4849    5835.7116    5835.5156      -0.1960
    3821.0    4862.3600 1440603.0000    3657.5227     121.9072     122.4352      -0.0149    5955.2942    5955.2793     122.5033          6     133.0725       0.0333    5827.7677    5827.8008    5825.8913    5825.7972      -0.0943
    3822.0    4800.3900 1440603.0000    3657.5227     121.9065     122.4343      -0.0179    5955.3334    5955.3154     122.5026          6     134.0725       0.1171    5818.8079    5818.9248    5816.9639    5816.9923       0.0283
    3823.0    4766.2025 1440603.0000    3657.5227     121.9048     122.4336      -0.0210    5955.4079    5955.3868     122.5014          6     135.0725       0.1818    5811.8765    5812.0583    5809.9455    5810.0861       0.1405
    3824.0    4757.3775 1440603.0000    3657.5227     121.9161     122.4342      -0.0237    5955.4880    5955.4643     122.5039          6     136.0725       0.2205    5886.8330    5887.0533    5883.1337    5883.3700       0.2363
    3825.0    4778.9875 1440603.0000    3657.5227     121.9309     122.4328      -0.0255    5955.4915    5955.4661     122.5068          6     137.0725       0.2313    5954.6259    5954.8573    5950.8743    5951.1859       0.3116
    3826.0    4833.4075 1440603.0000    3657.5227     121.9303     122.4340      -0.0251    5955.4944    5955.4691     122.5069          6     138.0725       0.2063    5954.6226    5954.8286    5951.0137    5951.3623       0.3485
    3827.0    4878.5950 1440603.0000    3657.5227     121.9310     122.4313      -0.0226    5955.3613    5955.3389     122.5074          6     139.0725       0.1462    5957.3177    5957.4638    5953.8065    5954.1448       0.3384
