~VERSION INFORMATION
VERS.           2.0   :CWLS Log ASCII Standard - VERSION 2.0
WRAP.           NO    :One Line per depth step
PROD.  Schlumberger   :LAS Producer
PROG.  DLIS to ASCII 2.2                               :LAS Program name and version
CREA.        2020/10/30 12:18                          :LAS Creation date {YYYY/MM/DD hh:mm}
SOURCE.     XPT_HRLA_TLD_MCFL_061LTP.DLIS              :DLIS File Name
FILE-ID.     XPT_HRLA_TLD_MCFL_061LTP                  :File Identification Number
#--------------------------------------------------
~WELL INFORMATION
#MNEM.UNIT      DATA             DESCRIPTION
#---- ------ --------------   -----------------------------
STRT .S         9381.0       :START TIME      
STOP .S         9562.0       :STOP TIME      
STEP .S            1.0       :STEP     
NULL .          -999.25      :NULL VALUE
COMP .        Nexus Energy                             :COMPANY
WELL .        Crux-3                                   :WELL
FLD  .        Crux                                     :FIELD
LOC  .        Easting: 656981.7mE                      :LOCATION
CNTY .        Sedco-703                                :COUNTY
STAT .        Northern Territory                       :STATE
CTRY .        Australia                                :COUNTRY
API  .                                                 :API NUMBER
UWI  .                                                 :UNIQUE WELL ID
DATE .        31-Dec-2007                              :LOG DATE {DD-MMM-YYYY}
SRVC .        Schlumberger                             :SERVICE COMPANY
LATI .DEG     12*57'32.63" S                           :LATITUDE
LONG .DEG     124*26'50.07" E                          :LONGITUDE
GDAT .                                                 :GeoDetic Datum
#-----------------------------------------------------------------------------
~PARAMETER INFORMATION
#MNEM.UNIT    VALUE                      DESCRIPTION
#---- -----   --------------------       ------------------------
RUN  .          1                        :RUN NUMBER
PDAT .        LAT                        :Permanent Datum
EPD  .M           0.000000               :Elevation of Permanent Datum above Mean Sea Level
EPD  .M           0.000000               :Elevation of tool zero above Mean Sea Level
LMF  .          DF                       :Logging Measured From (Name of Logging Elevation Reference)
APD  .M          26.400000               :Elevation of Depth Reference (LMF) above Permanent Datum
#-----------------------------------------------------------------------------
~CURVE INFORMATION
#MNEM.UNIT   API CODE                                  DESCRIPTION
#---- -----  --------                                  -----------------------
TIME .S                                                :TIME {F10.1}
TENS_SL.LBF                                            :Cable Tension {F13.4}
DEPT_SL..1IN                                           :Station logging depth {F13.4}
PDEP_XPT.M                                             :XPT Probe Depth {F13.4}
MTEP_SAP.DEGC                                          :Sapphire Gauge Manometer Temperature {F13.4}
MTEP_HYD.DEGC                                          :Hydrostatic Sapphire Gauge Manometer Temperature {F13.4}
PCO_HYD.PSI                                            :Hydrostatic Sapphire Dynamic Compensation {F13.4}
PND_HYD.PSI                                            :Hydrostatic Sapphire Pressure Without Dynamic Compensation {F13.4}
CP_HYD.PSI                                             :Hydrostatic Sapphire Pressure With Dynamic Compensation {F13.4}
MTEP_QG.DEGC                                           :CQG Manometer Temperature {F13.4}
PTNO_XPT.                                              :XPT Pretest Number {I11}
ETIM_XPT.S                                             :Elapsed Logging Time {F13.4}
PCO_SAP.PSI                                            :Sapphire Dynamic Compensation {F13.4}
PND_SAP.PSI                                            :Sapphire Pressure Without Dynamic Compensation {F13.4}
CP_SAP.PSI                                             :Sapphire Pressure With Dynamic Compensation {F13.4}
QNDP .PSI                                              :CQG Pressure Without Dynamic Compensation {F13.4}
QCP  .PSI                                              :CQG Pressure With Dynamic Compensation {F13.4}
QPCO .PSI                                              :CQG Dynamic Compensation {F13.4}
#-----------------------------------------------------------------------------
# 
#     TIME      TENS_SL      DEPT_SL      PDEP_XPT     MTEP_SAP     MTEP_HYD     PCO_HYD      PND_HYD       CP_HYD      MTEP_QG       PTNO_XPT       ETIM_XPT     PCO_SAP      PND_SAP       CP_SAP        QNDP         QCP          QPCO
#
~A  
# ...
    9521.0    4975.9040 1547081.0000    3927.9766     129.3608     129.9310       0.0557    6385.7610    6385.8167     129.8553         26     139.6220       0.0538    6383.1751    6383.2288    6380.4060    6380.6030       0.1969
    9522.0    5002.9280 1547081.0000    3927.9766     129.3611     129.9315       0.0535    6385.8717    6385.9250     129.8558         26     140.6220       0.0531    6383.1308    6383.1840    6380.3778    6380.5754       0.1976
    9523.0    5008.8900 1547081.0000    3927.9766     129.3639     129.9335       0.0532    6385.7285    6385.7817     129.8565         26     141.6220       0.0524    6383.1454    6383.1977    6380.3312    6380.5290       0.1980
    9524.0    4993.3160 1547081.0000    3927.9766     129.3650     129.9326       0.0549    6385.7311    6385.7860     129.8571         26     142.6220       0.0521    6383.0731    6383.1254    6380.3517    6380.5499       0.1980
    9525.0    4980.0240 1547081.0000    3927.9766     129.3637     129.9337       0.0582    6385.7307    6385.7889     129.8578         26     143.6220       0.0520    6383.0533    6383.1051    6380.3629    6380.5611       0.1983
    9526.0    4981.3540 1547081.0000    3927.9766     129.3658     129.9344       0.0614    6385.6821    6385.7437     129.8586         26     144.6220       0.0524    6383.1426    6383.1948    6380.3458    6380.5446       0.1986
    9527.0    5002.6600 1547081.0000    3927.9766     129.3662     129.9366       0.0624    6385.7736    6385.8361     129.8590         26     145.6220       0.0547    6383.0486    6383.1032    6380.3515    6380.5502       0.1987
    9528.0    5037.0140 1547081.0000    3927.9766     129.3669     129.9380       0.0609    6385.7166    6385.7774     129.8594         26     146.6220       0.0578    6383.0313    6383.0892    6380.3308    6380.5295       0.1987
    9529.0    5072.7700 1547081.0000    3927.9766     129.3676     129.9389       0.0586    6385.6639    6385.7225     129.8603         26     147.6220       0.0592    6383.0974    6383.1565    6380.3035    6380.5027       0.1993
    9530.0    5097.1960 1547081.0000    3927.9766     129.3697     129.9408       0.0574    6385.7111    6385.7685     129.8609         26     148.6220       0.0585    6383.0722    6383.1308    6380.3027    6380.5029       0.2003
    9531.0    5096.5360 1547081.0000    3927.9766     129.3707     129.9404       0.0562    6385.6295    6385.6857     129.8614         26     149.6220       0.0575    6383.0400    6383.0976    6380.2791    6380.4798       0.2006
    9532.0    5065.8760 1547081.0000    3927.9766     129.3722     129.9419       0.0547    6385.5781    6385.6328     129.8621         26     150.6220       0.0572    6382.9155    6382.9726    6380.2257    6380.4259       0.2002
    9533.0    5015.7900 1547081.0000    3927.9766     129.3724     129.9421       0.0542    6385.5797    6385.6339     129.8627         26     151.6220       0.0571    6382.9664    6383.0235    6380.2840    6380.4842       0.2002
    9534.0    4952.7040 1547081.0000    3927.9766     129.3734     129.9457       0.0559    6385.7402    6385.7963     129.8634         26     152.6220       0.0568    6383.0591    6383.1158    6380.3240    6380.5247       0.2007
    9535.0    4915.1820 1547081.0000    3927.9766     129.3758     129.9443       0.0574    6385.6681    6385.7253     129.8639         26     153.6220       0.0571    6383.1222    6383.1794    6380.3658    6380.5670       0.2012
    9536.0    4926.6600 1547081.0000    3927.9766     129.3762     129.9462       0.0566    6385.6846    6385.7411     129.8647         26     154.6220       0.0585    6383.1854    6383.2437    6380.3853    6380.5869       0.2016
    9537.0    4925.5600 1547081.0000    3927.9766     129.3780     129.9465       0.0554    6385.7485    6385.8038     129.8655         26     155.6220       0.0594    6383.2471    6383.3067    6380.4824    6380.6845       0.2024
    9538.0    4946.6120 1547081.0000    3927.9766     129.3788     129.9487       0.0559    6385.8801    6385.9359     129.8659         26     156.6220       0.0578    6383.1720    6383.2296    6380.4005    6380.6042       0.2037
    9539.0    4991.9900 1547081.0000    3927.9766     129.3771     129.9495       0.0579    6385.7212    6385.7790     129.8666         26     157.6220       0.0543    6383.0404    6383.0947    6380.3459    6380.5505       0.2047
    9540.0    5035.7460 1547081.0000    3927.9766     129.3798     129.9493       0.0597    6385.7190    6385.7788     129.8671         26     158.6220       0.0522    6383.0777    6383.1299    6380.3634    6380.5680       0.2048
    9541.0    5081.8560 1547081.0000    3927.9766     129.3825     129.9519       0.0613    6385.8023    6385.8638     129.8680         26     159.6220       0.0529    6383.0689    6383.1217    6380.3068    6380.5114       0.2043
    9542.0    5102.4880 1547081.0000    3927.9766     129.3819     129.9515       0.0625    6385.6375    6385.7000     129.8684         26     160.6220       0.0545    6383.0076    6383.0620    6380.2852    6380.4893       0.2042
    9543.0    5098.4020 1547081.0000    3927.9766     129.3818     129.9539       0.0619    6385.6253    6385.6875     129.8688         26     161.6220       0.0555    6383.0088    6383.0644    6380.2548    6380.4597       0.2048
    9544.0    5084.4260 1547081.0000    3927.9766     129.3850     129.9541       0.0593    6385.4039    6385.4634     129.8697         26     162.6220       0.0564    6383.4864    6383.5426    6380.6233    6380.8294       0.2059
    9545.0    5073.6460 1547081.0000    3927.9766     129.3845     129.9567       0.0566    6385.4245    6385.4809     129.8702         26     163.6220       0.0569    6382.9701    6383.0269    6380.2400    6380.4463       0.2063
    9546.0    5033.0580 1547081.0000    3927.9766     129.3860     129.9571       0.0555    6385.4857    6385.5414     129.8711         26     164.6220       0.0568    6383.1396    6383.1962    6380.4132    6380.6198       0.2066
    9547.0    4952.7760 1547081.0000    3927.9766     129.3885     129.9576       0.0553    6385.4738    6385.5290     129.8716         26     165.6220       0.0557    6383.2354    6383.2910    6380.4685    6380.6756       0.2072
    9548.0    4926.0860 1547081.0000    3927.9766     129.3889     129.9579       0.0564    6385.5945    6385.6509     129.8724         26     166.6220       0.0548    6383.1296    6383.1842    6380.3282    6380.5362       0.2080
    9549.0    4919.8040 1547081.0000    3927.9766     129.3878     129.9592       0.0591    6385.6448    6385.7041     129.8728         26     167.6220       0.0543    6383.0752    6383.1294    6380.4276    6380.6361       0.2085
    9550.0    4914.2440 1547081.0000    3927.9766     129.3906     129.9625       0.0623    6385.8613    6385.9239     129.8738         26     168.6220       0.0549    6383.3004    6383.3551    6380.5389    6380.7474       0.2085
    9551.0    4928.6840 1547081.0000    3927.9766     129.3913     129.9618       0.0636    6385.7512    6385.8146     129.8743         26     169.6220       0.0563    6383.2338    6383.2901    6380.4786    6380.6871       0.2087
    9552.0    5010.3960 1547081.0000    3927.9766     129.3907     129.9640       0.0625    6385.8014    6385.8641     129.8748         26     170.6220       0.0572    6383.0815    6383.1386    6380.4330    6380.6420       0.2092
    9553.0    5056.8660 1547081.0000    3927.9766     129.3934     129.9648       0.0603    6385.6451    6385.7056     129.8757         26     171.6220       0.0565    6383.0603    6383.1169    6380.3645    6380.5744       0.2099
    9554.0    5077.9040 1547081.0000    3927.9766     129.3940     129.9647       0.0570    6385.6010    6385.6580     129.8762         26     172.6220       0.0545    6383.0137    6383.0682    6380.2767    6380.4871       0.2104
    9555.0    5098.0860 1547081.0000    3927.9766     129.3959     129.9650       0.0525    6385.5793    6385.6318     129.8767         26     173.6220       0.0531    6382.7960    6382.8492    6380.0456    6380.2560       0.2106
