~VERSION INFORMATION
VERS.           2.0   :CWLS Log ASCII Standard - VERSION 2.0
WRAP.           NO    :One Line per depth step
PROD.  Schlumberger   :LAS Producer
PROG.  DLIS to ASCII 2.2                               :LAS Program name and version
CREA.        2020/10/30 12:18                          :LAS Creation date {YYYY/MM/DD hh:mm}
SOURCE.     XPT_HRLA_TLD_MCFL_051LTP.DLIS              :DLIS File Name
FILE-ID.     XPT_HRLA_TLD_MCFL_051LTP                  :File Identification Number
#--------------------------------------------------
~WELL INFORMATION
#MNEM.UNIT      DATA             DESCRIPTION
#---- ------ --------------   -----------------------------
STRT .S         3209.0       :START TIME      
STOP .S         3664.0       :STOP TIME      
STEP .S            1.0       :STEP     
NULL .          -999.25      :NULL VALUE
COMP .        Nexus Energy                             :COMPANY
WELL .        Crux-3                                   :WELL
FLD  .        Crux                                     :FIELD
LOC  .        Easting: 656981.7mE                      :LOCATION
CNTY .        Sedco-703                                :COUNTY
STAT .        Northern Territory                       :STATE
CTRY .        Australia                                :COUNTRY
API  .                                                 :API NUMBER
UWI  .                                                 :UNIQUE WELL ID
DATE .        31-Dec-2007                              :LOG DATE {DD-MMM-YYYY}
SRVC .        Schlumberger                             :SERVICE COMPANY
LATI .DEG     12*57'32.63" S                           :LATITUDE
LONG .DEG     124*26'50.07" E                          :LONGITUDE
GDAT .                                                 :GeoDetic Datum
#-----------------------------------------------------------------------------
~PARAMETER INFORMATION
#MNEM.UNIT    VALUE                      DESCRIPTION
#---- -----   --------------------       ------------------------
RUN  .          1                        :RUN NUMBER
PDAT .        LAT                        :Permanent Datum
EPD  .M           0.000000               :Elevation of Permanent Datum above Mean Sea Level
EPD  .M           0.000000               :Elevation of tool zero above Mean Sea Level
LMF  .          DF                       :Logging Measured From (Name of Logging Elevation Reference)
APD  .M          26.400000               :Elevation of Depth Reference (LMF) above Permanent Datum
#-----------------------------------------------------------------------------
~CURVE INFORMATION
#MNEM.UNIT   API CODE                                  DESCRIPTION
#---- -----  --------                                  -----------------------
TIME .S                                                :TIME {F10.1}
TENS_SL.LBF                                            :Cable Tension {F13.4}
DEPT_SL..1IN                                           :Station logging depth {F13.4}
PDEP_XPT.M                                             :XPT Probe Depth {F13.4}
MTEP_SAP.DEGC                                          :Sapphire Gauge Manometer Temperature {F13.4}
MTEP_HYD.DEGC                                          :Hydrostatic Sapphire Gauge Manometer Temperature {F13.4}
PCO_HYD.PSI                                            :Hydrostatic Sapphire Dynamic Compensation {F13.4}
PND_HYD.PSI                                            :Hydrostatic Sapphire Pressure Without Dynamic Compensation {F13.4}
CP_HYD.PSI                                             :Hydrostatic Sapphire Pressure With Dynamic Compensation {F13.4}
MTEP_QG.DEGC                                           :CQG Manometer Temperature {F13.4}
PTNO_XPT.                                              :XPT Pretest Number {I11}
ETIM_XPT.S                                             :Elapsed Logging Time {F13.4}
PCO_SAP.PSI                                            :Sapphire Dynamic Compensation {F13.4}
PND_SAP.PSI                                            :Sapphire Pressure Without Dynamic Compensation {F13.4}
CP_SAP.PSI                                             :Sapphire Pressure With Dynamic Compensation {F13.4}
QNDP .PSI                                              :CQG Pressure Without Dynamic Compensation {F13.4}
QCP  .PSI                                              :CQG Pressure With Dynamic Compensation {F13.4}
QPCO .PSI                                              :CQG Dynamic Compensation {F13.4}
#-----------------------------------------------------------------------------
# 
#     TIME      TENS_SL      DEPT_SL      PDEP_XPT     MTEP_SAP     MTEP_HYD     PCO_HYD      PND_HYD       CP_HYD      MTEP_QG       PTNO_XPT       ETIM_XPT     PCO_SAP      PND_SAP       CP_SAP        QNDP         QCP          QPCO
#
~A  
# ...
    3524.0    5013.5960 1496497.0000    3799.4934     125.2267     125.8337       0.0277    6181.4196    6181.4471     125.5435         16     315.0840       0.0235    5575.2164    5575.2399    5572.1705    5572.4694       0.2990
    3525.0    5031.7560 1496497.0000    3799.4934     125.2272     125.8367       0.0246    6181.5420    6181.5666     125.5444         16     316.0840       0.0224    5575.1456    5575.1680    5572.1715    5572.4703       0.2988
    3526.0    5036.9760 1496497.0000    3799.4934     125.2286     125.8354       0.0217    6181.4299    6181.4515     125.5454         16     317.0840       0.0215    5575.1676    5575.1891    5572.1753    5572.4736       0.2986
    3527.0    5004.8400 1496497.0000    3799.4934     125.2275     125.8378       0.0181    6181.4530    6181.4711     125.5462         16     318.0840       0.0197    5575.2341    5575.2539    5572.1775    5572.4754       0.2978
    3528.0    5014.1680 1496497.0000    3799.4934     125.2284     125.8356       0.0149    6181.4292    6181.4440     125.5472         16     319.0840       0.0183    5575.2001    5575.2183    5572.1829    5572.4800       0.2971
    3529.0    5015.4960 1496497.0000    3799.4934     125.2307     125.8365       0.0138    6181.3818    6181.3955     125.5483         16     320.0840       0.0197    5575.2711    5575.2906    5572.1879    5572.4847       0.2968
    3530.0    5008.9080 1496497.0000    3799.4934     125.2299     125.8367       0.0163    6181.4405    6181.4569     125.5491         16     321.0840       0.0235    5575.2122    5575.2360    5572.1929    5572.4892       0.2962
    3531.0    4997.2520 1496497.0000    3799.4934     125.2302     125.8376       0.0206    6181.4507    6181.4713     125.5500         16     322.0840       0.0265    5575.2020    5575.2287    5572.1981    5572.4932       0.2952
    3532.0    5000.5880 1496497.0000    3799.4934     125.2291     125.8372       0.0238    6181.3865    6181.4104     125.5511         16     323.0840       0.0271    5575.2590    5575.2863    5572.1988    5572.4923       0.2937
    3533.0    5007.5880 1496497.0000    3799.4934     125.2292     125.8373       0.0254    6181.4041    6181.4297     125.5520         16     324.0840       0.0270    5575.1409    5575.1679    5572.2014    5572.4938       0.2924
    3534.0    5011.3120 1496497.0000    3799.4934     125.2311     125.8384       0.0263    6181.4221    6181.4485     125.5531         16     325.0840       0.0282    5575.2837    5575.3118    5572.2077    5572.4994       0.2917
    3535.0    4982.7560 1496497.0000    3799.4934     125.2312     125.8399       0.0270    6181.4747    6181.5015     125.5539         16     326.0840       0.0303    5575.3586    5575.3888    5572.2081    5572.4992       0.2912
    3536.0    4989.3200 1496497.0000    3799.4934     125.2320     125.8392       0.0260    6181.4072    6181.4335     125.5546         16     327.0840       0.0314    5575.2842    5575.3156    5572.2113    5572.5018       0.2904
    3537.0    4967.3880 1496497.0000    3799.4934     125.2319     125.8399       0.0239    6181.5352    6181.5590     125.5558         16     328.0840       0.0314    5575.3096    5575.3408    5572.2171    5572.5071       0.2899
    3538.0    4929.1760 1496497.0000    3799.4934     125.2337     125.8399       0.0222    6181.4367    6181.4587     125.5568         16     329.0840       0.0303    5575.2776    5575.3079    5572.2198    5572.5098       0.2900
    3539.0    4939.9000 1496497.0000    3799.4934     125.2335     125.8412       0.0219    6181.4508    6181.4727     125.5575         16     330.0840       0.0279    5575.2337    5575.2618    5572.2205    5572.5107       0.2902
    3540.0    4917.0000 1496497.0000    3799.4934     125.2353     125.8405       0.0227    6181.4333    6181.4561     125.5586         16     331.0840       0.0240    5575.3274    5575.3514    5572.2272    5572.5174       0.2903
    3541.0    4915.4880 1496497.0000    3799.4934     125.2364     125.8429       0.0247    6181.5065    6181.5314     125.5596         16     332.0840       0.0193    5575.2661    5575.2852    5572.2286    5572.5187       0.2902
    3542.0    4902.0240 1496497.0000    3799.4934     125.2358     125.8414       0.0282    6181.4529    6181.4811     125.5604         16     333.0840       0.0157    5575.1644    5575.1803    5572.2288    5572.5189       0.2902
    3543.0    4941.8880 1496497.0000    3799.4934     125.2376     125.8433       0.0311    6181.4624    6181.4934     125.5614         16     334.0840       0.0146    5575.2629    5575.2776    5572.2332    5572.5232       0.2901
    3544.0    5016.7480 1496497.0000    3799.4934     125.2360     125.8422       0.0313    6181.4972    6181.5285     125.5623         16     335.0840       0.0162    5575.1831    5575.1992    5572.2372    5572.5268       0.2895
    3545.0    5015.1760 1496497.0000    3799.4934     125.2357     125.8437       0.0300    6181.5156    6181.5458     125.5631         16     336.0840       0.0196    5575.2493    5575.2691    5572.2424    5572.5313       0.2888
    3546.0    5030.2680 1496497.0000    3799.4934     125.2358     125.8460       0.0290    6181.4800    6181.5090     125.5641         16     337.0840       0.0233    5575.1915    5575.2149    5572.2399    5572.5280       0.2881
    3547.0    5052.3120 1496497.0000    3799.4934     125.2371     125.8438       0.0270    6181.3964    6181.4233     125.5649         16     338.0840       0.0260    5575.1988    5575.2246    5572.2424    5572.5300       0.2875
    3548.0    5018.9680 1496497.0000    3799.4934     125.2370     125.8446       0.0229    6181.4049    6181.4279     125.5658         16     339.0840       0.0269    5575.2777    5575.3046    5572.2451    5572.5317       0.2866
    3549.0    4969.2040 1496497.0000    3799.4934     125.2378     125.8460       0.0195    6181.4800    6181.4997     125.5668         16     340.0840       0.0252    5575.2398    5575.2651    5572.2488    5572.5346       0.2858
    3550.0    4909.9480 1496497.0000    3799.4934     125.2383     125.8467       0.0197    6181.4278    6181.4473     125.5676         16     341.0840       0.0224    5575.2981    5575.3206    5572.2523    5572.5374       0.2850
    3551.0    4951.9080 1496497.0000    3799.4934     125.2374     125.8461       0.0209    6181.4212    6181.4421     125.5686         16     342.0840       0.0208    5575.1997    5575.2207    5572.2540    5572.5386       0.2845
    3552.0    4936.2200 1496497.0000    3799.4934     125.2393     125.8465       0.0198    6181.5459    6181.5657     125.5696         16     343.0840       0.0211    5575.2158    5575.2371    5572.2556    5572.5397       0.2843
    3553.0    4897.1000 1496497.0000    3799.4934     125.2385     125.8457       0.0173    6181.4786    6181.4957     125.5705         16     344.0840       0.0225    5575.2397    5575.2622    5572.2611    5572.5448       0.2837
    3554.0    4924.8720 1496497.0000    3799.4934     125.2377     125.8489       0.0171    6181.5628    6181.5799     125.5714         16     345.0840       0.0240    5575.3012    5575.3252    5572.2631    5572.5462       0.2830
    3555.0    4977.9160 1496497.0000    3799.4934     125.2401     125.8480       0.0182    6181.4834    6181.5015     125.5721         16     346.0840       0.0260    5575.2115    5575.2375    5572.2604    5572.5423       0.2820
    3556.0    4978.3440 1496497.0000    3799.4934     125.2406     125.8473       0.0171    6181.3954    6181.4125     125.5732         16     347.0840       0.0281    5575.3193    5575.3475    5572.2617    5572.5430       0.2812
    3557.0    4998.7960 1496497.0000    3799.4934     125.2407     125.8479       0.0153    6181.4069    6181.4221     125.5738         16     348.0840       0.0290    5575.2883    5575.3171    5572.2613    5572.5420       0.2808
    3558.0    5062.1680 1496497.0000    3799.4934     125.2428     125.8484       0.0159    6181.3622    6181.3781     125.5752         16     349.0840       0.0287    5575.2718    5575.3006    5572.2657    5572.5462       0.2805
