~VERSION INFORMATION
VERS.           2.0   :CWLS Log ASCII Standard - VERSION 2.0
WRAP.           NO    :One Line per depth step
PROD.  Schlumberger   :LAS Producer
PROG.  DLIS to ASCII 2.2                               :LAS Program name and version
CREA.        2020/10/30 12:18                          :LAS Creation date {YYYY/MM/DD hh:mm}
SOURCE.     XPT_HRLA_TLD_MCFL_049LTP.DLIS              :DLIS File Name
FILE-ID.     XPT_HRLA_TLD_MCFL_049LTP                  :File Identification Number
#--------------------------------------------------
~WELL INFORMATION
#MNEM.UNIT      DATA             DESCRIPTION
#---- ------ --------------   -----------------------------
STRT .S          815.0       :START TIME      
STOP .S         1341.0       :STOP TIME      
STEP .S            1.0       :STEP     
NULL .          -999.25      :NULL VALUE
COMP .        Nexus Energy                             :COMPANY
WELL .        Crux-3                                   :WELL
FLD  .        Crux                                     :FIELD
LOC  .        Easting: 656981.7mE                      :LOCATION
CNTY .        Sedco-703                                :COUNTY
STAT .        Northern Territory                       :STATE
CTRY .        Australia                                :COUNTRY
API  .                                                 :API NUMBER
UWI  .                                                 :UNIQUE WELL ID
DATE .        31-Dec-2007                              :LOG DATE {DD-MMM-YYYY}
SRVC .        Schlumberger                             :SERVICE COMPANY
LATI .DEG     12*57'32.63" S                           :LATITUDE
LONG .DEG     124*26'50.07" E                          :LONGITUDE
GDAT .                                                 :GeoDetic Datum
#-----------------------------------------------------------------------------
~PARAMETER INFORMATION
#MNEM.UNIT    VALUE                      DESCRIPTION
#---- -----   --------------------       ------------------------
RUN  .          1                        :RUN NUMBER
PDAT .        LAT                        :Permanent Datum
EPD  .M           0.000000               :Elevation of Permanent Datum above Mean Sea Level
EPD  .M           0.000000               :Elevation of tool zero above Mean Sea Level
LMF  .          DF                       :Logging Measured From (Name of Logging Elevation Reference)
APD  .M          26.400000               :Elevation of Depth Reference (LMF) above Permanent Datum
#-----------------------------------------------------------------------------
~CURVE INFORMATION
#MNEM.UNIT   API CODE                                  DESCRIPTION
#---- -----  --------                                  -----------------------
TIME .S                                                :TIME {F10.1}
TENS_SL.LBF                                            :Cable Tension {F13.4}
DEPT_SL..1IN                                           :Station logging depth {F13.4}
PDEP_XPT.M                                             :XPT Probe Depth {F13.4}
MTEP_SAP.DEGC                                          :Sapphire Gauge Manometer Temperature {F13.4}
MTEP_HYD.DEGC                                          :Hydrostatic Sapphire Gauge Manometer Temperature {F13.4}
PCO_HYD.PSI                                            :Hydrostatic Sapphire Dynamic Compensation {F13.4}
PND_HYD.PSI                                            :Hydrostatic Sapphire Pressure Without Dynamic Compensation {F13.4}
CP_HYD.PSI                                             :Hydrostatic Sapphire Pressure With Dynamic Compensation {F13.4}
MTEP_QG.DEGC                                           :CQG Manometer Temperature {F13.4}
PTNO_XPT.                                              :XPT Pretest Number {I11}
ETIM_XPT.S                                             :Elapsed Logging Time {F13.4}
PCO_SAP.PSI                                            :Sapphire Dynamic Compensation {F13.4}
PND_SAP.PSI                                            :Sapphire Pressure Without Dynamic Compensation {F13.4}
CP_SAP.PSI                                             :Sapphire Pressure With Dynamic Compensation {F13.4}
QNDP .PSI                                              :CQG Pressure Without Dynamic Compensation {F13.4}
QCP  .PSI                                              :CQG Pressure With Dynamic Compensation {F13.4}
QPCO .PSI                                              :CQG Dynamic Compensation {F13.4}
#-----------------------------------------------------------------------------
# 
#     TIME      TENS_SL      DEPT_SL      PDEP_XPT     MTEP_SAP     MTEP_HYD     PCO_HYD      PND_HYD       CP_HYD      MTEP_QG       PTNO_XPT       ETIM_XPT     PCO_SAP      PND_SAP       CP_SAP        QNDP         QCP          QPCO
#
~A  
# ...
     990.0    4710.6419 1451040.0000    3684.0325     122.2848     122.8569       0.0102    5998.4061    5998.4164     122.8028         13     175.4819       0.0097    5534.5602    5534.5700    5531.6155    5531.8197       0.2039
     991.0    4676.5544 1451040.0000    3684.0325     122.2874     122.8562       0.0093    5998.4624    5998.4717     122.8036         13     176.4819       0.0103    5534.7114    5534.7218    5531.6225    5531.8240       0.2015
     992.0    4671.1450 1451040.0000    3684.0325     122.2842     122.8559       0.0089    5998.3996    5998.4084     122.8041         13     177.4819       0.0130    5534.5749    5534.5879    5531.6225    5531.8214       0.1989
     993.0    4656.3988 1451040.0000    3684.0325     122.2855     122.8562       0.0103    5998.5820    5998.5923     122.8048         13     178.4819       0.0161    5534.5348    5534.5509    5531.6239    5531.8207       0.1966
     994.0    4652.2281 1451040.0000    3684.0325     122.2864     122.8562       0.0141    5998.5220    5998.5360     122.8056         13     179.4819       0.0211    5534.6191    5534.6402    5531.6238    5531.8185       0.1949
     995.0    4704.8144 1451040.0000    3684.0325     122.2878     122.8565       0.0182    5998.4059    5998.4241     122.8062         13     180.4819       0.0280    5534.5942    5534.6223    5531.6205    5531.8139       0.1933
     996.0    4760.7100 1451040.0000    3684.0325     122.2866     122.8555       0.0195    5998.3411    5998.3606     122.8066         13     181.4819       0.0331    5534.4922    5534.5254    5531.6212    5531.8127       0.1914
     997.0    4764.1812 1451040.0000    3684.0325     122.2881     122.8589       0.0178    5998.4069    5998.4247     122.8075         13     182.4819       0.0342    5534.5400    5534.5741    5531.6183    5531.8081       0.1898
     998.0    4753.2175 1451040.0000    3684.0325     122.2877     122.8593       0.0151    5998.3150    5998.3301     122.8080         13     183.4819       0.0325    5534.5817    5534.6141    5531.6158    5531.8040       0.1882
     999.0    4734.9531 1451040.0000    3684.0325     122.2897     122.8570       0.0131    5998.1775    5998.1907     122.8083         13     184.4819       0.0293    5534.6296    5534.6589    5531.6141    5531.8006       0.1864
    1000.0    4694.5331 1451040.0000    3684.0325     122.2887     122.8578       0.0132    5998.3000    5998.3133     122.8092         13     185.4819       0.0244    5534.5772    5534.6017    5531.6174    5531.8018       0.1844
    1001.0    4665.0000 1451040.0000    3684.0325     122.2910     122.8593       0.0150    5998.4346    5998.4495     122.8099         13     186.4819       0.0189    5534.6224    5534.6416    5531.6210    5531.8040       0.1830
    1002.0    4669.3369 1451040.0000    3684.0325     122.2922     122.8577       0.0168    5998.3587    5998.3757     122.8101         13     187.4819       0.0158    5534.6516    5534.6673    5531.6254    5531.8075       0.1819
    1003.0    4681.2281 1451040.0000    3684.0325     122.2908     122.8584       0.0179    5998.4412    5998.4593     122.8110         13     188.4819       0.0156    5534.5958    5534.6114    5531.6301    5531.8101       0.1802
    1004.0    4695.2644 1451040.0000    3684.0325     122.2902     122.8600       0.0182    5998.6216    5998.6396     122.8117         13     189.4819       0.0170    5534.5617    5534.5786    5531.6276    5531.8060       0.1785
    1005.0    4732.8400 1451040.0000    3684.0325     122.2915     122.8608       0.0173    5998.5103    5998.5274     122.8124         13     190.4819       0.0195    5534.5302    5534.5497    5531.6222    5531.7995       0.1775
    1006.0    4750.5800 1451040.0000    3684.0325     122.2914     122.8604       0.0145    5998.3700    5998.3844     122.8127         13     191.4819       0.0235    5534.5287    5534.5521    5531.6172    5531.7939       0.1766
    1007.0    4740.7463 1451040.0000    3684.0325     122.2918     122.8597       0.0125    5998.3792    5998.3916     122.8132         13     192.4819       0.0276    5534.4928    5534.5205    5531.6171    5531.7921       0.1749
    1008.0    4749.4456 1451040.0000    3684.0325     122.2920     122.8608       0.0135    5998.2990    5998.3126     122.8140         13     193.4819       0.0292    5534.5390    5534.5683    5531.6128    5531.7857       0.1731
    1009.0    4757.2644 1451040.0000    3684.0325     122.2917     122.8608       0.0170    5998.2603    5998.2772     122.8144         13     194.4819       0.0275    5534.4675    5534.4950    5531.6134    5531.7853       0.1719
    1010.0    4728.8231 1451040.0000    3684.0325     122.2948     122.8602       0.0197    5998.3662    5998.3861     122.8150         13     195.4819       0.0241    5534.5905    5534.6145    5531.6188    5531.7902       0.1714
    1011.0    4680.8806 1451040.0000    3684.0325     122.2950     122.8618       0.0207    5998.3416    5998.3621     122.8157         13     196.4819       0.0204    5534.6356    5534.6561    5531.6121    5531.7825       0.1703
    1012.0    4653.6163 1451040.0000    3684.0325     122.2946     122.8623       0.0198    5998.3758    5998.3957     122.8160         13     197.4819       0.0170    5534.5206    5534.5375    5531.6122    5531.7809       0.1686
    1013.0    4632.1450 1451040.0000    3684.0325     122.2948     122.8623       0.0166    5998.4534    5998.4699     122.8166         13     198.4819       0.0153    5534.5430    5534.5584    5531.6127    5531.7794       0.1668
    1014.0    4636.1919 1451040.0000    3684.0325     122.2955     122.8623       0.0127    5998.4668    5998.4795     122.8169         13     199.4819       0.0159    5534.5692    5534.5853    5531.6049    5531.7704       0.1655
    1015.0    4682.1044 1451040.0000    3684.0325     122.2944     122.8630       0.0103    5998.3836    5998.3939     122.8177         13     200.4819       0.0173    5534.4141    5534.4314    5531.6109    5531.7758       0.1648
    1016.0    4748.0212 1451040.0000    3684.0325     122.2940     122.8633       0.0103    5998.4176    5998.4279     122.8181         13     201.4819       0.0176    5534.4105    5534.4281    5531.6125    5531.7760       0.1636
    1017.0    4772.1450 1451040.0000    3684.0325     122.2964     122.8616       0.0111    5998.3989    5998.4101     122.8186         13     202.4819       0.0178    5534.4868    5534.5048    5531.6116    5531.7738       0.1623
    1018.0    4762.6994 1451040.0000    3684.0325     122.2968     122.8638       0.0121    5998.3773    5998.3896     122.8194         13     203.4819       0.0193    5534.5729    5534.5923    5531.6092    5531.7698       0.1606
    1019.0    4739.6525 1451040.0000    3684.0325     122.2974     122.8640       0.0138    5998.3408    5998.3548     122.8200         13     204.4819       0.0138    5534.6137    5534.6274    5531.6079    5531.7556       0.1476
    1020.0    4693.0513 1451040.0000    3684.0325     122.2970     122.8631       0.0151    5998.3555    5998.3706     122.8201         13     205.4819      -0.0106    5534.4612    5534.4506    5531.6151    5531.7225       0.1072
    1021.0    4645.6525 1451040.0000    3684.0325     122.2971     122.8644       0.0149    5998.3830    5998.3980     122.8209         13     206.4819      -0.0566    5534.5653    5534.5088    5531.6084    5531.6418       0.0336
    1022.0    4633.7463 1451040.0000    3684.0325     122.2982     122.8649       0.0132    5998.3619    5998.3753     122.8213         13     207.4819      -0.1081    5534.5131    5534.4051    5531.6048    5531.5513      -0.0535
    1023.0    4660.7569 1451040.0000    3684.0325     122.2972     122.8646       0.0115    5998.3706    5998.3823     122.8216         13     208.4819      -0.1463    5534.4071    5534.2606    5531.6044    5531.4747      -0.1298
    1024.0    4703.2025 1451040.0000    3684.0325     122.2945     122.8644       0.0109    5998.5270    5998.5378     122.8211         13     209.4819      -0.1635    5502.6471    5502.4837    5500.5005    5500.3142      -0.1861
