~VERSION INFORMATION
VERS.           2.0   :CWLS Log ASCII Standard - VERSION 2.0
WRAP.           NO    :One Line per depth step
PROD.  Schlumberger   :LAS Producer
PROG.  DLIS to ASCII 2.2                               :LAS Program name and version
CREA.        2020/10/30 12:18                          :LAS Creation date {YYYY/MM/DD hh:mm}
SOURCE.     XPT_HRLA_TLD_MCFL_061LTP.DLIS              :DLIS File Name
FILE-ID.     XPT_HRLA_TLD_MCFL_061LTP                  :File Identification Number
#--------------------------------------------------
~WELL INFORMATION
#MNEM.UNIT      DATA             DESCRIPTION
#---- ------ --------------   -----------------------------
STRT .S         9381.0       :START TIME      
STOP .S         9562.0       :STOP TIME      
STEP .S            1.0       :STEP     
NULL .          -999.25      :NULL VALUE
COMP .        Nexus Energy                             :COMPANY
WELL .        Crux-3                                   :WELL
FLD  .        Crux                                     :FIELD
LOC  .        Easting: 656981.7mE                      :LOCATION
CNTY .        Sedco-703                                :COUNTY
STAT .        Northern Territory                       :STATE
CTRY .        Australia                                :COUNTRY
API  .                                                 :API NUMBER
UWI  .                                                 :UNIQUE WELL ID
DATE .        31-Dec-2007                              :LOG DATE {DD-MMM-YYYY}
SRVC .        Schlumberger                             :SERVICE COMPANY
LATI .DEG     12*57'32.63" S                           :LATITUDE
LONG .DEG     124*26'50.07" E                          :LONGITUDE
GDAT .                                                 :GeoDetic Datum
#-----------------------------------------------------------------------------
~PARAMETER INFORMATION
#MNEM.UNIT    VALUE                      DESCRIPTION
#---- -----   --------------------       ------------------------
RUN  .          1                        :RUN NUMBER
PDAT .        LAT                        :Permanent Datum
EPD  .M           0.000000               :Elevation of Permanent Datum above Mean Sea Level
EPD  .M           0.000000               :Elevation of tool zero above Mean Sea Level
LMF  .          DF                       :Logging Measured From (Name of Logging Elevation Reference)
APD  .M          26.400000               :Elevation of Depth Reference (LMF) above Permanent Datum
#-----------------------------------------------------------------------------
~CURVE INFORMATION
#MNEM.UNIT   API CODE                                  DESCRIPTION
#---- -----  --------                                  -----------------------
TIME .S                                                :TIME {F10.1}
TENS_SL.LBF                                            :Cable Tension {F13.4}
DEPT_SL..1IN                                           :Station logging depth {F13.4}
PDEP_XPT.M                                             :XPT Probe Depth {F13.4}
MTEP_SAP.DEGC                                          :Sapphire Gauge Manometer Temperature {F13.4}
MTEP_HYD.DEGC                                          :Hydrostatic Sapphire Gauge Manometer Temperature {F13.4}
PCO_HYD.PSI                                            :Hydrostatic Sapphire Dynamic Compensation {F13.4}
PND_HYD.PSI                                            :Hydrostatic Sapphire Pressure Without Dynamic Compensation {F13.4}
CP_HYD.PSI                                             :Hydrostatic Sapphire Pressure With Dynamic Compensation {F13.4}
MTEP_QG.DEGC                                           :CQG Manometer Temperature {F13.4}
PTNO_XPT.                                              :XPT Pretest Number {I11}
ETIM_XPT.S                                             :Elapsed Logging Time {F13.4}
PCO_SAP.PSI                                            :Sapphire Dynamic Compensation {F13.4}
PND_SAP.PSI                                            :Sapphire Pressure Without Dynamic Compensation {F13.4}
CP_SAP.PSI                                             :Sapphire Pressure With Dynamic Compensation {F13.4}
QNDP .PSI                                              :CQG Pressure Without Dynamic Compensation {F13.4}
QCP  .PSI                                              :CQG Pressure With Dynamic Compensation {F13.4}
QPCO .PSI                                              :CQG Dynamic Compensation {F13.4}
#-----------------------------------------------------------------------------
# 
#     TIME      TENS_SL      DEPT_SL      PDEP_XPT     MTEP_SAP     MTEP_HYD     PCO_HYD      PND_HYD       CP_HYD      MTEP_QG       PTNO_XPT       ETIM_XPT     PCO_SAP      PND_SAP       CP_SAP        QNDP         QCP          QPCO
#
~A  
# ...
    9451.0    4896.9900 1547081.0000    3927.9766     129.2848     129.8579       0.0677    6385.9639    6386.0317     129.8114         25      69.6220      -0.0036    6337.5835    6337.5797    6335.6880    6335.6797      -0.0085
    9452.0    4951.3200 1547081.0000    3927.9766     129.2863     129.8609       0.0649    6385.8760    6385.9408     129.8114         25      70.6220       0.0029    6337.5981    6337.6011    6334.7621    6334.7534      -0.0089
    9453.0    5003.8560 1547081.0000    3927.9766     129.2854     129.8602       0.0591    6385.9282    6385.9873     129.8113         25      71.6220       0.0085    6334.0986    6334.1072    6331.9600    6331.9478      -0.0121
    9454.0    5050.6120 1547081.0000    3927.9766     129.2867     129.8617       0.0513    6385.8242    6385.8753     129.8114         25      72.6220       0.0084    6330.5610    6330.5693    6328.1938    6328.1690      -0.0247
    9455.0    5089.7700 1547081.0000    3927.9766     129.2870     129.8612       0.0456    6385.7290    6385.7745     129.8115         25      73.6220       0.0036    6325.9727    6325.9763    6323.7998    6323.7571      -0.0428
    9456.0    5121.0380 1547081.0000    3927.9766     129.2868     129.8643       0.0449    6385.7622    6385.8070     129.8117         25      74.6220      -0.0003    6319.4742    6319.4739    6317.1549    6317.0968      -0.0580
    9457.0    5113.9620 1547081.0000    3927.9766     129.2852     129.8643       0.0478    6385.7247    6385.7726     129.8106         25      75.6220       0.0020    6306.7012    6306.7033    6304.6830    6304.6176      -0.0653
    9458.0    5099.2680 1547081.0000    3927.9766     129.2854     129.8643       0.0498    6385.6280    6385.6778     129.8105         25      76.6220       0.0123    6297.8783    6297.8906    6295.9943    6295.9320      -0.0622
    9459.0    5032.9340 1547081.0000    3927.9766     129.2856     129.8654       0.0500    6385.7139    6385.7638     129.8102         25      77.6220       0.0287    6288.4662    6288.4949    6286.4826    6286.4348      -0.0478
    9460.0    4940.5080 1547081.0000    3927.9766     129.2850     129.8663       0.0508    6385.7053    6385.7561     129.8102         25      78.6220       0.0472    6284.7018    6284.7491    6282.7317    6282.7068      -0.0247
    9461.0    4894.3160 1547081.0000    3927.9766     129.2869     129.8692       0.0539    6385.8154    6385.8695     129.8100         25      79.6220       0.0644    6286.3096    6286.3741    6284.1562    6284.1581       0.0019
    9462.0    4955.6640 1547081.0000    3927.9766     129.2910     129.8690       0.0568    6385.8740    6385.9309     129.8101         25      80.6220       0.0784    6287.1824    6287.2606    6284.8852    6284.9123       0.0269
    9463.0    5021.6360 1547081.0000    3927.9766     129.2925     129.8696       0.0563    6385.9829    6386.0390     129.8104         25      81.6220       0.0858    6287.9566    6288.0425    6285.5668    6285.6124       0.0455
    9464.0    5071.4540 1547081.0000    3927.9766     129.2931     129.8694       0.0547    6385.7931    6385.8478     129.8104         25      82.6220       0.0826    6288.3468    6288.4293    6285.9782    6286.0309       0.0527
    9465.0    5079.3160 1547081.0000    3927.9766     129.2943     129.8720       0.0552    6385.7409    6385.7959     129.8110         25      83.6220       0.0689    6286.7479    6286.8167    6284.2707    6284.3174       0.0469
    9466.0    5100.2340 1547081.0000    3927.9766     129.2965     129.8734       0.0579    6385.6965    6385.7542     129.8112         25      84.6220       0.0486    6288.4217    6288.4701    6285.9037    6285.9334       0.0299
    9467.0    5114.8900 1547081.0000    3927.9766     129.2980     129.8734       0.0589    6385.5772    6385.6361     129.8113         25      85.6220       0.0264    6288.4657    6288.4922    6285.8508    6285.8576       0.0069
    9468.0    5096.8280 1547081.0000    3927.9766     129.2968     129.8748       0.0572    6385.5743    6385.6315     129.8113         25      86.6220       0.0153    6277.7000    6277.7153    6275.4795    6275.4815       0.0019
    9469.0    5047.1920 1547081.0000    3927.9766     129.2974     129.8764       0.0548    6385.7119    6385.7666     129.8112         25      87.6220       0.0362    6264.6911    6264.7274    6262.4364    6262.4837       0.0471
    9470.0    4968.8860 1547081.0000    3927.9766     129.2946     129.8772       0.0529    6385.7217    6385.7747     129.8106         25      88.6220       0.0997    6249.4433    6249.5431    6247.3609    6247.5125       0.1514
    9471.0    5003.1760 1547081.0000    3927.9766     129.2949     129.8775       0.0513    6385.7847    6385.8361     129.8104         25      89.6220       0.1849    6235.2943    6235.4791    6233.1465    6233.4283       0.2820
    9472.0    4977.4460 1547081.0000    3927.9766     129.2937     129.8795       0.0500    6385.9273    6385.9776     129.8100         25      90.6220       0.2581    6223.3143    6223.5724    6221.1702    6221.5704       0.4004
    9473.0    4969.3440 1547081.0000    3927.9766     129.3012     129.8803       0.0507    6385.9961    6386.0466     129.8129         25      91.6220       0.3000    6284.9545    6285.2544    6281.2532    6281.7487       0.4954
    9474.0    4951.6800 1547081.0000    3927.9766     129.3241     129.8803       0.0527    6385.7596    6385.8122     129.8176         25      92.6220       0.3073    6382.9707    6383.2780    6378.6906    6379.2538       0.5633
    9475.0    4998.6640 1547081.0000    3927.9766     129.3283     129.8818       0.0544    6385.8223    6385.8765     129.8188         25      93.6220       0.2751    6384.1118    6384.3869    6379.8413    6380.4284       0.5872
    9476.0    5049.0860 1547081.0000    3927.9766     129.3299     129.8827       0.0558    6385.6726    6385.7285     129.8200         25      94.6220       0.2023    6383.7019    6383.9043    6379.6494    6380.2061       0.5566
    9477.0    5080.7460 1547081.0000    3927.9766     129.3307     129.8840       0.0580    6385.7017    6385.7596     129.8213         25      95.6220       0.1140    6383.6001    6383.7142    6379.8802    6380.3824       0.5023
    9478.0    5108.8180 1547081.0000    3927.9766     129.3288     129.8856       0.0612    6385.5166    6385.5777     129.8227         25      96.6220       0.0444    6383.3269    6383.3713    6379.7361    6380.1990       0.4627
    9479.0    5094.8520 1547081.0000    3927.9766     129.3296     129.8845       0.0636    6385.4873    6385.5510     129.8242         25      97.6220       0.0100    6383.1820    6383.1919    6379.7797    6380.2278       0.4479
    9480.0    5038.4600 1547081.0000    3927.9766     129.3306     129.8866       0.0649    6385.7026    6385.7674     129.8259         25      98.6220       0.0007    6383.2812    6383.2820    6379.9542    6380.3944       0.4401
    9481.0    4968.4600 1547081.0000    3927.9766     129.3307     129.8872       0.0659    6385.7092    6385.7751     129.8270         25      99.6220       0.0009    6383.2672    6383.2682    6380.0499    6380.4748       0.4250
    9482.0    5004.2000 1547081.0000    3927.9766     129.3290     129.8897       0.0662    6385.8459    6385.9121     129.8285         25     100.6220       0.0034    6383.2617    6383.2650    6380.1892    6380.5933       0.4042
    9483.0    5004.6800 1547081.0000    3927.9766     129.3296     129.8912       0.0647    6385.8800    6385.9447     129.8297         25     101.6220       0.0075    6383.4429    6383.4504    6380.4551    6380.8363       0.3811
    9484.0    4966.4500 1547081.0000    3927.9766     129.3313     129.8917       0.0614    6386.0600    6386.1215     129.8309         25     102.6220       0.0136    6383.4494    6383.4627    6380.4340    6380.7924       0.3581
    9485.0    4940.2060 1547081.0000    3927.9766     129.3306     129.8931       0.0590    6385.9540    6386.0129     129.8321         25     103.6220       0.0199    6383.2289    6383.2490    6380.2938    6380.6294       0.3356
