~VERSION INFORMATION
VERS.           2.0   :CWLS Log ASCII Standard - VERSION 2.0
WRAP.           NO    :One Line per depth step
PROD.  Schlumberger   :LAS Producer
PROG.  DLIS to ASCII 2.2                               :LAS Program name and version
CREA.        2020/10/30 12:18                          :LAS Creation date {YYYY/MM/DD hh:mm}
SOURCE.     XPT_HRLA_TLD_MCFL_046LTP.DLIS              :DLIS File Name
FILE-ID.     XPT_HRLA_TLD_MCFL_046LTP                  :File Identification Number
#--------------------------------------------------
~WELL INFORMATION
#MNEM.UNIT      DATA             DESCRIPTION
#---- ------ --------------   -----------------------------
STRT .S         4617.0       :START TIME      
STOP .S         5507.0       :STOP TIME      
STEP .S            1.0       :STEP     
NULL .          -999.25      :NULL VALUE
COMP .        Nexus Energy                             :COMPANY
WELL .        Crux-3                                   :WELL
FLD  .        Crux                                     :FIELD
LOC  .        Easting: 656981.7mE                      :LOCATION
CNTY .        Sedco-703                                :COUNTY
STAT .        Northern Territory                       :STATE
CTRY .        Australia                                :COUNTRY
API  .                                                 :API NUMBER
UWI  .                                                 :UNIQUE WELL ID
DATE .        31-Dec-2007                              :LOG DATE {DD-MMM-YYYY}
SRVC .        Schlumberger                             :SERVICE COMPANY
LATI .DEG     12*57'32.63" S                           :LATITUDE
LONG .DEG     124*26'50.07" E                          :LONGITUDE
GDAT .                                                 :GeoDetic Datum
#-----------------------------------------------------------------------------
~PARAMETER INFORMATION
#MNEM.UNIT    VALUE                      DESCRIPTION
#---- -----   --------------------       ------------------------
RUN  .          1                        :RUN NUMBER
PDAT .        LAT                        :Permanent Datum
EPD  .M           0.000000               :Elevation of Permanent Datum above Mean Sea Level
EPD  .M           0.000000               :Elevation of tool zero above Mean Sea Level
LMF  .          DF                       :Logging Measured From (Name of Logging Elevation Reference)
APD  .M          26.400000               :Elevation of Depth Reference (LMF) above Permanent Datum
#-----------------------------------------------------------------------------
~CURVE INFORMATION
#MNEM.UNIT   API CODE                                  DESCRIPTION
#---- -----  --------                                  -----------------------
TIME .S                                                :TIME {F10.1}
TENS_SL.LBF                                            :Cable Tension {F13.4}
DEPT_SL..1IN                                           :Station logging depth {F13.4}
PDEP_XPT.M                                             :XPT Probe Depth {F13.4}
MTEP_SAP.DEGC                                          :Sapphire Gauge Manometer Temperature {F13.4}
MTEP_HYD.DEGC                                          :Hydrostatic Sapphire Gauge Manometer Temperature {F13.4}
PCO_HYD.PSI                                            :Hydrostatic Sapphire Dynamic Compensation {F13.4}
PND_HYD.PSI                                            :Hydrostatic Sapphire Pressure Without Dynamic Compensation {F13.4}
CP_HYD.PSI                                             :Hydrostatic Sapphire Pressure With Dynamic Compensation {F13.4}
MTEP_QG.DEGC                                           :CQG Manometer Temperature {F13.4}
PTNO_XPT.                                              :XPT Pretest Number {I11}
ETIM_XPT.S                                             :Elapsed Logging Time {F13.4}
PCO_SAP.PSI                                            :Sapphire Dynamic Compensation {F13.4}
PND_SAP.PSI                                            :Sapphire Pressure Without Dynamic Compensation {F13.4}
CP_SAP.PSI                                             :Sapphire Pressure With Dynamic Compensation {F13.4}
QNDP .PSI                                              :CQG Pressure Without Dynamic Compensation {F13.4}
QCP  .PSI                                              :CQG Pressure With Dynamic Compensation {F13.4}
QPCO .PSI                                              :CQG Dynamic Compensation {F13.4}
#-----------------------------------------------------------------------------
# 
#     TIME      TENS_SL      DEPT_SL      PDEP_XPT     MTEP_SAP     MTEP_HYD     PCO_HYD      PND_HYD       CP_HYD      MTEP_QG       PTNO_XPT       ETIM_XPT     PCO_SAP      PND_SAP       CP_SAP        QNDP         QCP          QPCO
#
~A  
# ...
    4722.0    4829.6180 1443523.0000    3664.9392     121.8428     122.3941      -0.0027    5967.3937    5967.3908     122.4667          8     104.6870      -0.0005    5965.6942    5965.6937    5962.9974    5963.0111       0.0139
    4723.0    4834.6870 1443523.0000    3664.9392     121.8432     122.3941      -0.0022    5967.4100    5967.4077     122.4669          8     105.6870       0.0028    5965.6612    5965.6640    5962.9924    5963.0065       0.0142
    4724.0    4833.6260 1443523.0000    3664.9392     121.8434     122.3946       0.0007    5967.4099    5967.4105     122.4669          8     106.6870       0.0077    5965.7357    5965.7434    5962.9970    5963.0116       0.0146
    4725.0    4834.3740 1443523.0000    3664.9392     121.8421     122.3941       0.0036    5967.3926    5967.3960     122.4669          8     107.6870       0.0106    5965.6640    5965.6747    5962.9913    5963.0060       0.0146
    4726.0    4825.3820 1443523.0000    3664.9392     121.8443     122.3941       0.0044    5967.3926    5967.3970     122.4669          8     108.6870       0.0111    5965.7450    5965.7563    5963.0049    5963.0190       0.0143
    4727.0    4818.2520 1443523.0000    3664.9392     121.8441     122.3941       0.0042    5967.4338    5967.4382     122.4670          8     109.6870       0.0111    5965.6450    5965.6562    5962.9742    5962.9879       0.0137
    4728.0    4816.3130 1443523.0000    3664.9392     121.8444     122.3953       0.0049    5967.4356    5967.4404     122.4672          8     110.6870       0.0105    5965.7425    5965.7532    5962.9940    5963.0077       0.0135
    4729.0    4831.8010 1443523.0000    3664.9392     121.8446     122.3951       0.0057    5967.4877    5967.4936     122.4673          8     111.6870       0.0082    5965.6568    5965.6648    5962.9876    5963.0012       0.0136
    4730.0    4828.6950 1443523.0000    3664.9392     121.8442     122.3941       0.0047    5967.4338    5967.4383     122.4671          8     112.6870       0.0053    5965.6463    5965.6516    5962.9941    5963.0077       0.0138
    4731.0    4764.9180 1443523.0000    3664.9392     121.8468     122.3949       0.0030    5967.4315    5967.4344     122.4672          8     113.6870       0.0043    5965.8485    5965.8528    5963.0142    5963.0284       0.0143
    4732.0    4752.4270 1443523.0000    3664.9392     121.8460     122.3952       0.0025    5967.4358    5967.4383     122.4673          8     114.6870       0.0044    5965.6999    5965.7043    5963.0214    5963.0362       0.0149
    4733.0    4744.5730 1443523.0000    3664.9392     121.8444     122.3949       0.0034    5967.4829    5967.4861     122.4674          8     115.6870       0.0031    5965.7856    5965.7888    5963.0722    5963.0870       0.0146
    4734.0    4740.0610 1443523.0000    3664.9392     121.8447     122.3952       0.0050    5967.5238    5967.5286     122.4675          8     116.6870      -0.0006    5965.8928    5965.8924    5963.0954    5963.1053       0.0097
    4735.0    4736.1910 1443523.0000    3664.9392     121.8458     122.3945       0.0060    5967.4842    5967.4902     122.4675          8     117.6870      -0.0077    5965.7911    5965.7834    5963.0633    5963.0579      -0.0055
    4736.0    4786.2120 1443523.0000    3664.9392     121.8448     122.3958       0.0067    5967.4702    5967.4770     122.4673          8     118.6870      -0.0203    5965.7634    5965.7431    5963.0306    5962.9987      -0.0319
    4737.0    4818.2440 1443523.0000    3664.9392     121.8450     122.3949       0.0070    5967.4604    5967.4673     122.4676          8     119.6870      -0.0377    5965.6607    5965.6228    5962.9635    5962.8994      -0.0638
    4738.0    4822.6870 1443523.0000    3664.9392     121.8457     122.3956       0.0063    5967.4087    5967.4149     122.4675          8     120.6870      -0.0537    5965.6524    5965.5985    5963.0136    5962.9197      -0.0939
    4739.0    4835.3660 1443523.0000    3664.9392     121.8443     122.3966       0.0046    5967.3958    5967.4004     122.4668          8     121.6870      -0.0631    5950.7825    5950.7192    5942.7564    5942.6356      -0.1209
    4740.0    4840.3130 1443523.0000    3664.9392     121.8393     122.3949       0.0034    5967.4004    5967.4038     122.4658          8     122.6870      -0.0661    5925.6494    5925.5835    5923.7144    5923.5684      -0.1462
    4741.0    4806.3370 1443523.0000    3664.9392     121.8377     122.3964       0.0057    5967.5361    5967.5419     122.4654          8     123.6870      -0.0620    5924.3853    5924.3233    5922.3691    5922.2036      -0.1657
    4742.0    4762.8330 1443523.0000    3664.9392     121.8376     122.3959       0.0104    5967.5310    5967.5415     122.4652          8     124.6870      -0.0517    5923.1605    5923.1089    5920.7652    5920.5923      -0.1728
    4743.0    4742.4430 1443523.0000    3664.9392     121.8381     122.3949       0.0165    5967.5204    5967.5370     122.4646          8     125.6870      -0.0332    5918.4970    5918.4638    5916.2961    5916.1247      -0.1716
    4744.0    4736.9390 1443523.0000    3664.9392     121.8374     122.3953       0.0218    5967.5247    5967.5464     122.4639          8     126.6870      -0.0131    5914.6376    5914.6243    5908.1144    5907.9478      -0.1668
    4745.0    4717.4510 1443523.0000    3664.9392     121.8358     122.3964       0.0256    5967.5361    5967.5616     122.4633          8     127.6870       0.0004    5905.6235    5905.6240    5898.1973    5898.0354      -0.1621
    4746.0    4737.8540 1443523.0000    3664.9392     121.8366     122.3976       0.0277    5967.6336    5967.6614     122.4625          8     128.6870       0.0118    5891.9054    5891.9170    5889.8079    5889.6549      -0.1528
    4747.0    4814.2040 1443523.0000    3664.9392     121.8377     122.3979       0.0253    5967.6031    5967.6284     122.4621          8     129.6870       0.0217    5891.9647    5891.9864    5889.8143    5889.6772      -0.1371
    4748.0    4852.6180 1443523.0000    3664.9392     121.8380     122.3982       0.0181    5967.5781    5967.5961     122.4618          8     130.6870       0.0297    5894.1775    5894.2071    5891.8881    5891.7702      -0.1179
    4749.0    4846.0080 1443523.0000    3664.9392     121.8387     122.3990       0.0100    5967.5298    5967.5396     122.4612          8     131.6870       0.0358    5893.2634    5893.2994    5891.0615    5890.9621      -0.0994
    4750.0    4832.7560 1443523.0000    3664.9392     121.8408     122.3990       0.0050    5967.4949    5967.5000     122.4611          8     132.6870       0.0403    5894.3737    5894.4140    5891.9323    5891.8490      -0.0835
    4751.0    4843.4270 1443523.0000    3664.9392     121.8392     122.3988       0.0032    5967.4649    5967.4680     122.4610          8     133.6870       0.0410    5895.6570    5895.6979    5893.1868    5893.1149      -0.0719
    4752.0    4812.2150 1443523.0000    3664.9392     121.8405     122.3983       0.0027    5967.4567    5967.4597     122.4607          8     134.6870       0.0346    5896.4238    5896.4586    5893.9295    5893.8621      -0.0674
    4753.0    4757.2150 1443523.0000    3664.9392     121.8422     122.3982       0.0027    5967.5043    5967.5069     122.4606          8     135.6870       0.0215    5897.2672    5897.2887    5894.6928    5894.6201      -0.0729
    4754.0    4722.8250 1443523.0000    3664.9392     121.8430     122.3982       0.0036    5967.5186    5967.5223     122.4607          8     136.6870       0.0046    5897.5940    5897.5986    5895.0168    5894.9282      -0.0884
    4755.0    4743.8540 1443523.0000    3664.9392     121.8443     122.3991       0.0049    5967.6441    5967.6490     122.4607          8     137.6870      -0.0149    5896.8177    5896.8028    5894.1893    5894.0778      -0.1117
    4756.0    4715.0930 1443523.0000    3664.9392     121.8424     122.3990       0.0049    5967.6917    5967.6966     122.4600          8     138.6870      -0.0372    5887.6044    5887.5673    5885.1610    5885.0206      -0.1403
