~VERSION INFORMATION
VERS.           2.0   :CWLS Log ASCII Standard - VERSION 2.0
WRAP.           NO    :One Line per depth step
PROD.  Schlumberger   :LAS Producer
PROG.  DLIS to ASCII 2.2                               :LAS Program name and version
CREA.        2020/10/30 12:18                          :LAS Creation date {YYYY/MM/DD hh:mm}
SOURCE.     XPT_HRLA_TLD_MCFL_045LTP.DLIS              :DLIS File Name
FILE-ID.     XPT_HRLA_TLD_MCFL_045LTP                  :File Identification Number
#--------------------------------------------------
~WELL INFORMATION
#MNEM.UNIT      DATA             DESCRIPTION
#---- ------ --------------   -----------------------------
STRT .S         3688.0       :START TIME      
STOP .S         4251.0       :STOP TIME      
STEP .S            1.0       :STEP     
NULL .          -999.25      :NULL VALUE
COMP .        Nexus Energy                             :COMPANY
WELL .        Crux-3                                   :WELL
FLD  .        Crux                                     :FIELD
LOC  .        Easting: 656981.7mE                      :LOCATION
CNTY .        Sedco-703                                :COUNTY
STAT .        Northern Territory                       :STATE
CTRY .        Australia                                :COUNTRY
API  .                                                 :API NUMBER
UWI  .                                                 :UNIQUE WELL ID
DATE .        31-Dec-2007                              :LOG DATE {DD-MMM-YYYY}
SRVC .        Schlumberger                             :SERVICE COMPANY
LATI .DEG     12*57'32.63" S                           :LATITUDE
LONG .DEG     124*26'50.07" E                          :LONGITUDE
GDAT .                                                 :GeoDetic Datum
#-----------------------------------------------------------------------------
~PARAMETER INFORMATION
#MNEM.UNIT    VALUE                      DESCRIPTION
#---- -----   --------------------       ------------------------
RUN  .          1                        :RUN NUMBER
PDAT .        LAT                        :Permanent Datum
EPD  .M           0.000000               :Elevation of Permanent Datum above Mean Sea Level
EPD  .M           0.000000               :Elevation of tool zero above Mean Sea Level
LMF  .          DF                       :Logging Measured From (Name of Logging Elevation Reference)
APD  .M          26.400000               :Elevation of Depth Reference (LMF) above Permanent Datum
#-----------------------------------------------------------------------------
~CURVE INFORMATION
#MNEM.UNIT   API CODE                                  DESCRIPTION
#---- -----  --------                                  -----------------------
TIME .S                                                :TIME {F10.1}
TENS_SL.LBF                                            :Cable Tension {F13.4}
DEPT_SL..1IN                                           :Station logging depth {F13.4}
PDEP_XPT.M                                             :XPT Probe Depth {F13.4}
MTEP_SAP.DEGC                                          :Sapphire Gauge Manometer Temperature {F13.4}
MTEP_HYD.DEGC                                          :Hydrostatic Sapphire Gauge Manometer Temperature {F13.4}
PCO_HYD.PSI                                            :Hydrostatic Sapphire Dynamic Compensation {F13.4}
PND_HYD.PSI                                            :Hydrostatic Sapphire Pressure Without Dynamic Compensation {F13.4}
CP_HYD.PSI                                             :Hydrostatic Sapphire Pressure With Dynamic Compensation {F13.4}
MTEP_QG.DEGC                                           :CQG Manometer Temperature {F13.4}
PTNO_XPT.                                              :XPT Pretest Number {I11}
ETIM_XPT.S                                             :Elapsed Logging Time {F13.4}
PCO_SAP.PSI                                            :Sapphire Dynamic Compensation {F13.4}
PND_SAP.PSI                                            :Sapphire Pressure Without Dynamic Compensation {F13.4}
CP_SAP.PSI                                             :Sapphire Pressure With Dynamic Compensation {F13.4}
QNDP .PSI                                              :CQG Pressure Without Dynamic Compensation {F13.4}
QCP  .PSI                                              :CQG Pressure With Dynamic Compensation {F13.4}
QPCO .PSI                                              :CQG Dynamic Compensation {F13.4}
#-----------------------------------------------------------------------------
# 
#     TIME      TENS_SL      DEPT_SL      PDEP_XPT     MTEP_SAP     MTEP_HYD     PCO_HYD      PND_HYD       CP_HYD      MTEP_QG       PTNO_XPT       ETIM_XPT     PCO_SAP      PND_SAP       CP_SAP        QNDP         QCP          QPCO
#
~A  
# ...
    4178.0    4917.0600 1440603.0000    3657.5227     121.8216     122.3714      -0.0009    5955.5127    5955.5119     122.4605          8     490.0725      -0.0042    5524.9148    5524.9106    5522.3548    5522.3319      -0.0228
    4179.0    4969.8700 1440603.0000    3657.5227     121.8231     122.3711      -0.0038    5955.4283    5955.4244     122.4606          8     491.0725       0.0018    5524.8770    5524.8788    5522.3523    5522.3293      -0.0232
    4180.0    4978.8250 1440603.0000    3657.5227     121.8223     122.3721      -0.0044    5955.3118    5955.3074     122.4605          8     492.0725       0.0068    5524.9059    5524.9126    5522.3511    5522.3282      -0.0227
    4181.0    4950.0575 1440603.0000    3657.5227     121.8222     122.3719      -0.0029    5955.4329    5955.4300     122.4604          8     493.0725       0.0080    5524.9026    5524.9106    5522.3547    5522.3328      -0.0220
    4182.0    4933.2875 1440603.0000    3657.5227     121.8226     122.3706      -0.0016    5955.4178    5955.4163     122.4603          8     494.0725       0.0066    5525.0049    5525.0113    5522.3617    5522.3402      -0.0213
    4183.0    4872.3475 1440603.0000    3657.5227     121.8241     122.3714      -0.0013    5955.4819    5955.4806     122.4604          8     495.0725       0.0051    5524.9591    5524.9643    5522.3566    5522.3371      -0.0197
    4184.0    4860.9550 1440603.0000    3657.5227     121.8235     122.3711       0.0003    5955.5689    5955.5692     122.4604          8     496.0725       0.0045    5524.9910    5524.9956    5522.3589    5522.3414      -0.0173
    4185.0    4822.6525 1440603.0000    3657.5227     121.8241     122.3721       0.0032    5955.8022    5955.8055     122.4601          8     497.0725       0.0032    5525.0225    5525.0260    5522.3604    5522.3457      -0.0148
    4186.0    4834.2625 1440603.0000    3657.5227     121.8219     122.3714       0.0049    5955.6911    5955.6960     122.4600          8     498.0725       0.0085    5524.9089    5524.9173    5522.3577    5522.3597       0.0020
    4187.0    4878.9725 1440603.0000    3657.5227     121.8231     122.3712       0.0041    5955.6555    5955.6596     122.4601          8     499.0725       0.0586    5524.9749    5525.0335    5522.3599    5522.4524       0.0924
    4188.0    4918.3775 1440603.0000    3657.5227     121.8250     122.3727       0.0024    5955.5316    5955.5341     122.4599          8     500.0725       0.1913    5532.9158    5533.1071    5530.0598    5530.3707       0.3112
    4189.0    4935.9275 1440603.0000    3657.5227     121.8225     122.3718       0.0011    5955.3823    5955.3833     122.4600          8     501.0725       0.3862    5525.4544    5525.8405    5522.9130    5523.5411       0.6281
    4190.0    4937.5375 1440603.0000    3657.5227     121.8220     122.3720      -0.0001    5955.3866    5955.3863     122.4603          8     502.0725       0.5637    5532.9939    5533.5574    5530.2588    5531.1998       0.9410
    4191.0    4968.9125 1440603.0000    3657.5227     121.8225     122.3713      -0.0007    5955.2241    5955.2236     122.4598          8     503.0725       0.6586    5525.3561    5526.0147    5522.8827    5524.0606       1.1779
    4192.0    4952.0275 1440603.0000    3657.5227     121.8858     122.3715       0.0006    5955.3345    5955.3351     122.4790          8     504.0725       0.6637    5959.8822    5960.5458    5949.6068    5950.9475       1.3406
    4193.0    4911.6075 1440603.0000    3657.5227     121.8989     122.3712       0.0034    5955.3787    5955.3822     122.4807          8     505.0725       0.5836    5957.4303    5958.0140    5949.9030    5951.3188       1.4157
    4194.0    4880.0575 1440603.0000    3657.5227     121.8998     122.3714       0.0054    5955.4536    5955.4589     122.4830          8     506.0725       0.3504    5957.2348    5957.5851    5950.1906    5951.5166       1.3262
    4195.0    4866.7675 1440603.0000    3657.5227     121.8983     122.3727       0.0052    5955.5912    5955.5965     122.4861          8     507.0725       0.1745    5956.7768    5956.9513    5950.4351    5951.6372       1.2020
    4196.0    4849.0425 1440603.0000    3657.5227     121.8934     122.3730       0.0037    5955.6963    5955.6999     122.4897          8     508.0725      -0.0476    5956.2820    5956.2343    5950.7218    5951.7466       1.0249
    4197.0    4823.3475 1440603.0000    3657.5227     121.8881     122.3722       0.0010    5955.7075    5955.7087     122.4929          8     509.0725      -0.2059    5955.6750    5955.4693    5950.7614    5951.6442       0.8829
    4198.0    4820.3650 1440603.0000    3657.5227     121.8856     122.3715      -0.0005    5955.6330    5955.6324     122.4957          8     510.0725      -0.2375    5955.4272    5955.1897    5950.8070    5951.6369       0.8300
    4199.0    4893.1325 1440603.0000    3657.5227     121.8783     122.3722      -0.0018    5955.5806    5955.5786     122.4987          8     511.0725      -0.2437    5954.8753    5954.6314    5950.7898    5951.5460       0.7562
    4200.0    4946.3625 1440603.0000    3657.5227     121.8741     122.3714      -0.0015    5955.5145    5955.5130     122.5008          8     512.0725      -0.2363    5954.5575    5954.3213    5950.8264    5951.4935       0.6669
    4201.0    4952.0875 1440603.0000    3657.5227     121.8695     122.3713      -0.0010    5955.5516    5955.5506     122.5027          8     513.0725      -0.2220    5954.3421    5954.1202    5950.8312    5951.4034       0.5724
    4202.0    4965.5650 1440603.0000    3657.5227     121.8652     122.3727      -0.0012    5955.4067    5955.4054     122.5046          8     514.0725      -0.2029    5954.0288    5953.8260    5950.8093    5951.2887       0.4794
    4203.0    4956.9550 1440603.0000    3657.5227     121.8631     122.3722      -0.0020    5955.4591    5955.4572     122.5064          8     515.0725      -0.1817    5954.0551    5953.8734    5950.9769    5951.3685       0.3916
    4204.0    4915.3900 1440603.0000    3657.5227     121.8597     122.3720      -0.0026    5955.5193    5955.5168     122.5071          8     516.0725      -0.1624    5954.0991    5953.9367    5951.0813    5951.3926       0.3113
    4205.0    4878.2300 1440603.0000    3657.5227     121.8555     122.3722      -0.0029    5955.5205    5955.5176     122.5080          8     517.0725      -0.1466    5953.9110    5953.7646    5951.1279    5951.3666       0.2388
    4206.0    4832.3925 1440603.0000    3657.5227     121.8569     122.3710      -0.0036    5955.5089    5955.5055     122.5084          8     518.0725      -0.1330    5954.0432    5953.9100    5951.2119    5951.3864       0.1744
    4207.0    4863.3625 1440603.0000    3657.5227     121.8522     122.3705      -0.0045    5955.5770    5955.5726     122.5089          8     519.0725      -0.1203    5954.1789    5954.0587    5951.4084    5951.5268       0.1185
    4208.0    4865.6075 1440603.0000    3657.5227     121.8489     122.3729      -0.0040    5955.7249    5955.7208     122.5091          8     520.0725      -0.1086    5954.1411    5954.0327    5951.5180    5951.5890       0.0709
    4209.0    4838.4075 1440603.0000    3657.5227     121.8479     122.3711      -0.0017    5955.5687    5955.5672     122.5093          8     521.0725      -0.0977    5954.0516    5953.9537    5951.4423    5951.4726       0.0302
    4210.0    4879.9700 1440603.0000    3657.5227     121.8466     122.3718       0.0010    5955.5911    5955.5922     122.5092          8     522.0725      -0.0878    5954.0562    5953.9686    5951.4938    5951.4890      -0.0048
    4211.0    4857.8425 1440603.0000    3657.5227     121.8447     122.3712       0.0022    5955.5701    5955.5724     122.5093          8     523.0725      -0.0789    5954.0208    5953.9422    5951.4932    5951.4578      -0.0353
    4212.0    4908.5225 1440603.0000    3657.5227     121.8450     122.3713       0.0023    5955.4633    5955.4658     122.5090          8     524.0725      -0.0711    5953.9566    5953.8856    5951.3676    5951.3067      -0.0611
