~VERSION INFORMATION
VERS.           2.0   :CWLS Log ASCII Standard - VERSION 2.0
WRAP.           NO    :One Line per depth step
PROD.  Schlumberger   :LAS Producer
PROG.  DLIS to ASCII 2.2                               :LAS Program name and version
CREA.        2020/10/30 12:18                          :LAS Creation date {YYYY/MM/DD hh:mm}
SOURCE.     XPT_HRLA_TLD_MCFL_057LTP.DLIS              :DLIS File Name
FILE-ID.     XPT_HRLA_TLD_MCFL_057LTP                  :File Identification Number
#--------------------------------------------------
~WELL INFORMATION
#MNEM.UNIT      DATA             DESCRIPTION
#---- ------ --------------   -----------------------------
STRT .S         6912.0       :START TIME      
STOP .S         7441.0       :STOP TIME      
STEP .S            1.0       :STEP     
NULL .          -999.25      :NULL VALUE
COMP .        Nexus Energy                             :COMPANY
WELL .        Crux-3                                   :WELL
FLD  .        Crux                                     :FIELD
LOC  .        Easting: 656981.7mE                      :LOCATION
CNTY .        Sedco-703                                :COUNTY
STAT .        Northern Territory                       :STATE
CTRY .        Australia                                :COUNTRY
API  .                                                 :API NUMBER
UWI  .                                                 :UNIQUE WELL ID
DATE .        31-Dec-2007                              :LOG DATE {DD-MMM-YYYY}
SRVC .        Schlumberger                             :SERVICE COMPANY
LATI .DEG     12*57'32.63" S                           :LATITUDE
LONG .DEG     124*26'50.07" E                          :LONGITUDE
GDAT .                                                 :GeoDetic Datum
#-----------------------------------------------------------------------------
~PARAMETER INFORMATION
#MNEM.UNIT    VALUE                      DESCRIPTION
#---- -----   --------------------       ------------------------
RUN  .          1                        :RUN NUMBER
PDAT .        LAT                        :Permanent Datum
EPD  .M           0.000000               :Elevation of Permanent Datum above Mean Sea Level
EPD  .M           0.000000               :Elevation of tool zero above Mean Sea Level
LMF  .          DF                       :Logging Measured From (Name of Logging Elevation Reference)
APD  .M          26.400000               :Elevation of Depth Reference (LMF) above Permanent Datum
#-----------------------------------------------------------------------------
~CURVE INFORMATION
#MNEM.UNIT   API CODE                                  DESCRIPTION
#---- -----  --------                                  -----------------------
TIME .S                                                :TIME {F10.1}
TENS_SL.LBF                                            :Cable Tension {F13.4}
DEPT_SL..1IN                                           :Station logging depth {F13.4}
PDEP_XPT.M                                             :XPT Probe Depth {F13.4}
MTEP_SAP.DEGC                                          :Sapphire Gauge Manometer Temperature {F13.4}
MTEP_HYD.DEGC                                          :Hydrostatic Sapphire Gauge Manometer Temperature {F13.4}
PCO_HYD.PSI                                            :Hydrostatic Sapphire Dynamic Compensation {F13.4}
PND_HYD.PSI                                            :Hydrostatic Sapphire Pressure Without Dynamic Compensation {F13.4}
CP_HYD.PSI                                             :Hydrostatic Sapphire Pressure With Dynamic Compensation {F13.4}
MTEP_QG.DEGC                                           :CQG Manometer Temperature {F13.4}
PTNO_XPT.                                              :XPT Pretest Number {I11}
ETIM_XPT.S                                             :Elapsed Logging Time {F13.4}
PCO_SAP.PSI                                            :Sapphire Dynamic Compensation {F13.4}
PND_SAP.PSI                                            :Sapphire Pressure Without Dynamic Compensation {F13.4}
CP_SAP.PSI                                             :Sapphire Pressure With Dynamic Compensation {F13.4}
QNDP .PSI                                              :CQG Pressure Without Dynamic Compensation {F13.4}
QCP  .PSI                                              :CQG Pressure With Dynamic Compensation {F13.4}
QPCO .PSI                                              :CQG Dynamic Compensation {F13.4}
#-----------------------------------------------------------------------------
# 
#     TIME      TENS_SL      DEPT_SL      PDEP_XPT     MTEP_SAP     MTEP_HYD     PCO_HYD      PND_HYD       CP_HYD      MTEP_QG       PTNO_XPT       ETIM_XPT     PCO_SAP      PND_SAP       CP_SAP        QNDP         QCP          QPCO
#
~A  
# ...
    7157.0    4815.8740 1526236.0000    3875.0305     129.2066     129.6911      -0.0520    6300.8100    6300.7580     129.9357         20     245.0105      -0.0774    5588.7714    5588.6940    5585.9321    5586.1040       0.1720
    7158.0    4804.3990 1526236.0000    3875.0305     129.2027     129.6898      -0.0491    6300.7971    6300.7478     129.9365         20     246.0105      -0.0875    5589.8896    5589.8021    5587.2501    5587.4061       0.1561
    7159.0    4842.8925 1526236.0000    3875.0305     129.2018     129.6895      -0.0471    6300.8534    6300.8062     129.9367         20     247.0105      -0.0944    5590.8237    5590.7292    5588.2077    5588.3423       0.1345
    7160.0    4927.8610 1526236.0000    3875.0305     129.1991     129.6896      -0.0459    6300.9145    6300.8686     129.9372         20     248.0105      -0.0983    5591.5436    5591.4451    5589.0842    5589.1945       0.1101
    7161.0    5008.7900 1526236.0000    3875.0305     129.1991     129.6883      -0.0458    6300.8403    6300.7944     129.9374         20     249.0105      -0.0971    5592.3492    5592.2520    5589.8506    5589.9353       0.0849
    7162.0    4988.9895 1526236.0000    3875.0305     129.1958     129.6871      -0.0469    6300.7446    6300.6976     129.9376         20     250.0105      -0.0927    5592.8508    5592.7581    5590.4369    5590.4962       0.0594
    7163.0    4988.0315 1526236.0000    3875.0305     129.1936     129.6865      -0.0489    6300.7522    6300.7033     129.9376         20     251.0105      -0.0878    5593.3184    5593.2305    5591.0036    5591.0359       0.0324
    7164.0    4990.3910 1526236.0000    3875.0305     129.1931     129.6860      -0.0510    6300.6946    6300.6437     129.9380         20     252.0105      -0.0837    5593.8868    5593.8029    5591.5297    5591.5405       0.0107
    7165.0    4932.4120 1526236.0000    3875.0305     129.1919     129.6850      -0.0532    6300.7972    6300.7441     129.9379         20     253.0105      -0.0779    5594.1839    5594.1060    5591.9231    5591.9125      -0.0107
    7166.0    4877.6825 1526236.0000    3875.0305     129.1903     129.6845      -0.0551    6300.8599    6300.8047     129.9375         20     254.0105      -0.0717    5594.6052    5594.5335    5592.3242    5592.2910      -0.0331
    7167.0    4941.3700 1526236.0000    3875.0305     129.1884     129.6829      -0.0558    6300.8451    6300.7894     129.9375         20     255.0105      -0.0697    5594.8380    5594.7682    5592.6802    5592.6291      -0.0511
    7168.0    4881.5170 1526236.0000    3875.0305     129.1880     129.6809      -0.0553    6300.9270    6300.8715     129.9373         20     256.0105      -0.0699    5595.1471    5595.0771    5592.9800    5592.9113      -0.0687
    7169.0    4836.4515 1526236.0000    3875.0305     129.1868     129.6799      -0.0534    6300.8711    6300.8177     129.9371         20     257.0105      -0.0703    5595.5369    5595.4666    5593.3073    5593.2236      -0.0836
    7170.0    4880.4070 1526236.0000    3875.0305     129.1852     129.6784      -0.0501    6300.8532    6300.8029     129.9370         20     258.0105      -0.0693    5595.7165    5595.6472    5593.6255    5593.5297      -0.0957
    7171.0    5012.6640 1526236.0000    3875.0305     129.1825     129.6790      -0.0465    6300.8153    6300.7688     129.9365         20     259.0105      -0.0684    5595.9776    5595.9092    5593.8953    5593.7893      -0.1062
    7172.0    4981.0735 1526236.0000    3875.0305     129.1835     129.6776      -0.0444    6300.7861    6300.7417     129.9360         20     260.0105      -0.0678    5596.3328    5596.2650    5594.1618    5594.0460      -0.1159
    7173.0    4987.9160 1526236.0000    3875.0305     129.1814     129.6765      -0.0452    6300.6843    6300.6394     129.9356         20     261.0105      -0.0661    5596.4348    5596.3689    5594.4071    5594.2825      -0.1246
    7174.0    4980.0840 1526236.0000    3875.0305     129.1802     129.6775      -0.0479    6300.6032    6300.5555     129.9355         20     262.0105      -0.0630    5596.6877    5596.6246    5594.6014    5594.4698      -0.1317
    7175.0    4986.8345 1526236.0000    3875.0305     129.1790     129.6751      -0.0505    6300.7204    6300.6699     129.9350         20     263.0105      -0.0598    5597.0194    5596.9596    5594.8147    5594.6771      -0.1378
    7176.0    4876.7795 1526236.0000    3875.0305     129.1766     129.6746      -0.0520    6300.7925    6300.7403     129.9346         20     264.0105      -0.0593    5596.9453    5596.8862    5595.0138    5594.8702      -0.1438
    7177.0    4856.5775 1526236.0000    3875.0305     129.1765     129.6731      -0.0518    6300.7817    6300.7300     129.9342         20     265.0105      -0.0604    5597.1715    5597.1112    5595.2081    5595.0581      -0.1498
    7178.0    4910.2125 1526236.0000    3875.0305     129.1753     129.6716      -0.0506    6300.8843    6300.8337     129.9335         20     266.0105      -0.0604    5597.4922    5597.4317    5595.3990    5595.2437      -0.1552
    7179.0    4836.5250 1526236.0000    3875.0305     129.1763     129.6723      -0.0481    6301.0908    6301.0430     129.9331         20     267.0105      -0.0579    5597.6211    5597.5630    5595.5523    5595.3930      -0.1593
    7180.0    4887.1550 1526236.0000    3875.0305     129.1728     129.6698      -0.0446    6300.9592    6300.9146     129.9325         20     268.0105      -0.0541    5597.7598    5597.7056    5595.6795    5595.5165      -0.1631
    7181.0    4995.7585 1526236.0000    3875.0305     129.1719     129.6703      -0.0414    6300.8277    6300.7864     129.9320         20     269.0105      -0.0511    5597.8479    5597.7968    5595.8142    5595.6475      -0.1666
    7182.0    4973.1155 1526236.0000    3875.0305     129.1714     129.6690      -0.0399    6300.8146    6300.7745     129.9315         20     270.0105      -0.0492    5597.9626    5597.9133    5595.9371    5595.7671      -0.1698
    7183.0    4983.7270 1526236.0000    3875.0305     129.1710     129.6682      -0.0410    6300.7455    6300.7043     129.9310         20     271.0105      -0.0486    5598.0892    5598.0404    5596.0614    5595.8894      -0.1719
    7184.0    4957.0445 1526236.0000    3875.0305     129.1695     129.6675      -0.0431    6300.7198    6300.6767     129.9303         20     272.0105      -0.0497    5598.2057    5598.1560    5596.1914    5596.0181      -0.1733
    7185.0    4867.2835 1526236.0000    3875.0305     129.1707     129.6680      -0.0456    6300.8447    6300.7992     129.9302         20     273.0105      -0.0521    5598.3560    5598.3037    5596.3212    5596.1468      -0.1745
    7186.0    4893.1285 1526236.0000    3875.0305     129.1686     129.6659      -0.0483    6300.8422    6300.7939     129.9294         20     274.0105      -0.0543    5598.4598    5598.4054    5596.4462    5596.2702      -0.1761
    7187.0    4810.9160 1526236.0000    3875.0305     129.1672     129.6652      -0.0512    6300.9191    6300.8679     129.9289         20     275.0105      -0.0560    5598.5343    5598.4783    5596.5768    5596.3992      -0.1776
    7188.0    4803.7560 1526236.0000    3875.0305     129.1659     129.6647      -0.0531    6301.0084    6300.9552     129.9284         20     276.0105      -0.0566    5598.7340    5598.6773    5596.6844    5596.5057      -0.1789
    7189.0    4875.9555 1526236.0000    3875.0305     129.1640     129.6627      -0.0537    6300.9276    6300.8739     129.9278         20     277.0105      -0.0553    5598.7422    5598.6869    5596.7828    5596.6026      -0.1802
    7190.0    4966.4515 1526236.0000    3875.0305     129.1637     129.6632      -0.0543    6300.9512    6300.8970     129.9272         20     278.0105      -0.0521    5598.8855    5598.8335    5596.8879    5596.7064      -0.1813
    7191.0    5009.1365 1526236.0000    3875.0305     129.1632     129.6617      -0.0549    6300.8564    6300.8017     129.9268         20     279.0105      -0.0489    5598.9477    5598.8988    5596.9785    5596.7964      -0.1820
