~VERSION INFORMATION
VERS.           2.0   :CWLS Log ASCII Standard - VERSION 2.0
WRAP.           NO    :One Line per depth step
PROD.  Schlumberger   :LAS Producer
PROG.  DLIS to ASCII 2.2                               :LAS Program name and version
CREA.        2020/10/30 12:18                          :LAS Creation date {YYYY/MM/DD hh:mm}
SOURCE.     XPT_HRLA_TLD_MCFL_064LTP.DLIS              :DLIS File Name
FILE-ID.     XPT_HRLA_TLD_MCFL_064LTP                  :File Identification Number
#--------------------------------------------------
~WELL INFORMATION
#MNEM.UNIT      DATA             DESCRIPTION
#---- ------ --------------   -----------------------------
STRT .S         1332.0       :START TIME      
STOP .S         1827.0       :STOP TIME      
STEP .S            1.0       :STEP     
NULL .          -999.25      :NULL VALUE
COMP .        Nexus Energy                             :COMPANY
WELL .        Crux-3                                   :WELL
FLD  .        Crux                                     :FIELD
LOC  .        Easting: 656981.7mE                      :LOCATION
CNTY .        Sedco-703                                :COUNTY
STAT .        Northern Territory                       :STATE
CTRY .        Australia                                :COUNTRY
API  .                                                 :API NUMBER
UWI  .                                                 :UNIQUE WELL ID
DATE .        31-Dec-2007                              :LOG DATE {DD-MMM-YYYY}
SRVC .        Schlumberger                             :SERVICE COMPANY
LATI .DEG     12*57'32.63" S                           :LATITUDE
LONG .DEG     124*26'50.07" E                          :LONGITUDE
GDAT .                                                 :GeoDetic Datum
#-----------------------------------------------------------------------------
~PARAMETER INFORMATION
#MNEM.UNIT    VALUE                      DESCRIPTION
#---- -----   --------------------       ------------------------
RUN  .          1                        :RUN NUMBER
PDAT .        LAT                        :Permanent Datum
EPD  .M           0.000000               :Elevation of Permanent Datum above Mean Sea Level
EPD  .M           0.000000               :Elevation of tool zero above Mean Sea Level
LMF  .          DF                       :Logging Measured From (Name of Logging Elevation Reference)
APD  .M          26.400000               :Elevation of Depth Reference (LMF) above Permanent Datum
#-----------------------------------------------------------------------------
~CURVE INFORMATION
#MNEM.UNIT   API CODE                                  DESCRIPTION
#---- -----  --------                                  -----------------------
TIME .S                                                :TIME {F10.1}
TENS_SL.LBF                                            :Cable Tension {F13.4}
DEPT_SL..1IN                                           :Station logging depth {F13.4}
PDEP_XPT.M                                             :XPT Probe Depth {F13.4}
MTEP_SAP.DEGC                                          :Sapphire Gauge Manometer Temperature {F13.4}
MTEP_HYD.DEGC                                          :Hydrostatic Sapphire Gauge Manometer Temperature {F13.4}
PCO_HYD.PSI                                            :Hydrostatic Sapphire Dynamic Compensation {F13.4}
PND_HYD.PSI                                            :Hydrostatic Sapphire Pressure Without Dynamic Compensation {F13.4}
CP_HYD.PSI                                             :Hydrostatic Sapphire Pressure With Dynamic Compensation {F13.4}
MTEP_QG.DEGC                                           :CQG Manometer Temperature {F13.4}
PTNO_XPT.                                              :XPT Pretest Number {I11}
ETIM_XPT.S                                             :Elapsed Logging Time {F13.4}
PCO_SAP.PSI                                            :Sapphire Dynamic Compensation {F13.4}
PND_SAP.PSI                                            :Sapphire Pressure Without Dynamic Compensation {F13.4}
CP_SAP.PSI                                             :Sapphire Pressure With Dynamic Compensation {F13.4}
QNDP .PSI                                              :CQG Pressure Without Dynamic Compensation {F13.4}
QCP  .PSI                                              :CQG Pressure With Dynamic Compensation {F13.4}
QPCO .PSI                                              :CQG Dynamic Compensation {F13.4}
#-----------------------------------------------------------------------------
# 
#     TIME      TENS_SL      DEPT_SL      PDEP_XPT     MTEP_SAP     MTEP_HYD     PCO_HYD      PND_HYD       CP_HYD      MTEP_QG       PTNO_XPT       ETIM_XPT     PCO_SAP      PND_SAP       CP_SAP        QNDP         QCP          QPCO
#
~A  
# ...
    1542.0    4775.5850 1496483.0000    3799.4575     128.4452     128.8372      -0.1087    6181.9351    6181.8265     129.3916         29     210.1646      -0.0215    5563.6224    5563.6010    5561.0708    5560.9688      -0.1021
    1543.0    4818.5482 1496483.0000    3799.4575     128.4455     128.8349      -0.1090    6181.9240    6181.8151     129.3916         29     211.1646      -0.0926    5564.7614    5564.6686    5562.2997    5562.1917      -0.1082
    1544.0    4864.3660 1496483.0000    3799.4575     128.4390     128.8324      -0.1109    6181.8296    6181.7186     129.3914         29     212.1646      -0.1255    5565.3877    5565.2620    5563.1792    5563.0779      -0.1015
    1545.0    4853.6340 1496483.0000    3799.4575     128.4382     128.8315      -0.1136    6181.8869    6181.7734     129.3910         29     213.1646      -0.1377    5565.9483    5565.8105    5563.8149    5563.7138      -0.1012
    1546.0    4867.0000 1496483.0000    3799.4575     128.4349     128.8294      -0.1149    6181.7378    6181.6230     129.3907         29     214.1646      -0.1409    5566.4146    5566.2735    5564.3981    5564.2878      -0.1105
    1547.0    4861.5674 1496483.0000    3799.4575     128.4316     128.8270      -0.1139    6181.8335    6181.7198     129.3904         29     215.1646      -0.1419    5566.7895    5566.6478    5564.9215    5564.7947      -0.1267
    1548.0    4824.9456 1496483.0000    3799.4575     128.4304     128.8255      -0.1122    6181.8508    6181.7388     129.3900         29     216.1646      -0.1426    5567.2030    5567.0604    5565.3426    5565.1960      -0.1466
    1549.0    4777.6830 1496483.0000    3799.4575     128.4267     128.8211      -0.1120    6181.8310    6181.7192     129.3896         29     217.1646      -0.1426    5567.5113    5567.3687    5565.7590    5565.5913      -0.1677
    1550.0    4765.8966 1496483.0000    3799.4575     128.4247     128.8207      -0.1120    6181.9374    6181.8256     129.3888         29     218.1646      -0.1415    5567.8383    5567.6968    5566.1143    5565.9255      -0.1891
    1551.0    4739.5061 1496483.0000    3799.4575     128.4227     128.8192      -0.1104    6181.8983    6181.7880     129.3882         29     219.1646      -0.1400    5568.0951    5567.9552    5566.4371    5566.2269      -0.2100
    1552.0    4743.0911 1496483.0000    3799.4575     128.4193     128.8180      -0.1090    6182.0960    6181.9871     129.3876         29     220.1646      -0.1382    5568.4886    5568.3504    5566.7629    5566.5327      -0.2301
    1553.0    4770.0490 1496483.0000    3799.4575     128.4174     128.8153      -0.1106    6182.0047    6181.8941     129.3869         29     221.1646      -0.1356    5568.6381    5568.5026    5567.0507    5566.8026      -0.2481
    1554.0    4760.0421 1496483.0000    3799.4575     128.4147     128.8126      -0.1143    6181.9824    6181.8681     129.3861         29     222.1646      -0.1322    5568.8907    5568.7584    5567.3070    5567.0423      -0.2646
    1555.0    4820.2190 1496483.0000    3799.4575     128.4118     128.8104      -0.1164    6181.8989    6181.7827     129.3850         29     223.1646      -0.1294    5569.0858    5568.9563    5567.5593    5567.2796      -0.2798
    1556.0    4865.1891 1496483.0000    3799.4575     128.4097     128.8098      -0.1165    6181.8801    6181.7634     129.3843         29     224.1646      -0.1275    5569.2755    5569.1482    5567.7790    5567.4852      -0.2937
    1557.0    4859.1279 1496483.0000    3799.4575     128.4074     128.8065      -0.1173    6181.8574    6181.7400     129.3835         29     225.1646      -0.1255    5569.4933    5569.3678    5567.9714    5567.6655      -0.3060
    1558.0    4872.0368 1496483.0000    3799.4575     128.4053     128.8042      -0.1187    6181.7129    6181.5942     129.3820         29     226.1646      -0.1230    5569.7927    5569.6696    5568.1903    5567.8729      -0.3174
    1559.0    4854.0368 1496483.0000    3799.4575     128.4033     128.8024      -0.1180    6181.7664    6181.6485     129.3813         29     227.1646      -0.1206    5569.9659    5569.8454    5568.3862    5568.0584      -0.3278
    1560.0    4831.4272 1496483.0000    3799.4575     128.4008     128.8005      -0.1150    6181.7946    6181.6794     129.3802         29     228.1646      -0.1196    5570.1168    5569.9972    5568.5638    5568.2265      -0.3373
    1561.0    4788.2259 1496483.0000    3799.4575     128.3978     128.7975      -0.1131    6181.8232    6181.7099     129.3793         29     229.1646      -0.1189    5570.2782    5570.1595    5568.7478    5568.4028      -0.3450
    1562.0    4760.0490 1496483.0000    3799.4575     128.3966     128.7963      -0.1132    6181.9647    6181.8514     129.3781         29     230.1646      -0.1171    5570.3351    5570.2181    5568.9025    5568.5515      -0.3511
    1563.0    4747.5728 1496483.0000    3799.4575     128.3950     128.7943      -0.1127    6181.9595    6181.8470     129.3771         29     231.1646      -0.1141    5570.4917    5570.3775    5569.0514    5568.6948      -0.3565
    1564.0    4784.3538 1496483.0000    3799.4575     128.3927     128.7929      -0.1108    6181.9546    6181.8437     129.3758         29     232.1646      -0.1116    5570.7578    5570.6464    5569.2019    5568.8403      -0.3617
    1565.0    4775.6708 1496483.0000    3799.4575     128.3898     128.7894      -0.1096    6181.9496    6181.8402     129.3747         29     233.1646      -0.1099    5570.7534    5570.6437    5569.3290    5568.9620      -0.3668
    1566.0    4776.6340 1496483.0000    3799.4575     128.3890     128.7870      -0.1097    6181.8924    6181.7825     129.3737         29     234.1646      -0.1079    5570.9452    5570.8374    5569.4511    5569.0797      -0.3714
    1567.0    4797.4081 1496483.0000    3799.4575     128.3886     128.7861      -0.1087    6181.9161    6181.8076     129.3726         29     235.1646      -0.1066    5571.0587    5570.9522    5569.5747    5569.1998      -0.3750
    1568.0    4840.9265 1496483.0000    3799.4575     128.3841     128.7845      -0.1058    6181.8978    6181.7920     129.3711         29     236.1646      -0.1081    5571.0548    5570.9467    5569.6783    5569.2997      -0.3784
    1569.0    4866.3905 1496483.0000    3799.4575     128.3835     128.7821      -0.1044    6181.8735    6181.7690     129.3700         29     237.1646      -0.1124    5571.2514    5571.1388    5569.7773    5569.3959      -0.3815
    1570.0    4841.0245 1496483.0000    3799.4575     128.3802     128.7806      -0.1070    6181.8782    6181.7714     129.3687         29     238.1646      -0.1159    5571.3419    5571.2258    5569.8677    5569.4839      -0.3838
    1571.0    4831.0000 1496483.0000    3799.4575     128.3777     128.7785      -0.1114    6181.8030    6181.6914     129.3678         29     239.1646      -0.1160    5571.3328    5571.2167    5569.9459    5569.5602      -0.3856
    1572.0    4826.2259 1496483.0000    3799.4575     128.3772     128.7773      -0.1136    6181.8498    6181.7360     129.3665         29     240.1646      -0.1142    5571.4924    5571.3782    5570.0330    5569.6460      -0.3870
    1573.0    4799.5306 1496483.0000    3799.4575     128.3723     128.7740      -0.1132    6181.9284    6181.8151     129.3651         29     241.1646      -0.1127    5571.3650    5571.2522    5570.1113    5569.7222      -0.3892
    1574.0    4785.1891 1496483.0000    3799.4575     128.3719     128.7716      -0.1127    6181.8504    6181.7376     129.3641         29     242.1646      -0.1118    5571.6793    5571.5675    5570.1807    5569.7889      -0.3919
    1575.0    4774.6830 1496483.0000    3799.4575     128.3694     128.7688      -0.1124    6181.8810    6181.7684     129.3627         29     243.1646      -0.1111    5571.6362    5571.5251    5570.2424    5569.8473      -0.3949
    1576.0    4765.8599 1496483.0000    3799.4575     128.3689     128.7685      -0.1107    6181.8781    6181.7672     129.3617         29     244.1646      -0.1105    5571.7082    5571.5977    5570.3016    5569.9037      -0.3977
