~VERSION INFORMATION
VERS.           2.0   :CWLS Log ASCII Standard - VERSION 2.0
WRAP.           NO    :One Line per depth step
PROD.  Schlumberger   :LAS Producer
PROG.  DLIS to ASCII 2.2                               :LAS Program name and version
CREA.        2020/10/30 12:18                          :LAS Creation date {YYYY/MM/DD hh:mm}
SOURCE.     XPT_HRLA_TLD_MCFL_040LTP.DLIS              :DLIS File Name
FILE-ID.     XPT_HRLA_TLD_MCFL_040LTP                  :File Identification Number
#--------------------------------------------------
~WELL INFORMATION
#MNEM.UNIT      DATA             DESCRIPTION
#---- ------ --------------   -----------------------------
STRT .S          916.0       :START TIME      
STOP .S         1395.0       :STOP TIME      
STEP .S            1.0       :STEP     
NULL .          -999.25      :NULL VALUE
COMP .        Nexus Energy                             :COMPANY
WELL .        Crux-3                                   :WELL
FLD  .        Crux                                     :FIELD
LOC  .        Easting: 656981.7mE                      :LOCATION
CNTY .        Sedco-703                                :COUNTY
STAT .        Northern Territory                       :STATE
CTRY .        Australia                                :COUNTRY
API  .                                                 :API NUMBER
UWI  .                                                 :UNIQUE WELL ID
DATE .        31-Dec-2007                              :LOG DATE {DD-MMM-YYYY}
SRVC .        Schlumberger                             :SERVICE COMPANY
LATI .DEG     12*57'32.63" S                           :LATITUDE
LONG .DEG     124*26'50.07" E                          :LONGITUDE
GDAT .                                                 :GeoDetic Datum
#-----------------------------------------------------------------------------
~PARAMETER INFORMATION
#MNEM.UNIT    VALUE                      DESCRIPTION
#---- -----   --------------------       ------------------------
RUN  .          1                        :RUN NUMBER
PDAT .        LAT                        :Permanent Datum
EPD  .M           0.000000               :Elevation of Permanent Datum above Mean Sea Level
EPD  .M           0.000000               :Elevation of tool zero above Mean Sea Level
LMF  .          DF                       :Logging Measured From (Name of Logging Elevation Reference)
APD  .M          26.400000               :Elevation of Depth Reference (LMF) above Permanent Datum
#-----------------------------------------------------------------------------
~CURVE INFORMATION
#MNEM.UNIT   API CODE                                  DESCRIPTION
#---- -----  --------                                  -----------------------
TIME .S                                                :TIME {F10.1}
TENS_SL.LBF                                            :Cable Tension {F13.4}
DEPT_SL..1IN                                           :Station logging depth {F13.4}
PDEP_XPT.M                                             :XPT Probe Depth {F13.4}
MTEP_SAP.DEGC                                          :Sapphire Gauge Manometer Temperature {F13.4}
MTEP_HYD.DEGC                                          :Hydrostatic Sapphire Gauge Manometer Temperature {F13.4}
PCO_HYD.PSI                                            :Hydrostatic Sapphire Dynamic Compensation {F13.4}
PND_HYD.PSI                                            :Hydrostatic Sapphire Pressure Without Dynamic Compensation {F13.4}
CP_HYD.PSI                                             :Hydrostatic Sapphire Pressure With Dynamic Compensation {F13.4}
MTEP_QG.DEGC                                           :CQG Manometer Temperature {F13.4}
PTNO_XPT.                                              :XPT Pretest Number {I11}
ETIM_XPT.S                                             :Elapsed Logging Time {F13.4}
PCO_SAP.PSI                                            :Sapphire Dynamic Compensation {F13.4}
PND_SAP.PSI                                            :Sapphire Pressure Without Dynamic Compensation {F13.4}
CP_SAP.PSI                                             :Sapphire Pressure With Dynamic Compensation {F13.4}
QNDP .PSI                                              :CQG Pressure Without Dynamic Compensation {F13.4}
QCP  .PSI                                              :CQG Pressure With Dynamic Compensation {F13.4}
QPCO .PSI                                              :CQG Dynamic Compensation {F13.4}
#-----------------------------------------------------------------------------
# 
#     TIME      TENS_SL      DEPT_SL      PDEP_XPT     MTEP_SAP     MTEP_HYD     PCO_HYD      PND_HYD       CP_HYD      MTEP_QG       PTNO_XPT       ETIM_XPT     PCO_SAP      PND_SAP       CP_SAP        QNDP         QCP          QPCO
#
~A  
# ...
    1056.0    4682.2977 1419728.0000    3604.5000     119.1080     119.6917       0.0071    5871.5630    5871.5702     119.6524          5     139.8453       0.3117    5505.7004    5506.0122    5502.4416    5502.3678      -0.0740
    1057.0    4726.2625 1419728.0000    3604.5000     119.1109     119.6939       0.0069    5871.6465    5871.6533     119.6522          5     140.8453       0.2399    5505.8731    5506.1130    5502.6336    5502.6199      -0.0137
    1058.0    4747.5240 1419728.0000    3604.5000     119.1120     119.6925       0.0070    5871.5240    5871.5309     119.6521          5     141.8453       0.1701    5505.9400    5506.1101    5502.8021    5502.8284       0.0261
    1059.0    4733.0950 1419728.0000    3604.5000     119.1158     119.6924       0.0056    5871.5708    5871.5766     119.6526          5     142.8453       0.1182    5506.1567    5506.2751    5502.9424    5503.0068       0.0645
    1060.0    4695.3448 1419728.0000    3604.5000     119.1162     119.6919       0.0043    5871.3979    5871.4023     119.6529          5     143.8453       0.0879    5506.2070    5506.2950    5503.0838    5503.1895       0.1058
    1061.0    4672.0950 1419728.0000    3604.5000     119.1185     119.6940       0.0053    5871.5931    5871.5983     119.6532          5     144.8453       0.0712    5506.3162    5506.3873    5503.1798    5503.3221       0.1421
    1062.0    4676.6073 1419728.0000    3604.5000     119.1187     119.6939       0.0078    5871.5824    5871.5902     119.6542          5     145.8453       0.0596    5506.3505    5506.4102    5503.2766    5503.4445       0.1680
    1063.0    4727.0245 1419728.0000    3604.5000     119.1205     119.6927       0.0075    5871.5635    5871.5711     119.6545          5     146.8453       0.0503    5506.4967    5506.5473    5503.3530    5503.5380       0.1850
    1064.0    4742.7620 1419728.0000    3604.5000     119.1208     119.6938       0.0046    5871.5314    5871.5359     119.6551          5     147.8453       0.0430    5506.4222    5506.4652    5503.4082    5503.6036       0.1955
    1065.0    4760.0598 1419728.0000    3604.5000     119.1223     119.6933       0.0017    5871.5207    5871.5226     119.6559          5     148.8453       0.0367    5506.5698    5506.6067    5503.4557    5503.6575       0.2016
    1066.0    4766.3810 1419728.0000    3604.5000     119.1211     119.6947       0.0003    5871.5496    5871.5498     119.6564          5     149.8453       0.0321    5506.4260    5506.4583    5503.4831    5503.6881       0.2052
    1067.0    4767.8453 1419728.0000    3604.5000     119.1222     119.6926      -0.0009    5871.5193    5871.5184     119.6575          5     150.8453       0.0294    5506.4972    5506.5266    5503.5064    5503.7130       0.2067
    1068.0    4740.1067 1419728.0000    3604.5000     119.1220     119.6929      -0.0029    5871.4576    5871.4546     119.6580          5     151.8453       0.0279    5506.5005    5506.5283    5503.5288    5503.7349       0.2062
    1069.0    4678.3683 1419728.0000    3604.5000     119.1229     119.6946      -0.0035    5871.5839    5871.5804     119.6587          5     152.8453       0.0255    5506.4503    5506.4757    5503.5237    5503.7283       0.2046
    1070.0    4651.0950 1419728.0000    3604.5000     119.1226     119.6932      -0.0019    5871.5195    5871.5175     119.6594          5     153.8453       0.0220    5506.5196    5506.5417    5503.5379    5503.7407       0.2028
    1071.0    4649.6905 1419728.0000    3604.5000     119.1246     119.6945       0.0010    5871.6103    5871.6113     119.6599          5     154.8453       0.0198    5506.4789    5506.4989    5503.5506    5503.7511       0.2005
    1072.0    4666.0598 1419728.0000    3604.5000     119.1257     119.6931       0.0029    5871.5980    5871.6009     119.6608          5     155.8453       0.0191    5506.6053    5506.6244    5503.5576    5503.7554       0.1976
    1073.0    4680.8335 1419728.0000    3604.5000     119.1241     119.6933       0.0034    5871.5562    5871.5596     119.6615          5     156.8453       0.0177    5506.6378    5506.6555    5503.5656    5503.7597       0.1942
    1074.0    4692.2977 1419728.0000    3604.5000     119.1244     119.6933       0.0047    5871.6125    5871.6170     119.6622          5     157.8453       0.0158    5506.6043    5506.6204    5503.5620    5503.7527       0.1907
    1075.0    4741.3340 1419728.0000    3604.5000     119.1256     119.6944       0.0075    5871.5134    5871.5207     119.6624          5     158.8453       0.0159    5506.5871    5506.6030    5503.5688    5503.7558       0.1871
    1076.0    4748.3095 1419728.0000    3604.5000     119.1272     119.6935       0.0103    5871.4740    5871.4842     119.6629          5     159.8453       0.0179    5506.6140    5506.6318    5503.5701    5503.7534       0.1834
    1077.0    4758.9883 1419728.0000    3604.5000     119.1255     119.6933       0.0110    5871.4016    5871.4123     119.6637          5     160.8453       0.0198    5506.5645    5506.5845    5503.5716    5503.7512       0.1797
    1078.0    4765.2262 1419728.0000    3604.5000     119.1265     119.6939       0.0104    5871.3486    5871.3591     119.6643          5     161.8453       0.0203    5506.6681    5506.6883    5503.5804    5503.7569       0.1766
    1079.0    4762.6190 1419728.0000    3604.5000     119.1285     119.6954       0.0097    5871.4834    5871.4932     119.6648          5     162.8453       0.0218    5506.6899    5506.7117    5503.5833    5503.7573       0.1741
    1080.0    4772.1430 1419728.0000    3604.5000     119.1259     119.6946       0.0082    5871.4744    5871.4826     119.6657          5     163.8453       0.0236    5506.3704    5506.3939    5503.5863    5503.7581       0.1719
    1081.0    4726.6660 1419728.0000    3604.5000     119.1292     119.6947       0.0050    5871.5044    5871.5093     119.6661          5     164.8453       0.0239    5506.6822    5506.7061    5503.5866    5503.7560       0.1695
    1082.0    4687.5710 1419728.0000    3604.5000     119.1280     119.6948       0.0016    5871.5853    5871.5869     119.6667          5     165.8453       0.0218    5506.5615    5506.5832    5503.5894    5503.7561       0.1666
    1083.0    4665.0950 1419728.0000    3604.5000     119.1275     119.6954       0.0002    5871.5430    5871.5430     119.6674          5     166.8453       0.0170    5506.4499    5506.4668    5503.5926    5503.7566       0.1641
    1084.0    4673.8335 1419728.0000    3604.5000     119.1304     119.6950       0.0010    5871.6274    5871.6283     119.6675          5     167.8453       0.0126    5506.7003    5506.7130    5503.5902    5503.7520       0.1619
    1085.0    4666.7023 1419728.0000    3604.5000     119.1268     119.6947       0.0031    5871.5839    5871.5871     119.6682          5     168.8453       0.0099    5506.4222    5506.4321    5503.5896    5503.7494       0.1597
    1086.0    4700.5005 1419728.0000    3604.5000     119.1310     119.6947       0.0057    5871.5947    5871.6002     119.6685          5     169.8453       0.0081    5506.6576    5506.6658    5503.5900    5503.7471       0.1573
    1087.0    4749.2625 1419728.0000    3604.5000     119.1284     119.6952       0.0083    5871.5121    5871.5204     119.6693          5     170.8453       0.0052    5506.5795    5506.5846    5503.5909    5503.7460       0.1551
    1088.0    4745.1665 1419728.0000    3604.5000     119.1277     119.6947       0.0097    5871.5352    5871.5449     119.6696          5     171.8453       0.0036    5506.4356    5506.4390    5503.5871    5503.7406       0.1533
    1089.0    4752.2977 1419728.0000    3604.5000     119.1325     119.6962       0.0092    5871.4912    5871.5004     119.6703          5     172.8453       0.0089    5506.7719    5506.7807    5503.5921    5503.7434       0.1515
    1090.0    4708.3565 1419728.0000    3604.5000     119.1302     119.6952       0.0074    5871.4463    5871.4539     119.6708          5     173.8453       0.0194    5506.6988    5506.7183    5503.5934    5503.7431       0.1497
