~VERSION INFORMATION
VERS.           2.0   :CWLS Log ASCII Standard - VERSION 2.0
WRAP.           NO    :One Line per depth step
PROD.  Schlumberger   :LAS Producer
PROG.  DLIS to ASCII 2.2                               :LAS Program name and version
CREA.        2020/10/30 12:18                          :LAS Creation date {YYYY/MM/DD hh:mm}
SOURCE.     XPT_HRLA_TLD_MCFL_058LTP.DLIS              :DLIS File Name
FILE-ID.     XPT_HRLA_TLD_MCFL_058LTP                  :File Identification Number
#--------------------------------------------------
~WELL INFORMATION
#MNEM.UNIT      DATA             DESCRIPTION
#---- ------ --------------   -----------------------------
STRT .S         7904.0       :START TIME      
STOP .S         8100.0       :STOP TIME      
STEP .S            1.0       :STEP     
NULL .          -999.25      :NULL VALUE
COMP .        Nexus Energy                             :COMPANY
WELL .        Crux-3                                   :WELL
FLD  .        Crux                                     :FIELD
LOC  .        Easting: 656981.7mE                      :LOCATION
CNTY .        Sedco-703                                :COUNTY
STAT .        Northern Territory                       :STATE
CTRY .        Australia                                :COUNTRY
API  .                                                 :API NUMBER
UWI  .                                                 :UNIQUE WELL ID
DATE .        31-Dec-2007                              :LOG DATE {DD-MMM-YYYY}
SRVC .        Schlumberger                             :SERVICE COMPANY
LATI .DEG     12*57'32.63" S                           :LATITUDE
LONG .DEG     124*26'50.07" E                          :LONGITUDE
GDAT .                                                 :GeoDetic Datum
#-----------------------------------------------------------------------------
~PARAMETER INFORMATION
#MNEM.UNIT    VALUE                      DESCRIPTION
#---- -----   --------------------       ------------------------
RUN  .          1                        :RUN NUMBER
PDAT .        LAT                        :Permanent Datum
EPD  .M           0.000000               :Elevation of Permanent Datum above Mean Sea Level
EPD  .M           0.000000               :Elevation of tool zero above Mean Sea Level
LMF  .          DF                       :Logging Measured From (Name of Logging Elevation Reference)
APD  .M          26.400000               :Elevation of Depth Reference (LMF) above Permanent Datum
#-----------------------------------------------------------------------------
~CURVE INFORMATION
#MNEM.UNIT   API CODE                                  DESCRIPTION
#---- -----  --------                                  -----------------------
TIME .S                                                :TIME {F10.1}
TENS_SL.LBF                                            :Cable Tension {F13.4}
DEPT_SL..1IN                                           :Station logging depth {F13.4}
PDEP_XPT.M                                             :XPT Probe Depth {F13.4}
MTEP_SAP.DEGC                                          :Sapphire Gauge Manometer Temperature {F13.4}
MTEP_HYD.DEGC                                          :Hydrostatic Sapphire Gauge Manometer Temperature {F13.4}
PCO_HYD.PSI                                            :Hydrostatic Sapphire Dynamic Compensation {F13.4}
PND_HYD.PSI                                            :Hydrostatic Sapphire Pressure Without Dynamic Compensation {F13.4}
CP_HYD.PSI                                             :Hydrostatic Sapphire Pressure With Dynamic Compensation {F13.4}
MTEP_QG.DEGC                                           :CQG Manometer Temperature {F13.4}
PTNO_XPT.                                              :XPT Pretest Number {I11}
ETIM_XPT.S                                             :Elapsed Logging Time {F13.4}
PCO_SAP.PSI                                            :Sapphire Dynamic Compensation {F13.4}
PND_SAP.PSI                                            :Sapphire Pressure Without Dynamic Compensation {F13.4}
CP_SAP.PSI                                             :Sapphire Pressure With Dynamic Compensation {F13.4}
QNDP .PSI                                              :CQG Pressure Without Dynamic Compensation {F13.4}
QCP  .PSI                                              :CQG Pressure With Dynamic Compensation {F13.4}
QPCO .PSI                                              :CQG Dynamic Compensation {F13.4}
#-----------------------------------------------------------------------------
# 
#     TIME      TENS_SL      DEPT_SL      PDEP_XPT     MTEP_SAP     MTEP_HYD     PCO_HYD      PND_HYD       CP_HYD      MTEP_QG       PTNO_XPT       ETIM_XPT     PCO_SAP      PND_SAP       CP_SAP        QNDP         QCP          QPCO
#
~A  
# ...
    8044.0    4914.1955 1534486.0000    3895.9854     128.8690     129.4148       0.0161    6334.6383    6334.6545     129.5717         21     139.5435      -0.3407    6273.2880    6272.9474    6271.1381    6270.4674      -0.6708
    8045.0    4917.5220 1534486.0000    3895.9854     128.8691     129.4147       0.0148    6334.5684    6334.5833     129.5715         21     140.5435      -0.3033    6272.5762    6272.2731    6270.4789    6269.8274      -0.6514
    8046.0    4945.2835 1534486.0000    3895.9854     128.8394     129.4146       0.0114    6334.5903    6334.6017     129.5627         22     141.5435      -0.1549    6082.4283    6082.2736    6083.0858    6082.5863      -0.4996
    8047.0    4990.6315 1534486.0000    3895.9854     128.7934     129.4162       0.0066    6334.6444    6334.6510     129.5492         22     142.5435       0.0423    5811.0979    5811.1404    5815.3995    5815.1074      -0.2920
    8048.0    5029.8485 1534486.0000    3895.9854     128.8528     129.4147       0.0018    6334.5081    6334.5101     129.5678         22     143.5435       0.2531    6272.8691    6273.1220    6269.2915    6269.2544      -0.0373
    8049.0    5060.8485 1534486.0000    3895.9854     128.8385     129.4150      -0.0007    6334.4993    6334.4988     129.5592         22     144.5435       0.4413    6129.6341    6130.0753    6125.5653    6125.8043       0.2389
    8050.0    5078.8045 1534486.0000    3895.9854     128.8809     129.4158      -0.0002    6334.5062    6334.5058     129.5670         22     145.5435       0.5399    6326.9910    6327.5309    6322.2405    6322.6752       0.4347
    8051.0    5076.0215 1534486.0000    3895.9854     128.8879     129.4154       0.0017    6334.3800    6334.3817     129.5670         22     146.5435       0.5013    6333.8587    6334.3599    6329.1047    6329.5883       0.4836
    8052.0    5045.9990 1534486.0000    3895.9854     128.8896     129.4130       0.0035    6334.4845    6334.4878     129.5672         22     147.5435       0.3492    6333.6942    6334.0432    6329.2530    6329.6608       0.4079
    8053.0    5013.0430 1534486.0000    3895.9854     128.8908     129.4158       0.0058    6334.4646    6334.4705     129.5678         22     148.5435       0.1732    6333.2933    6333.4663    6329.2663    6329.5823       0.3161
    8054.0    4996.4780 1534486.0000    3895.9854     128.8896     129.4162       0.0090    6334.5245    6334.5335     129.5687         22     149.5435       0.0434    6332.9283    6332.9716    6329.3180    6329.5894       0.2713
    8055.0    4985.5650 1534486.0000    3895.9854     128.8887     129.4143       0.0113    6334.4987    6334.5098     129.5699         22     150.5435      -0.0259    6332.6798    6332.6540    6329.4308    6329.6991       0.2684
    8056.0    4967.9560 1534486.0000    3895.9854     128.8880     129.4159       0.0115    6334.5211    6334.5328     129.5706         22     151.5435      -0.0542    6332.6851    6332.6307    6329.5053    6329.7806       0.2754
    8057.0    4948.3040 1534486.0000    3895.9854     128.8870     129.4151       0.0103    6334.5122    6334.5225     129.5715         22     152.5435      -0.0642    6332.4231    6332.3589    6329.4988    6329.7663       0.2675
    8058.0    4931.7605 1534486.0000    3895.9854     128.8844     129.4182       0.0098    6334.5454    6334.5552     129.5724         22     153.5435      -0.0653    6332.3053    6332.2398    6329.5328    6329.7810       0.2482
    8059.0    4922.9130 1534486.0000    3895.9854     128.8835     129.4158       0.0101    6334.5711    6334.5813     129.5733         22     154.5435      -0.0623    6332.2888    6332.2265    6329.6507    6329.8742       0.2234
    8060.0    4922.0000 1534486.0000    3895.9854     128.8819     129.4178       0.0109    6334.5870    6334.5980     129.5737         22     155.5435      -0.0580    6332.1725    6332.1146    6329.6242    6329.8207       0.1965
    8061.0    4941.5660 1534486.0000    3895.9854     128.8809     129.4159       0.0112    6334.4647    6334.4759     129.5743         22     156.5435      -0.0532    6332.0340    6331.9809    6329.5650    6329.7345       0.1694
    8062.0    4987.8925 1534486.0000    3895.9854     128.8814     129.4173       0.0097    6334.6026    6334.6122     129.5748         22     157.5435      -0.0473    6331.7557    6331.7086    6329.4466    6329.5895       0.1429
    8063.0    5040.7185 1534486.0000    3895.9854     128.8807     129.4174       0.0064    6334.5371    6334.5435     129.5754         22     158.5435      -0.0405    6332.0869    6332.0463    6329.6505    6329.7684       0.1179
    8064.0    5068.8915 1534486.0000    3895.9854     128.8793     129.4174       0.0033    6334.4803    6334.4834     129.5756         22     159.5435      -0.0344    6331.9247    6331.8903    6329.6273    6329.7223       0.0951
    8065.0    5078.4350 1534486.0000    3895.9854     128.8780     129.4181       0.0021    6334.5366    6334.5386     129.5761         22     160.5435      -0.0281    6331.9207    6331.8926    6329.6440    6329.7189       0.0750
    8066.0    5081.3695 1534486.0000    3895.9854     128.8770     129.4168       0.0029    6334.4103    6334.4132     129.5760         22     161.5435      -0.0206    6331.8671    6331.8463    6329.5990    6329.6560       0.0570
    8067.0    5051.7380 1534486.0000    3895.9854     128.8782     129.4158       0.0046    6334.3998    6334.4046     129.5761         22     162.5435      -0.0128    6331.9289    6331.9163    6329.6668    6329.7073       0.0405
    8068.0    4983.4330 1534486.0000    3895.9854     128.8769     129.4167       0.0070    6334.4269    6334.4339     129.5761         22     163.5435      -0.0076    6331.9991    6331.9915    6329.7214    6329.7472       0.0259
    8069.0    4932.4125 1534486.0000    3895.9854     128.8767     129.4174       0.0102    6334.5339    6334.5441     129.5763         22     164.5435      -0.0075    6331.8413    6331.8338    6329.6614    6329.6752       0.0137
    8070.0    4920.4565 1534486.0000    3895.9854     128.8790     129.4177       0.0119    6334.5402    6334.5520     129.5761         22     165.5435      -0.0109    6332.0421    6332.0311    6329.7883    6329.7918       0.0035
    8071.0    4902.0645 1534486.0000    3895.9854     128.8761     129.4189       0.0103    6334.6831    6334.6932     129.5761         22     166.5435      -0.0153    6332.0595    6332.0442    6329.8333    6329.8280      -0.0053
    8072.0    4887.0000 1534486.0000    3895.9854     128.8768     129.4174       0.0063    6334.6264    6334.6328     129.5763         22     167.5435      -0.0176    6332.0038    6331.9862    6329.8416    6329.8285      -0.0131
    8073.0    4909.8270 1534486.0000    3895.9854     128.8752     129.4183       0.0040    6334.5470    6334.5510     129.5761         22     168.5435      -0.0167    6331.9238    6331.9070    6329.8076    6329.7880      -0.0195
    8074.0    4957.2620 1534486.0000    3895.9854     128.8762     129.4186       0.0049    6334.6104    6334.6154     129.5761         22     169.5435      -0.0127    6332.0232    6332.0107    6329.8171    6329.7925      -0.0245
    8075.0    5002.7400 1534486.0000    3895.9854     128.8742     129.4176       0.0058    6334.5236    6334.5295     129.5761         22     170.5435      -0.0072    6331.8399    6331.8326    6329.7984    6329.7697      -0.0288
    8076.0    5043.8270 1534486.0000    3895.9854     128.8750     129.4180       0.0045    6334.2758    6334.2803     129.5760         22     171.5435      -0.0021    6331.6736    6331.6714    6329.6449    6329.6124      -0.0324
    8077.0    5080.9355 1534486.0000    3895.9854     128.8758     129.4188       0.0035    6334.2194    6334.2228     129.5761         22     172.5435       0.0017    6331.9158    6331.9174    6329.7576    6329.7218      -0.0356
    8078.0    5093.2825 1534486.0000    3895.9854     128.8769     129.4198       0.0053    6334.3062    6334.3115     129.5758         22     173.5435       0.0033    6332.0031    6332.0065    6329.7709    6329.7326      -0.0383
