~VERSION INFORMATION
VERS.           2.0   :CWLS Log ASCII Standard - VERSION 2.0
WRAP.           NO    :One Line per depth step
PROD.  Schlumberger   :LAS Producer
PROG.  DLIS to ASCII 2.2                               :LAS Program name and version
CREA.        2020/10/30 12:18                          :LAS Creation date {YYYY/MM/DD hh:mm}
SOURCE.     XPT_HRLA_TLD_MCFL_046LTP.DLIS              :DLIS File Name
FILE-ID.     XPT_HRLA_TLD_MCFL_046LTP                  :File Identification Number
#--------------------------------------------------
~WELL INFORMATION
#MNEM.UNIT      DATA             DESCRIPTION
#---- ------ --------------   -----------------------------
STRT .S         4617.0       :START TIME      
STOP .S         5507.0       :STOP TIME      
STEP .S            1.0       :STEP     
NULL .          -999.25      :NULL VALUE
COMP .        Nexus Energy                             :COMPANY
WELL .        Crux-3                                   :WELL
FLD  .        Crux                                     :FIELD
LOC  .        Easting: 656981.7mE                      :LOCATION
CNTY .        Sedco-703                                :COUNTY
STAT .        Northern Territory                       :STATE
CTRY .        Australia                                :COUNTRY
API  .                                                 :API NUMBER
UWI  .                                                 :UNIQUE WELL ID
DATE .        31-Dec-2007                              :LOG DATE {DD-MMM-YYYY}
SRVC .        Schlumberger                             :SERVICE COMPANY
LATI .DEG     12*57'32.63" S                           :LATITUDE
LONG .DEG     124*26'50.07" E                          :LONGITUDE
GDAT .                                                 :GeoDetic Datum
#-----------------------------------------------------------------------------
~PARAMETER INFORMATION
#MNEM.UNIT    VALUE                      DESCRIPTION
#---- -----   --------------------       ------------------------
RUN  .          1                        :RUN NUMBER
PDAT .        LAT                        :Permanent Datum
EPD  .M           0.000000               :Elevation of Permanent Datum above Mean Sea Level
EPD  .M           0.000000               :Elevation of tool zero above Mean Sea Level
LMF  .          DF                       :Logging Measured From (Name of Logging Elevation Reference)
APD  .M          26.400000               :Elevation of Depth Reference (LMF) above Permanent Datum
#-----------------------------------------------------------------------------
~CURVE INFORMATION
#MNEM.UNIT   API CODE                                  DESCRIPTION
#---- -----  --------                                  -----------------------
TIME .S                                                :TIME {F10.1}
TENS_SL.LBF                                            :Cable Tension {F13.4}
DEPT_SL..1IN                                           :Station logging depth {F13.4}
PDEP_XPT.M                                             :XPT Probe Depth {F13.4}
MTEP_SAP.DEGC                                          :Sapphire Gauge Manometer Temperature {F13.4}
MTEP_HYD.DEGC                                          :Hydrostatic Sapphire Gauge Manometer Temperature {F13.4}
PCO_HYD.PSI                                            :Hydrostatic Sapphire Dynamic Compensation {F13.4}
PND_HYD.PSI                                            :Hydrostatic Sapphire Pressure Without Dynamic Compensation {F13.4}
CP_HYD.PSI                                             :Hydrostatic Sapphire Pressure With Dynamic Compensation {F13.4}
MTEP_QG.DEGC                                           :CQG Manometer Temperature {F13.4}
PTNO_XPT.                                              :XPT Pretest Number {I11}
ETIM_XPT.S                                             :Elapsed Logging Time {F13.4}
PCO_SAP.PSI                                            :Sapphire Dynamic Compensation {F13.4}
PND_SAP.PSI                                            :Sapphire Pressure Without Dynamic Compensation {F13.4}
CP_SAP.PSI                                             :Sapphire Pressure With Dynamic Compensation {F13.4}
QNDP .PSI                                              :CQG Pressure Without Dynamic Compensation {F13.4}
QCP  .PSI                                              :CQG Pressure With Dynamic Compensation {F13.4}
QPCO .PSI                                              :CQG Dynamic Compensation {F13.4}
#-----------------------------------------------------------------------------
# 
#     TIME      TENS_SL      DEPT_SL      PDEP_XPT     MTEP_SAP     MTEP_HYD     PCO_HYD      PND_HYD       CP_HYD      MTEP_QG       PTNO_XPT       ETIM_XPT     PCO_SAP      PND_SAP       CP_SAP        QNDP         QCP          QPCO
#
~A  
# ...
    5107.0    4830.1910 1443523.0000    3664.9392     121.8689     122.4283       0.0087    5967.4925    5967.5013     122.4829         10     489.6870       0.0095    5507.9996    5508.0093    5505.3422    5505.3583       0.0161
    5108.0    4774.4140 1443523.0000    3664.9392     121.8686     122.4277       0.0094    5967.5874    5967.5967     122.4831         10     490.6870       0.0075    5508.1052    5508.1127    5505.5408    5505.5569       0.0159
    5109.0    4761.6790 1443523.0000    3664.9392     121.8681     122.4300       0.0113    5967.6693    5967.6805     122.4831         10     491.6870       0.0056    5508.4624    5508.4683    5505.7634    5505.7790       0.0157
    5110.0    4727.1540 1443523.0000    3664.9392     121.8701     122.4293       0.0152    5967.6704    5967.6854     122.4832         10     492.6870       0.0055    5508.7258    5508.7313    5505.9557    5505.9712       0.0154
    5111.0    4709.6870 1443523.0000    3664.9392     121.8684     122.4286       0.0170    5967.7759    5967.7930     122.4832         10     493.6870       0.0062    5508.8769    5508.8831    5506.1675    5506.1827       0.0153
    5112.0    4699.0080 1443523.0000    3664.9392     121.8696     122.4286       0.0144    5967.6568    5967.6711     122.4828         10     494.6870       0.0063    5509.0417    5509.0480    5506.3856    5506.4017       0.0160
    5113.0    4696.0610 1443523.0000    3664.9392     121.8697     122.4302       0.0103    5967.6739    5967.6844     122.4833         10     495.6870       0.0056    5509.2029    5509.2086    5506.5823    5506.5994       0.0170
    5114.0    4722.4190 1443523.0000    3664.9392     121.8704     122.4311       0.0087    5967.7651    5967.7739     122.4833         10     496.6870       0.0049    5509.4603    5509.4653    5506.7978    5506.8153       0.0176
    5115.0    4774.5330 1443523.0000    3664.9392     121.8697     122.4309       0.0087    5967.6803    5967.6891     122.4834         10     497.6870       0.0046    5509.7880    5509.7924    5507.0121    5507.0297       0.0178
    5116.0    4821.8540 1443523.0000    3664.9392     121.8697     122.4301       0.0079    5967.6129    5967.6210     122.4837         10     498.6870       0.0040    5509.8901    5509.8940    5507.2039    5507.2219       0.0179
    5117.0    4836.3740 1443523.0000    3664.9392     121.8706     122.4293       0.0067    5967.5449    5967.5518     122.4835         10     499.6870       0.0029    5510.1245    5510.1274    5507.4124    5507.4304       0.0180
    5118.0    4826.6950 1443523.0000    3664.9392     121.8711     122.4305       0.0074    5967.6460    5967.6533     122.4835         10     500.6870       0.0020    5510.2535    5510.2554    5507.6263    5507.6444       0.0182
    5119.0    4812.3820 1443523.0000    3664.9392     121.8708     122.4305       0.0100    5967.6175    5967.6275     122.4835         10     501.6870       0.0015    5510.5212    5510.5227    5507.8145    5507.8331       0.0184
    5120.0    4761.2840 1443523.0000    3664.9392     121.8705     122.4313       0.0123    5967.6443    5967.6569     122.4836         10     502.6870       0.0010    5510.7674    5510.7683    5508.0216    5508.0397       0.0182
    5121.0    4728.3210 1443523.0000    3664.9392     121.8701     122.4308       0.0125    5967.5607    5967.5729     122.4837         10     503.6870       0.0003    5510.8954    5510.8959    5508.2339    5508.2520       0.0180
    5122.0    4712.0080 1443523.0000    3664.9392     121.8698     122.4314       0.0106    5967.6263    5967.6369     122.4840         10     504.6870       0.0002    5511.0777    5511.0779    5508.4219    5508.4400       0.0181
    5123.0    4717.9920 1443523.0000    3664.9392     121.8710     122.4311       0.0084    5967.7803    5967.7888     122.4837         10     505.6870       0.0016    5511.3257    5511.3272    5508.6276    5508.6461       0.0185
    5124.0    4708.5730 1443523.0000    3664.9392     121.8705     122.4323       0.0069    5967.8722    5967.8791     122.4838         10     506.6870       0.0040    5511.4689    5511.4728    5508.8276    5508.8466       0.0188
    5125.0    4759.7080 1443523.0000    3664.9392     121.8709     122.4314       0.0069    5967.7284    5967.7352     122.4842         10     507.6870       0.0059    5511.6694    5511.6753    5509.0111    5509.0296       0.0187
    5126.0    4795.6180 1443523.0000    3664.9392     121.8714     122.4317       0.0072    5967.6521    5967.6594     122.4840         10     508.6870       0.0061    5511.8982    5511.9044    5509.2077    5509.2264       0.0187
    5127.0    4828.1670 1443523.0000    3664.9392     121.8712     122.4324       0.0070    5967.5793    5967.5861     122.4839         10     509.6870       0.0061    5512.0668    5512.0731    5509.4078    5509.4263       0.0186
    5128.0    4840.3130 1443523.0000    3664.9392     121.8723     122.4311       0.0056    5967.5850    5967.5908     122.4843         10     510.6870       0.0066    5512.3460    5512.3528    5509.5806    5509.5991       0.0184
    5129.0    4831.0690 1443523.0000    3664.9392     121.8701     122.4324       0.0059    5967.6138    5967.6195     122.4844         10     511.6870       0.0062    5512.4524    5512.4588    5509.7810    5509.7996       0.0184
    5130.0    4772.7270 1443523.0000    3664.9392     121.8702     122.4331       0.0080    5967.6416    5967.6494     122.4840         10     512.6870       0.0043    5512.6803    5512.6847    5509.9779    5509.9960       0.0181
    5131.0    4741.8170 1443523.0000    3664.9392     121.8711     122.4327       0.0102    5967.6070    5967.6172     122.4846         10     513.6870       0.0032    5512.8384    5512.8418    5510.1470    5510.1652       0.0183
    5132.0    4708.0850 1443523.0000    3664.9392     121.8725     122.4322       0.0105    5967.5864    5967.5968     122.4842         10     514.6870       0.0042    5513.0282    5513.0324    5510.3360    5510.3548       0.0190
    5133.0    4709.8010 1443523.0000    3664.9392     121.8710     122.4324       0.0097    5967.7585    5967.7682     122.4845         10     515.6870       0.0061    5513.2433    5513.2496    5510.5128    5510.5324       0.0196
    5134.0    4720.4350 1443523.0000    3664.9392     121.8694     122.4339       0.0104    5967.7119    5967.7223     122.4846         10     516.6870       0.0066    5513.3110    5513.3175    5510.6911    5510.7107       0.0196
    5135.0    4790.0130 1443523.0000    3664.9392     121.8729     122.4345       0.0119    5967.7300    5967.7420     122.4846         10     517.6870       0.0070    5513.6642    5513.6710    5510.8801    5510.8999       0.0198
    5136.0    4809.3210 1443523.0000    3664.9392     121.8707     122.4352       0.0124    5967.6063    5967.6186     122.4849         10     518.6870       0.0082    5513.7708    5513.7791    5511.0482    5511.0687       0.0207
    5137.0    4826.6710 1443523.0000    3664.9392     121.8728     122.4331       0.0109    5967.6445    5967.6556     122.4847         10     519.6870       0.0096    5513.9114    5513.9212    5511.2225    5511.2440       0.0214
    5138.0    4830.8170 1443523.0000    3664.9392     121.8718     122.4339       0.0090    5967.5327    5967.5417     122.4847         10     520.6870       0.0100    5514.0558    5514.0658    5511.4033    5511.4248       0.0215
    5139.0    4805.3290 1443523.0000    3664.9392     121.8723     122.4339       0.0077    5967.7080    5967.7159     122.4850         10     521.6870       0.0091    5514.3209    5514.3302    5511.5725    5511.5940       0.0213
    5140.0    4749.6580 1443523.0000    3664.9392     121.8728     122.4340       0.0067    5967.5939    5967.6006     122.4849         10     522.6870       0.0080    5514.5009    5514.5091    5511.7401    5511.7616       0.0213
    5141.0    4732.4350 1443523.0000    3664.9392     121.8731     122.4346       0.0055    5967.6006    5967.6061     122.4850         10     523.6870       0.0073    5514.6593    5514.6666    5511.9189    5511.9404       0.0216
