~VERSION INFORMATION
VERS.           2.0   :CWLS Log ASCII Standard - VERSION 2.0
WRAP.           NO    :One Line per depth step
PROD.  Schlumberger   :LAS Producer
PROG.  DLIS to ASCII 2.2                               :LAS Program name and version
CREA.        2020/10/30 12:18                          :LAS Creation date {YYYY/MM/DD hh:mm}
SOURCE.     XPT_HRLA_TLD_MCFL_046LTP.DLIS              :DLIS File Name
FILE-ID.     XPT_HRLA_TLD_MCFL_046LTP                  :File Identification Number
#--------------------------------------------------
~WELL INFORMATION
#MNEM.UNIT      DATA             DESCRIPTION
#---- ------ --------------   -----------------------------
STRT .S         4617.0       :START TIME      
STOP .S         5507.0       :STOP TIME      
STEP .S            1.0       :STEP     
NULL .          -999.25      :NULL VALUE
COMP .        Nexus Energy                             :COMPANY
WELL .        Crux-3                                   :WELL
FLD  .        Crux                                     :FIELD
LOC  .        Easting: 656981.7mE                      :LOCATION
CNTY .        Sedco-703                                :COUNTY
STAT .        Northern Territory                       :STATE
CTRY .        Australia                                :COUNTRY
API  .                                                 :API NUMBER
UWI  .                                                 :UNIQUE WELL ID
DATE .        31-Dec-2007                              :LOG DATE {DD-MMM-YYYY}
SRVC .        Schlumberger                             :SERVICE COMPANY
LATI .DEG     12*57'32.63" S                           :LATITUDE
LONG .DEG     124*26'50.07" E                          :LONGITUDE
GDAT .                                                 :GeoDetic Datum
#-----------------------------------------------------------------------------
~PARAMETER INFORMATION
#MNEM.UNIT    VALUE                      DESCRIPTION
#---- -----   --------------------       ------------------------
RUN  .          1                        :RUN NUMBER
PDAT .        LAT                        :Permanent Datum
EPD  .M           0.000000               :Elevation of Permanent Datum above Mean Sea Level
EPD  .M           0.000000               :Elevation of tool zero above Mean Sea Level
LMF  .          DF                       :Logging Measured From (Name of Logging Elevation Reference)
APD  .M          26.400000               :Elevation of Depth Reference (LMF) above Permanent Datum
#-----------------------------------------------------------------------------
~CURVE INFORMATION
#MNEM.UNIT   API CODE                                  DESCRIPTION
#---- -----  --------                                  -----------------------
TIME .S                                                :TIME {F10.1}
TENS_SL.LBF                                            :Cable Tension {F13.4}
DEPT_SL..1IN                                           :Station logging depth {F13.4}
PDEP_XPT.M                                             :XPT Probe Depth {F13.4}
MTEP_SAP.DEGC                                          :Sapphire Gauge Manometer Temperature {F13.4}
MTEP_HYD.DEGC                                          :Hydrostatic Sapphire Gauge Manometer Temperature {F13.4}
PCO_HYD.PSI                                            :Hydrostatic Sapphire Dynamic Compensation {F13.4}
PND_HYD.PSI                                            :Hydrostatic Sapphire Pressure Without Dynamic Compensation {F13.4}
CP_HYD.PSI                                             :Hydrostatic Sapphire Pressure With Dynamic Compensation {F13.4}
MTEP_QG.DEGC                                           :CQG Manometer Temperature {F13.4}
PTNO_XPT.                                              :XPT Pretest Number {I11}
ETIM_XPT.S                                             :Elapsed Logging Time {F13.4}
PCO_SAP.PSI                                            :Sapphire Dynamic Compensation {F13.4}
PND_SAP.PSI                                            :Sapphire Pressure Without Dynamic Compensation {F13.4}
CP_SAP.PSI                                             :Sapphire Pressure With Dynamic Compensation {F13.4}
QNDP .PSI                                              :CQG Pressure Without Dynamic Compensation {F13.4}
QCP  .PSI                                              :CQG Pressure With Dynamic Compensation {F13.4}
QPCO .PSI                                              :CQG Dynamic Compensation {F13.4}
#-----------------------------------------------------------------------------
# 
#     TIME      TENS_SL      DEPT_SL      PDEP_XPT     MTEP_SAP     MTEP_HYD     PCO_HYD      PND_HYD       CP_HYD      MTEP_QG       PTNO_XPT       ETIM_XPT     PCO_SAP      PND_SAP       CP_SAP        QNDP         QCP          QPCO
#
~A  
    4617.0    4889.6685 1443425.1460    3664.6908     121.8245     122.3790       0.0000    5966.6180    5966.6180     122.4549          7       0.0000       0.0000    5964.8715    5964.8715    5962.2662    5962.2662       0.0000
    4618.0    4898.2440 1443523.0000    3664.9392     121.8337     122.3872       0.0000    5966.9910    5966.9910     122.4634          8       0.6870       0.0000    5965.2650    5965.2650    5962.5816    5962.5816       0.0000
    4619.0    4871.0850 1443523.0000    3664.9392     121.8335     122.3875       0.0000    5966.9287    5966.9287     122.4633          8       1.6870       0.0000    5965.2086    5965.2086    5962.5260    5962.5260       0.0000
    4620.0    4833.6420 1443523.0000    3664.9392     121.8349     122.3887       0.0000    5966.9778    5966.9778     122.4632          8       2.6870       0.0000    5965.2940    5965.2940    5962.6033    5962.6033       0.0000
    4621.0    4783.8410 1443523.0000    3664.9392     121.8337     122.3880       0.0000    5966.9988    5966.9988     122.4633          8       3.6870       0.0000    5965.3530    5965.3530    5962.6318    5962.6318       0.0000
    4622.0    4779.7400 1443523.0000    3664.9392     121.8337     122.3870       0.0000    5967.0570    5967.0570     122.4633          8       4.6870       0.0000    5965.3789    5965.3789    5962.7031    5962.7031       0.0000
    4623.0    4786.0000 1443523.0000    3664.9392     121.8349     122.3888       0.0000    5967.2751    5967.2751     122.4632          8       5.6870       0.0000    5965.5893    5965.5893    5962.8096    5962.8096       0.0000
    4624.0    4770.8860 1443523.0000    3664.9392     121.8350     122.3876       0.0035    5967.2513    5967.2549     122.4635          8       6.6870       0.0089    5965.4954    5965.5042    5962.8332    5962.8409       0.0076
    4625.0    4761.2520 1443523.0000    3664.9392     121.8319     122.3885       0.0037    5967.2632    5967.2671     122.4633          8       7.6870       0.0109    5965.4095    5965.4205    5962.8082    5962.8152       0.0070
    4626.0    4801.2200 1443523.0000    3664.9392     121.8338     122.3866       0.0032    5967.1949    5967.1978     122.4636          8       8.6870       0.0114    5965.4977    5965.5089    5962.8356    5962.8424       0.0068
    4627.0    4824.1220 1443523.0000    3664.9392     121.8343     122.3880       0.0028    5967.1817    5967.1847     122.4635          8       9.6870       0.0113    5965.4944    5965.5056    5962.8040    5962.8110       0.0071
    4628.0    4841.8010 1443523.0000    3664.9392     121.8341     122.3899       0.0033    5967.2890    5967.2925     122.4635          8      10.6870       0.0096    5965.5936    5965.6033    5962.8180    5962.8257       0.0076
    4629.0    4884.7240 1443523.0000    3664.9392     121.8339     122.3880       0.0033    5967.1525    5967.1559     122.4635          8      11.6870       0.0069    5965.4030    5965.4099    5962.7097    5962.7175       0.0076
    4630.0    4898.2520 1443523.0000    3664.9392     121.8354     122.3880       0.0026    5967.1583    5967.1608     122.4636          8      12.6870       0.0034    5965.4712    5965.4744    5962.7919    5962.7992       0.0073
    4631.0    4864.0240 1443523.0000    3664.9392     121.8335     122.3886       0.0032    5967.2163    5967.2195     122.4637          8      13.6870       0.0024    5965.4176    5965.4198    5962.7951    5962.8027       0.0076
    4632.0    4792.6660 1443523.0000    3664.9392     121.8353     122.3895       0.0046    5967.2254    5967.2298     122.4636          8      14.6870       0.0037    5965.4847    5965.4885    5962.8121    5962.8199       0.0077
    4633.0    4772.4960 1443523.0000    3664.9392     121.8352     122.3887       0.0064    5967.3359    5967.3424     122.4637          8      15.6870       0.0060    5965.6441    5965.6501    5962.9025    5962.9102       0.0077
    4634.0    4770.8780 1443523.0000    3664.9392     121.8344     122.3888       0.0068    5967.3374    5967.3442     122.4636          8      16.6870       0.0076    5965.6894    5965.6971    5962.9902    5962.9976       0.0072
    4635.0    4763.5040 1443523.0000    3664.9392     121.8336     122.3888       0.0054    5967.5157    5967.5211     122.4640          8      17.6870       0.0086    5965.6490    5965.6577    5963.0420    5963.0493       0.0073
    4636.0    4770.6180 1443523.0000    3664.9392     121.8352     122.3900       0.0031    5967.4695    5967.4727     122.4636          8      18.6870       0.0088    5965.6793    5965.6881    5963.0147    5963.0227       0.0080
    4637.0    4817.5940 1443523.0000    3664.9392     121.8354     122.3885       0.0008    5967.3525    5967.3532     122.4635          8      19.6870       0.0077    5965.7471    5965.7546    5962.9806    5962.9887       0.0081
    4638.0    4859.6710 1443523.0000    3664.9392     121.8336     122.3895      -0.0004    5967.4048    5967.4043     122.4635          8      20.6870       0.0055    5965.6671    5965.6725    5962.9508    5962.9582       0.0073
    4639.0    4861.0690 1443523.0000    3664.9392     121.8361     122.3882      -0.0004    5967.3192    5967.3188     122.4639          8      21.6870       0.0036    5965.5943    5965.5980    5962.9218    5962.9287       0.0067
    4640.0    4859.7480 1443523.0000    3664.9392     121.8357     122.3880       0.0003    5967.3105    5967.3108     122.4637          8      22.6870       0.0027    5965.5460    5965.5489    5962.8910    5962.8981       0.0072
    4641.0    4866.4960 1443523.0000    3664.9392     121.8350     122.3895       0.0014    5967.2545    5967.2559     122.4639          8      23.6870       0.0021    5965.6810    5965.6829    5962.9161    5962.9243       0.0082
    4642.0    4851.8250 1443523.0000    3664.9392     121.8361     122.3890       0.0029    5967.2546    5967.2577     122.4637          8      24.6870       0.0014    5965.6840    5965.6853    5962.9709    5962.9792       0.0084
    4643.0    4806.9020 1443523.0000    3664.9392     121.8364     122.3888       0.0042    5967.3970    5967.4012     122.4639          8      25.6870       0.0008    5965.6904    5965.6910    5962.9729    5962.9809       0.0081
    4644.0    4790.0000 1443523.0000    3664.9392     121.8372     122.3896       0.0047    5967.3766    5967.3815     122.4639          8      26.6870       0.0009    5965.7883    5965.7892    5962.9958    5963.0041       0.0083
    4645.0    4767.3290 1443523.0000    3664.9392     121.8351     122.3892       0.0046    5967.4189    5967.4233     122.4641          8      27.6870       0.0015    5965.7265    5965.7279    5963.0277    5963.0370       0.0091
    4646.0    4752.1910 1443523.0000    3664.9392     121.8370     122.3883       0.0039    5967.4517    5967.4556     122.4639          8      28.6870       0.0017    5965.7554    5965.7568    5963.0480    5963.0573       0.0091
    4647.0    4750.0000 1443523.0000    3664.9392     121.8360     122.3910       0.0026    5967.4742    5967.4767     122.4642          8      29.6870       0.0017    5965.8362    5965.8377    5963.0391    5963.0474       0.0082
    4648.0    4770.6100 1443523.0000    3664.9392     121.8356     122.3890       0.0011    5967.4339    5967.4349     122.4641          8      30.6870       0.0014    5965.6290    5965.6305    5963.0431    5963.0509       0.0078
    4649.0    4808.8540 1443523.0000    3664.9392     121.8362     122.3897       0.0008    5967.4284    5967.4294     122.4641          8      31.6870       0.0014    5965.7596    5965.7610    5963.0281    5963.0367       0.0085
    4650.0    4840.5490 1443523.0000    3664.9392     121.8376     122.3902       0.0017    5967.4694    5967.4713     122.4639          8      32.6870       0.0015    5965.7642    5965.7657    5963.0132    5963.0225       0.0094
    4651.0    4838.6950 1443523.0000    3664.9392     121.8362     122.3891       0.0029    5967.3786    5967.3817     122.4642          8      33.6870       0.0017    5965.7253    5965.7268    5962.9766    5962.9858       0.0091
