~VERSION INFORMATION
VERS.           2.0   :CWLS Log ASCII Standard - VERSION 2.0
WRAP.           NO    :One Line per depth step
PROD.  Schlumberger   :LAS Producer
PROG.  DLIS to ASCII 2.2                               :LAS Program name and version
CREA.        2020/10/30 12:18                          :LAS Creation date {YYYY/MM/DD hh:mm}
SOURCE.     XPT_HRLA_TLD_MCFL_039LTP.DLIS              :DLIS File Name
FILE-ID.     XPT_HRLA_TLD_MCFL_039LTP                  :File Identification Number
#--------------------------------------------------
~WELL INFORMATION
#MNEM.UNIT      DATA             DESCRIPTION
#---- ------ --------------   -----------------------------
STRT .S          109.0       :START TIME      
STOP .S          613.0       :STOP TIME      
STEP .S            1.0       :STEP     
NULL .          -999.25      :NULL VALUE
COMP .        Nexus Energy                             :COMPANY
WELL .        Crux-3                                   :WELL
FLD  .        Crux                                     :FIELD
LOC  .        Easting: 656981.7mE                      :LOCATION
CNTY .        Sedco-703                                :COUNTY
STAT .        Northern Territory                       :STATE
CTRY .        Australia                                :COUNTRY
API  .                                                 :API NUMBER
UWI  .                                                 :UNIQUE WELL ID
DATE .        31-Dec-2007                              :LOG DATE {DD-MMM-YYYY}
SRVC .        Schlumberger                             :SERVICE COMPANY
LATI .DEG     12*57'32.63" S                           :LATITUDE
LONG .DEG     124*26'50.07" E                          :LONGITUDE
GDAT .                                                 :GeoDetic Datum
#-----------------------------------------------------------------------------
~PARAMETER INFORMATION
#MNEM.UNIT    VALUE                      DESCRIPTION
#---- -----   --------------------       ------------------------
RUN  .          1                        :RUN NUMBER
PDAT .        LAT                        :Permanent Datum
EPD  .M           0.000000               :Elevation of Permanent Datum above Mean Sea Level
EPD  .M           0.000000               :Elevation of tool zero above Mean Sea Level
LMF  .          DF                       :Logging Measured From (Name of Logging Elevation Reference)
APD  .M          26.400000               :Elevation of Depth Reference (LMF) above Permanent Datum
#-----------------------------------------------------------------------------
~CURVE INFORMATION
#MNEM.UNIT   API CODE                                  DESCRIPTION
#---- -----  --------                                  -----------------------
TIME .S                                                :TIME {F10.1}
TENS_SL.LBF                                            :Cable Tension {F13.4}
DEPT_SL..1IN                                           :Station logging depth {F13.4}
PDEP_XPT.M                                             :XPT Probe Depth {F13.4}
MTEP_SAP.DEGC                                          :Sapphire Gauge Manometer Temperature {F13.4}
MTEP_HYD.DEGC                                          :Hydrostatic Sapphire Gauge Manometer Temperature {F13.4}
PCO_HYD.PSI                                            :Hydrostatic Sapphire Dynamic Compensation {F13.4}
PND_HYD.PSI                                            :Hydrostatic Sapphire Pressure Without Dynamic Compensation {F13.4}
CP_HYD.PSI                                             :Hydrostatic Sapphire Pressure With Dynamic Compensation {F13.4}
MTEP_QG.DEGC                                           :CQG Manometer Temperature {F13.4}
PTNO_XPT.                                              :XPT Pretest Number {I11}
ETIM_XPT.S                                             :Elapsed Logging Time {F13.4}
PCO_SAP.PSI                                            :Sapphire Dynamic Compensation {F13.4}
PND_SAP.PSI                                            :Sapphire Pressure Without Dynamic Compensation {F13.4}
CP_SAP.PSI                                             :Sapphire Pressure With Dynamic Compensation {F13.4}
QNDP .PSI                                              :CQG Pressure Without Dynamic Compensation {F13.4}
QCP  .PSI                                              :CQG Pressure With Dynamic Compensation {F13.4}
QPCO .PSI                                              :CQG Dynamic Compensation {F13.4}
#-----------------------------------------------------------------------------
# 
#     TIME      TENS_SL      DEPT_SL      PDEP_XPT     MTEP_SAP     MTEP_HYD     PCO_HYD      PND_HYD       CP_HYD      MTEP_QG       PTNO_XPT       ETIM_XPT     PCO_SAP      PND_SAP       CP_SAP        QNDP         QCP          QPCO
#
~A  
# ...
     144.0    4799.1733 1418545.0000    3601.4951     118.9877     119.5316       0.0195    5866.5322    5866.5518     119.5222          2      35.2610       0.0213    5864.8326    5864.8539    5862.0719    5862.1364       0.0644
     145.0    4797.3924 1418545.0000    3601.4951     118.9865     119.5316       0.0196    5866.4727    5866.4923     119.5225          2      36.2610       0.0208    5864.7969    5864.8179    5862.0784    5862.1433       0.0650
     146.0    4797.6057 1418545.0000    3601.4951     118.9875     119.5313       0.0177    5866.4817    5866.4996     119.5228          2      37.2610       0.0180    5864.8219    5864.8397    5862.1089    5862.1743       0.0652
     147.0    4763.1714 1418545.0000    3601.4951     118.9892     119.5327       0.0152    5866.5596    5866.5750     119.5229          2      38.2610       0.0153    5864.9216    5864.9369    5862.1294    5862.1949       0.0656
     148.0    4738.3905 1418545.0000    3601.4951     118.9889     119.5331       0.0131    5866.5479    5866.5611     119.5230          2      39.2610       0.0124    5865.0092    5865.0216    5862.1581    5862.2240       0.0659
     149.0    4731.0000 1418545.0000    3601.4951     118.9873     119.5324       0.0107    5866.6117    5866.6224     119.5233          2      40.2610       0.0088    5864.8977    5864.9064    5862.2145    5862.2804       0.0660
     150.0    4732.5657 1418545.0000    3601.4951     118.9892     119.5335       0.0083    5866.6706    5866.6789     119.5234          2      41.2610       0.0060    5864.9603    5864.9664    5862.2315    5862.2977       0.0661
     151.0    4756.8324 1418545.0000    3601.4951     118.9909     119.5326       0.0063    5866.6279    5866.6343     119.5239          2      42.2610       0.0059    5864.9612    5864.9671    5862.1711    5862.2371       0.0661
     152.0    4812.4781 1418545.0000    3601.4951     118.9892     119.5328       0.0049    5866.6035    5866.6084     119.5240          2      43.2610       0.0078    5864.9441    5864.9520    5862.1521    5862.2180       0.0657
     153.0    4807.3467 1418545.0000    3601.4951     118.9898     119.5333       0.0049    5866.6095    5866.6144     119.5244          2      44.2610       0.0114    5864.8525    5864.8638    5862.1546    5862.2198       0.0652
     154.0    4791.7809 1418545.0000    3601.4951     118.9892     119.5342       0.0055    5866.5850    5866.5903     119.5244          2      45.2610       0.0156    5864.8047    5864.8202    5862.0523    5862.1169       0.0647
     155.0    4778.8267 1418545.0000    3601.4951     118.9898     119.5331       0.0052    5866.4564    5866.4616     119.5247          2      46.2610       0.0182    5864.9394    5864.9575    5862.1677    5862.2320       0.0642
     156.0    4778.2590 1418545.0000    3601.4951     118.9898     119.5332       0.0043    5866.4889    5866.4932     119.5247          2      47.2610       0.0180    5864.9116    5864.9297    5862.1980    5862.2620       0.0640
     157.0    4749.2133 1418545.0000    3601.4951     118.9924     119.5343       0.0047    5866.5682    5866.5730     119.5250          2      48.2610       0.0163    5865.1126    5865.1288    5862.2920    5862.3560       0.0641
     158.0    4713.5219 1418545.0000    3601.4951     118.9902     119.5335       0.0065    5866.5521    5866.5586     119.5252          2      49.2610       0.0142    5865.0495    5865.0635    5862.3006    5862.3652       0.0646
     159.0    4716.8267 1418545.0000    3601.4951     118.9907     119.5343       0.0076    5866.6833    5866.6909     119.5253          2      50.2610       0.0099    5865.0021    5865.0121    5862.2711    5862.3360       0.0650
     160.0    4727.2191 1418545.0000    3601.4951     118.9900     119.5337       0.0076    5866.6650    5866.6724     119.5257          2      51.2610       0.0035    5864.9977    5865.0014    5862.2947    5862.3596       0.0651
     161.0    4734.6933 1418545.0000    3601.4951     118.9907     119.5342       0.0080    5866.6421    5866.6500     119.5261          2      52.2610      -0.0008    5864.9460    5864.9450    5862.2748    5862.3403       0.0653
     162.0    4710.3467 1418545.0000    3601.4951     118.9922     119.5344       0.0097    5866.6207    5866.6302     119.5261          2      53.2610       0.0006    5865.0731    5865.0736    5862.2382    5862.3037       0.0653
     163.0    4709.3943 1418545.0000    3601.4951     118.9906     119.5344       0.0111    5866.6133    5866.6244     119.5261          2      54.2610       0.0044    5864.8782    5864.8825    5862.2304    5862.2949       0.0647
     164.0    4746.4381 1418545.0000    3601.4951     118.9899     119.5339       0.0113    5866.5239    5866.5351     119.5265          2      55.2610       0.0063    5864.8122    5864.8185    5862.1943    5862.2582       0.0639
     165.0    4783.3067 1418545.0000    3601.4951     118.9902     119.5348       0.0111    5866.5195    5866.5308     119.5267          2      56.2610       0.0066    5864.8852    5864.8918    5862.1618    5862.2253       0.0635
     166.0    4806.6095 1418545.0000    3601.4951     118.9929     119.5348       0.0107    5866.5105    5866.5213     119.5272          2      57.2610       0.0082    5864.8383    5864.8466    5862.0864    5862.1499       0.0637
     167.0    4807.9981 1418545.0000    3601.4951     118.9909     119.5354       0.0097    5866.4532    5866.4630     119.5270          2      58.2610       0.0119    5864.6944    5864.7061    5862.0079    5862.0718       0.0638
     168.0    4790.7390 1418545.0000    3601.4951     118.9907     119.5356       0.0086    5866.5457    5866.5542     119.5275          2      59.2610       0.0134    5864.6648    5864.6783    5862.0176    5862.0811       0.0636
     169.0    4771.7333 1418545.0000    3601.4951     118.9932     119.5367       0.0074    5866.5207    5866.5280     119.5276          2      60.2610       0.0143    5864.7568    5864.7710    5862.0040    5862.0679       0.0638
     170.0    4716.6076 1418545.0000    3601.4951     118.9917     119.5347       0.0071    5866.5085    5866.5153     119.5280          2      61.2610       0.0159    5864.7975    5864.8136    5862.0608    5862.1252       0.0643
     171.0    4705.4343 1418545.0000    3601.4951     118.9920     119.5369       0.0078    5866.5874    5866.5952     119.5281          2      62.2610       0.0174    5864.8733    5864.8906    5862.1698    5862.2342       0.0644
     172.0    4697.0857 1418545.0000    3601.4951     118.9921     119.5361       0.0097    5866.6928    5866.7025     119.5280          2      63.2610       0.0191    5864.9749    5864.9939    5862.2482    5862.3122       0.0640
     173.0    4688.0876 1418545.0000    3601.4951     118.9932     119.5363       0.0115    5866.6397    5866.6510     119.5285          2      64.2610       0.0195    5865.0403    5865.0597    5862.2452    5862.3091       0.0638
     174.0    4702.6115 1418545.0000    3601.4951     118.9938     119.5361       0.0124    5866.5953    5866.6078     119.5287          2      65.2610       0.0181    5864.9651    5864.9834    5862.2258    5862.2893       0.0637
     175.0    4744.2229 1418545.0000    3601.4951     118.9935     119.5362       0.0125    5866.6387    5866.6514     119.5288          2      66.2610       0.0158    5864.9140    5864.9297    5862.1890    5862.2525       0.0637
     176.0    4792.4781 1418545.0000    3601.4951     118.9925     119.5370       0.0117    5866.5370    5866.5486     119.5289          2      67.2610       0.0131    5864.9074    5864.9205    5862.1498    5862.2132       0.0634
     177.0    4789.1733 1418545.0000    3601.4951     118.9936     119.5371       0.0099    5866.5139    5866.5239     119.5295          2      68.2610       0.0107    5864.7931    5864.8036    5862.0996    5862.1631       0.0633
     178.0    4786.3486 1418545.0000    3601.4951     118.9936     119.5369       0.0076    5866.4737    5866.4812     119.5292          2      69.2610       0.0090    5864.8891    5864.8980    5862.0708    5862.1342       0.0634
