~VERSION INFORMATION
VERS.           2.0   :CWLS Log ASCII Standard - VERSION 2.0
WRAP.           NO    :One Line per depth step
PROD.  Schlumberger   :LAS Producer
PROG.  DLIS to ASCII 2.2                               :LAS Program name and version
CREA.        2020/10/30 12:18                          :LAS Creation date {YYYY/MM/DD hh:mm}
SOURCE.     XPT_HRLA_TLD_MCFL_051LTP.DLIS              :DLIS File Name
FILE-ID.     XPT_HRLA_TLD_MCFL_051LTP                  :File Identification Number
#--------------------------------------------------
~WELL INFORMATION
#MNEM.UNIT      DATA             DESCRIPTION
#---- ------ --------------   -----------------------------
STRT .S         3209.0       :START TIME      
STOP .S         3664.0       :STOP TIME      
STEP .S            1.0       :STEP     
NULL .          -999.25      :NULL VALUE
COMP .        Nexus Energy                             :COMPANY
WELL .        Crux-3                                   :WELL
FLD  .        Crux                                     :FIELD
LOC  .        Easting: 656981.7mE                      :LOCATION
CNTY .        Sedco-703                                :COUNTY
STAT .        Northern Territory                       :STATE
CTRY .        Australia                                :COUNTRY
API  .                                                 :API NUMBER
UWI  .                                                 :UNIQUE WELL ID
DATE .        31-Dec-2007                              :LOG DATE {DD-MMM-YYYY}
SRVC .        Schlumberger                             :SERVICE COMPANY
LATI .DEG     12*57'32.63" S                           :LATITUDE
LONG .DEG     124*26'50.07" E                          :LONGITUDE
GDAT .                                                 :GeoDetic Datum
#-----------------------------------------------------------------------------
~PARAMETER INFORMATION
#MNEM.UNIT    VALUE                      DESCRIPTION
#---- -----   --------------------       ------------------------
RUN  .          1                        :RUN NUMBER
PDAT .        LAT                        :Permanent Datum
EPD  .M           0.000000               :Elevation of Permanent Datum above Mean Sea Level
EPD  .M           0.000000               :Elevation of tool zero above Mean Sea Level
LMF  .          DF                       :Logging Measured From (Name of Logging Elevation Reference)
APD  .M          26.400000               :Elevation of Depth Reference (LMF) above Permanent Datum
#-----------------------------------------------------------------------------
~CURVE INFORMATION
#MNEM.UNIT   API CODE                                  DESCRIPTION
#---- -----  --------                                  -----------------------
TIME .S                                                :TIME {F10.1}
TENS_SL.LBF                                            :Cable Tension {F13.4}
DEPT_SL..1IN                                           :Station logging depth {F13.4}
PDEP_XPT.M                                             :XPT Probe Depth {F13.4}
MTEP_SAP.DEGC                                          :Sapphire Gauge Manometer Temperature {F13.4}
MTEP_HYD.DEGC                                          :Hydrostatic Sapphire Gauge Manometer Temperature {F13.4}
PCO_HYD.PSI                                            :Hydrostatic Sapphire Dynamic Compensation {F13.4}
PND_HYD.PSI                                            :Hydrostatic Sapphire Pressure Without Dynamic Compensation {F13.4}
CP_HYD.PSI                                             :Hydrostatic Sapphire Pressure With Dynamic Compensation {F13.4}
MTEP_QG.DEGC                                           :CQG Manometer Temperature {F13.4}
PTNO_XPT.                                              :XPT Pretest Number {I11}
ETIM_XPT.S                                             :Elapsed Logging Time {F13.4}
PCO_SAP.PSI                                            :Sapphire Dynamic Compensation {F13.4}
PND_SAP.PSI                                            :Sapphire Pressure Without Dynamic Compensation {F13.4}
CP_SAP.PSI                                             :Sapphire Pressure With Dynamic Compensation {F13.4}
QNDP .PSI                                              :CQG Pressure Without Dynamic Compensation {F13.4}
QCP  .PSI                                              :CQG Pressure With Dynamic Compensation {F13.4}
QPCO .PSI                                              :CQG Dynamic Compensation {F13.4}
#-----------------------------------------------------------------------------
# 
#     TIME      TENS_SL      DEPT_SL      PDEP_XPT     MTEP_SAP     MTEP_HYD     PCO_HYD      PND_HYD       CP_HYD      MTEP_QG       PTNO_XPT       ETIM_XPT     PCO_SAP      PND_SAP       CP_SAP        QNDP         QCP          QPCO
#
~A  
# ...
    3594.0    4901.4960 1496497.0000    3799.4934     125.2567     125.8639       0.0243    6181.5515    6181.5757     125.6063         16     385.0840       0.0182    5575.2046    5575.2228    5572.3120    5572.5776       0.2658
    3595.0    4894.5720 1496497.0000    3799.4934     125.2541     125.8656       0.0259    6181.5691    6181.5949     125.6072         16     386.0840       0.0205    5575.0666    5575.0871    5572.3092    5572.5743       0.2653
    3596.0    4882.4440 1496497.0000    3799.4934     125.2579     125.8645       0.0275    6181.4974    6181.5249     125.6081         16     387.0840       0.0219    5575.3174    5575.3394    5572.3127    5572.5773       0.2648
    3597.0    4929.2400 1496497.0000    3799.4934     125.2565     125.8654       0.0277    6181.6269    6181.6547     125.6087         16     388.0840       0.0233    5575.2272    5575.2504    5572.3137    5572.5778       0.2643
    3598.0    5029.4960 1496497.0000    3799.4934     125.2585     125.8665       0.0259    6181.5218    6181.5477     125.6093         16     389.0840       0.0253    5575.2798    5575.3051    5572.3113    5572.5755       0.2640
    3599.0    5024.0000 1496497.0000    3799.4934     125.2584     125.8665       0.0232    6181.3984    6181.4217     125.6105         16     390.0840       0.0267    5575.2754    5575.3022    5572.3156    5572.5793       0.2638
    3600.0    5020.9760 1496497.0000    3799.4934     125.2591     125.8665       0.0221    6181.3616    6181.3836     125.6115         16     391.0840       0.0265    5575.2606    5575.2870    5572.3114    5572.5753       0.2639
    3601.0    4989.5960 1496497.0000    3799.4934     125.2603     125.8680       0.0224    6181.3550    6181.3774     125.6122         16     392.0840       0.0250    5575.3230    5575.3479    5572.3145    5572.5787       0.2641
    3602.0    5002.5480 1496497.0000    3799.4934     125.2611     125.8666       0.0223    6181.3311    6181.3535     125.6131         16     393.0840       0.0232    5575.3112    5575.3345    5572.3153    5572.5789       0.2638
    3603.0    4954.0000 1496497.0000    3799.4934     125.2616     125.8685       0.0216    6181.4450    6181.4664     125.6139         16     394.0840       0.0223    5575.3294    5575.3519    5572.3190    5572.5819       0.2629
    3604.0    4949.4640 1496497.0000    3799.4934     125.2620     125.8695       0.0221    6181.5490    6181.5710     125.6147         16     395.0840       0.0226    5575.1903    5575.2128    5572.3221    5572.5833       0.2615
    3605.0    4905.2920 1496497.0000    3799.4934     125.2620     125.8701       0.0237    6181.5572    6181.5808     125.6156         16     396.0840       0.0235    5575.2296    5575.2531    5572.3240    5572.5841       0.2600
    3606.0    4956.7840 1496497.0000    3799.4934     125.2623     125.8682       0.0244    6181.5367    6181.5611     125.6164         16     397.0840       0.0243    5575.2608    5575.2852    5572.3216    5572.5806       0.2589
    3607.0    4889.9240 1496497.0000    3799.4934     125.2628     125.8703       0.0236    6181.5575    6181.5810     125.6172         16     398.0840       0.0248    5575.2567    5575.2816    5572.3185    5572.5764       0.2580
    3608.0    4905.3760 1496497.0000    3799.4934     125.2622     125.8710       0.0227    6181.5663    6181.5891     125.6182         16     399.0840       0.0245    5575.3004    5575.3248    5572.3228    5572.5806       0.2577
    3609.0    4967.9480 1496497.0000    3799.4934     125.2626     125.8695       0.0220    6181.4312    6181.4531     125.6188         16     400.0840       0.0229    5575.2744    5575.2973    5572.3226    5572.5804       0.2579
    3610.0    5013.1000 1496497.0000    3799.4934     125.2641     125.8726       0.0209    6181.6436    6181.6646     125.6197         16     401.0840       0.0204    5575.3876    5575.4081    5572.3261    5572.5849       0.2586
    3611.0    5036.1680 1496497.0000    3799.4934     125.2639     125.8713       0.0202    6181.5100    6181.5300     125.6207         16     402.0840       0.0207    5575.3115    5575.3322    5572.3235    5572.5869       0.2631
    3612.0    5033.8840 1496497.0000    3799.4934     125.2650     125.8713       0.0213    6181.4732    6181.4945     125.6212         16     403.0840       0.0643    5575.3514    5575.4159    5572.3267    5572.6705       0.3438
    3613.0    4982.1960 1496497.0000    3799.4934     125.2645     125.8726       0.0239    6181.4634    6181.4873     125.6222         16     404.0840       0.2083    5575.3050    5575.5134    5572.3238    5572.9143       0.5907
    3614.0    4907.9160 1496497.0000    3799.4934     125.2654     125.8715       0.0253    6181.4518    6181.4772     125.6230         16     405.0840       0.4647    5575.1677    5575.6324    5572.3283    5573.3442       1.0161
    3615.0    4906.6640 1496497.0000    3799.4934     125.2654     125.8731       0.0241    6181.5100    6181.5341     125.6237         16     406.0840       0.7445    5575.2441    5575.9886    5572.3270    5573.8164       1.4895
    3616.0    4906.4440 1496497.0000    3799.4934     125.2653     125.8733       0.0217    6181.4680    6181.4896     125.6247         16     407.0840       0.9368    5575.2284    5576.1651    5572.3291    5574.2036       1.8747
    3617.0    4945.3440 1496497.0000    3799.4934     125.2910     125.8752       0.0197    6181.4896    6181.5091     125.6337         16     408.0840       0.9958    5766.1139    5767.1099    5758.8674    5761.0107       2.1432
    3618.0    4961.4280 1496497.0000    3799.4934     125.3692     125.8744       0.0187    6181.2056    6181.2244     125.6551         16     409.0840       0.9280    6185.2800    6186.2079    6174.8393    6177.1370       2.2978
    3619.0    4977.6720 1496497.0000    3799.4934     125.3772     125.8741       0.0187    6181.2365    6181.2551     125.6592         16     410.0840       0.7318    6184.5983    6185.3303    6174.8116    6177.1064       2.2947
    3620.0    4985.4200 1496497.0000    3799.4934     125.3776     125.8745       0.0201    6181.2725    6181.2927     125.6639         16     411.0840       0.4153    6183.8286    6184.2439    6175.0470    6177.1503       2.1033
    3621.0    4991.2600 1496497.0000    3799.4934     125.3730     125.8749       0.0230    6181.2844    6181.3075     125.6690         16     412.0840       0.0754    6183.0989    6183.1744    6175.2579    6177.0962       1.8381
    3622.0    5006.4280 1496497.0000    3799.4934     125.3659     125.8749       0.0262    6181.3653    6181.3916     125.6751         16     413.0840      -0.1742    6182.2542    6182.0801    6175.4656    6177.0981       1.6327
    3623.0    5022.2520 1496497.0000    3799.4934     125.3600     125.8768       0.0284    6181.3590    6181.3875     125.6803         16     414.0840      -0.2884    6181.7326    6181.4441    6175.6928    6177.2103       1.5176
    3624.0    5022.9000 1496497.0000    3799.4934     125.3531     125.8774       0.0277    6181.3585    6181.3862     125.6850         16     415.0840      -0.3133    6181.3104    6180.9973    6175.8430    6177.2680       1.4249
    3625.0    4999.4960 1496497.0000    3799.4934     125.3458     125.8771       0.0230    6181.3848    6181.4079     125.6897         16     416.0840      -0.3052    6180.9666    6180.6616    6175.9764    6177.2831       1.3068
    3626.0    4995.5120 1496497.0000    3799.4934     125.3420     125.8779       0.0167    6181.3403    6181.3570     125.6937         16     417.0840      -0.2855    6180.6809    6180.3952    6176.1500    6177.3235       1.1735
    3627.0    5011.0760 1496497.0000    3799.4934     125.3367     125.8779       0.0139    6181.4004    6181.4143     125.6970         16     418.0840      -0.2624    6180.5104    6180.2480    6176.2759    6177.3147       1.0387
    3628.0    4996.0440 1496497.0000    3799.4934     125.3324     125.8801       0.0155    6181.4808    6181.4963     125.7003         16     419.0840      -0.2379    6180.3302    6180.0924    6176.3552    6177.2644       0.9090
