~VERSION INFORMATION
VERS.           2.0   :CWLS Log ASCII Standard - VERSION 2.0
WRAP.           NO    :One Line per depth step
PROD.  Schlumberger   :LAS Producer
PROG.  DLIS to ASCII 2.2                               :LAS Program name and version
CREA.        2020/10/30 12:18                          :LAS Creation date {YYYY/MM/DD hh:mm}
SOURCE.     XPT_HRLA_TLD_MCFL_069LTP.DLIS              :DLIS File Name
FILE-ID.     XPT_HRLA_TLD_MCFL_069LTP                  :File Identification Number
#--------------------------------------------------
~WELL INFORMATION
#MNEM.UNIT      DATA             DESCRIPTION
#---- ------ --------------   -----------------------------
STRT .S         1113.0       :START TIME      
STOP .S         1454.0       :STOP TIME      
STEP .S            1.0       :STEP     
NULL .          -999.25      :NULL VALUE
COMP .        Nexus Energy                             :COMPANY
WELL .        Crux-3                                   :WELL
FLD  .        Crux                                     :FIELD
LOC  .        Easting: 656981.7mE                      :LOCATION
CNTY .        Sedco-703                                :COUNTY
STAT .        Northern Territory                       :STATE
CTRY .        Australia                                :COUNTRY
API  .                                                 :API NUMBER
UWI  .                                                 :UNIQUE WELL ID
DATE .        31-Dec-2007                              :LOG DATE {DD-MMM-YYYY}
SRVC .        Schlumberger                             :SERVICE COMPANY
LATI .DEG     12*57'32.63" S                           :LATITUDE
LONG .DEG     124*26'50.07" E                          :LONGITUDE
GDAT .                                                 :GeoDetic Datum
#-----------------------------------------------------------------------------
~PARAMETER INFORMATION
#MNEM.UNIT    VALUE                      DESCRIPTION
#---- -----   --------------------       ------------------------
RUN  .          1                        :RUN NUMBER
PDAT .        LAT                        :Permanent Datum
EPD  .M           0.000000               :Elevation of Permanent Datum above Mean Sea Level
EPD  .M           0.000000               :Elevation of tool zero above Mean Sea Level
LMF  .          DF                       :Logging Measured From (Name of Logging Elevation Reference)
APD  .M          26.400000               :Elevation of Depth Reference (LMF) above Permanent Datum
#-----------------------------------------------------------------------------
~CURVE INFORMATION
#MNEM.UNIT   API CODE                                  DESCRIPTION
#---- -----  --------                                  -----------------------
TIME .S                                                :TIME {F10.1}
TENS_SL.LBF                                            :Cable Tension {F13.4}
DEPT_SL..1IN                                           :Station logging depth {F13.4}
PDEP_XPT.M                                             :XPT Probe Depth {F13.4}
MTEP_SAP.DEGC                                          :Sapphire Gauge Manometer Temperature {F13.4}
MTEP_HYD.DEGC                                          :Hydrostatic Sapphire Gauge Manometer Temperature {F13.4}
PCO_HYD.PSI                                            :Hydrostatic Sapphire Dynamic Compensation {F13.4}
PND_HYD.PSI                                            :Hydrostatic Sapphire Pressure Without Dynamic Compensation {F13.4}
CP_HYD.PSI                                             :Hydrostatic Sapphire Pressure With Dynamic Compensation {F13.4}
MTEP_QG.DEGC                                           :CQG Manometer Temperature {F13.4}
PTNO_XPT.                                              :XPT Pretest Number {I11}
ETIM_XPT.S                                             :Elapsed Logging Time {F13.4}
PCO_SAP.PSI                                            :Sapphire Dynamic Compensation {F13.4}
PND_SAP.PSI                                            :Sapphire Pressure Without Dynamic Compensation {F13.4}
CP_SAP.PSI                                             :Sapphire Pressure With Dynamic Compensation {F13.4}
QNDP .PSI                                              :CQG Pressure Without Dynamic Compensation {F13.4}
QCP  .PSI                                              :CQG Pressure With Dynamic Compensation {F13.4}
QPCO .PSI                                              :CQG Dynamic Compensation {F13.4}
#-----------------------------------------------------------------------------
# 
#     TIME      TENS_SL      DEPT_SL      PDEP_XPT     MTEP_SAP     MTEP_HYD     PCO_HYD      PND_HYD       CP_HYD      MTEP_QG       PTNO_XPT       ETIM_XPT     PCO_SAP      PND_SAP       CP_SAP        QNDP         QCP          QPCO
#
~A  
# ...
    1323.0    5031.2466 1534897.0000    3897.0293     132.6826     132.9647      -0.1400    6336.1343    6335.9943     133.4214         34     209.8951      -0.1359    5824.0786    5823.9429    5822.7056    5822.1730      -0.5325
    1324.0    5034.7341 1534897.0000    3897.0293     132.6801     132.9601      -0.1429    6336.0854    6335.9424     133.4195         34     210.8951      -0.1402    5823.7430    5823.6029    5822.4604    5821.9263      -0.5342
    1325.0    5035.7903 1534897.0000    3897.0293     132.6783     132.9593      -0.1445    6335.8312    6335.6867     133.4177         34     211.8951      -0.1427    5823.5476    5823.4048    5822.2066    5821.6697      -0.5368
    1326.0    5046.7415 1534897.0000    3897.0293     132.6763     132.9552      -0.1444    6335.8913    6335.7468     133.4163         34     212.8951      -0.1421    5823.2948    5823.1525    5821.9835    5821.4437      -0.5398
    1327.0    5051.5805 1534897.0000    3897.0293     132.6714     132.9540      -0.1449    6336.0811    6335.9360     133.4145         34     213.8951      -0.1396    5823.0283    5822.8887    5821.7355    5821.1930      -0.5423
    1328.0    4963.3826 1534897.0000    3897.0293     132.6696     132.9502      -0.1462    6336.0823    6335.9361     133.4129         34     214.8951      -0.1367    5822.7443    5822.6078    5821.5035    5820.9595      -0.5439
    1329.0    4896.6071 1534897.0000    3897.0293     132.6669     132.9484      -0.1468    6336.0819    6335.9350     133.4113         34     215.8951      -0.1341    5822.5775    5822.4434    5821.2771    5820.7322      -0.5450
    1330.0    4883.7341 1534897.0000    3897.0293     132.6658     132.9460      -0.1467    6336.1765    6336.0300     133.4098         34     216.8951      -0.1314    5822.4035    5822.2721    5821.0433    5820.4974      -0.5457
    1331.0    4870.4682 1534897.0000    3897.0293     132.6622     132.9426      -0.1483    6336.2677    6336.1195     133.4080         34     217.8951      -0.1295    5822.0264    5821.8970    5820.8059    5820.2594      -0.5466
    1332.0    4900.3294 1534897.0000    3897.0293     132.6605     132.9398      -0.1514    6336.3343    6336.1828     133.4065         34     218.8951      -0.1292    5821.8916    5821.7622    5820.5862    5820.0390      -0.5473
    1333.0    4932.6440 1534897.0000    3897.0293     132.6571     132.9372      -0.1522    6336.2051    6336.0527     133.4047         34     219.8951      -0.1299    5821.5989    5821.4690    5820.3365    5819.7881      -0.5483
    1334.0    4915.4121 1534897.0000    3897.0293     132.6562     132.9345      -0.1489    6336.2032    6336.0543     133.4030         34     220.8951      -0.1296    5821.3280    5821.1983    5820.1035    5819.5536      -0.5498
    1335.0    4877.1950 1534897.0000    3897.0293     132.6519     132.9309      -0.1435    6336.1376    6335.9941     133.4015         34     221.8951      -0.1282    5821.1397    5821.0114    5819.8846    5819.3335      -0.5511
    1336.0    4924.9173 1534897.0000    3897.0293     132.6503     132.9281      -0.1386    6336.1677    6336.0290     133.3996         34     222.8951      -0.1271    5820.9023    5820.7753    5819.6460    5819.0937      -0.5522
    1337.0    4912.2024 1534897.0000    3897.0293     132.6484     132.9270      -0.1350    6336.1894    6336.0544     133.3979         34     223.8951      -0.1283    5820.6718    5820.5436    5819.4164    5818.8632      -0.5533
    1338.0    4938.6440 1534897.0000    3897.0293     132.6472     132.9245      -0.1336    6336.1700    6336.0363     133.3963         34     224.8951      -0.1315    5820.4796    5820.3482    5819.1962    5818.6416      -0.5547
    1339.0    5011.8197 1534897.0000    3897.0293     132.6435     132.9220      -0.1358    6336.1637    6336.0280     133.3945         34     225.8951      -0.1347    5820.0866    5819.9519    5818.9547    5818.3986      -0.5561
    1340.0    5028.9513 1534897.0000    3897.0293     132.6411     132.9197      -0.1404    6336.1063    6335.9658     133.3929         34     226.8951      -0.1367    5819.9803    5819.8436    5818.7301    5818.1733      -0.5568
    1341.0    5036.2659 1534897.0000    3897.0293     132.6406     132.9175      -0.1438    6336.0056    6335.8617     133.3913         34     227.8951      -0.1368    5819.7751    5819.6384    5818.5062    5817.9488      -0.5574
    1342.0    5037.0000 1534897.0000    3897.0293     132.6355     132.9143      -0.1439    6335.9015    6335.7575     133.3894         34     228.8951      -0.1354    5819.4667    5819.3314    5818.2706    5817.7125      -0.5581
    1343.0    5034.3146 1534897.0000    3897.0293     132.6346     132.9112      -0.1416    6336.0588    6335.9170     133.3878         34     229.8951      -0.1331    5819.2891    5819.1560    5818.0488    5817.4902      -0.5586
    1344.0    4930.1655 1534897.0000    3897.0293     132.6313     132.9073      -0.1385    6336.1070    6335.9685     133.3862         34     230.8951      -0.1311    5819.1749    5819.0439    5817.8395    5817.2809      -0.5588
    1345.0    4921.5805 1534897.0000    3897.0293     132.6284     132.9067      -0.1354    6336.0020    6335.8668     133.3840         34     231.8951      -0.1307    5818.7985    5818.6677    5817.6060    5817.0469      -0.5589
    1346.0    4905.8877 1534897.0000    3897.0293     132.6269     132.9042      -0.1335    6336.1754    6336.0418     133.3826         34     232.8951      -0.1312    5818.6941    5818.5628    5817.3868    5816.8273      -0.5594
    1347.0    4905.7903 1534897.0000    3897.0293     132.6253     132.9023      -0.1342    6336.3572    6336.2230     133.3807         34     233.8951      -0.1327    5818.4357    5818.3030    5817.1766    5816.6162      -0.5605
    1348.0    4891.6780 1534897.0000    3897.0293     132.6216     132.8999      -0.1374    6336.2927    6336.1555     133.3788         34     234.8951      -0.1351    5818.1031    5817.9678    5816.9422    5816.3802      -0.5621
    1349.0    4994.7296 1534897.0000    3897.0293     132.6182     132.8979      -0.1413    6336.2040    6336.0626     133.3775         34     235.8951      -0.1384    5817.9271    5817.7888    5816.7344    5816.1707      -0.5636
    1350.0    4989.9926 1534897.0000    3897.0293     132.6188     132.8938      -0.1435    6336.0444    6335.9010     133.3759         34     236.8951      -0.1404    5817.8220    5817.6816    5816.5138    5815.9486      -0.5650
    1351.0    5022.9099 1534897.0000    3897.0293     132.6144     132.8915      -0.1434    6336.0811    6335.9376     133.3742         34     237.8951      -0.1405    5817.5236    5817.3829    5816.2801    5815.7137      -0.5662
    1352.0    5009.0975 1534897.0000    3897.0293     132.6120     132.8889      -0.1406    6336.0275    6335.8867     133.3722         34     238.8951      -0.1390    5817.3106    5817.1716    5816.0756    5815.5082      -0.5672
    1353.0    4962.2437 1534897.0000    3897.0293     132.6082     132.8859      -0.1374    6336.0626    6335.9251     133.3706         34     239.8951      -0.1370    5816.9924    5816.8555    5815.8582    5815.2905      -0.5678
    1354.0    4897.0266 1534897.0000    3897.0293     132.6065     132.8854      -0.1356    6336.1967    6336.0609     133.3686         34     240.8951      -0.1355    5816.8466    5816.7113    5815.6451    5815.0772      -0.5679
    1355.0    4924.9099 1534897.0000    3897.0293     132.6032     132.8808      -0.1356    6336.1012    6335.9655     133.3672         34     241.8951      -0.1348    5816.6676    5816.5328    5815.4388    5814.8703      -0.5685
    1356.0    4891.4047 1534897.0000    3897.0293     132.6013     132.8795      -0.1365    6336.1963    6336.0597     133.3654         34     242.8951      -0.1353    5816.4945    5816.3592    5815.2278    5814.6584      -0.5694
    1357.0    4954.1344 1534897.0000    3897.0293     132.6005     132.8766      -0.1374    6336.2261    6336.0889     133.3636         34     243.8951      -0.1355    5816.1868    5816.0515    5815.0046    5814.4338      -0.5707
