~VERSION INFORMATION
VERS.           2.0   :CWLS Log ASCII Standard - VERSION 2.0
WRAP.           NO    :One Line per depth step
PROD.  Schlumberger   :LAS Producer
PROG.  DLIS to ASCII 2.2                               :LAS Program name and version
CREA.        2020/10/30 12:18                          :LAS Creation date {YYYY/MM/DD hh:mm}
SOURCE.     XPT_HRLA_TLD_MCFL_040LTP.DLIS              :DLIS File Name
FILE-ID.     XPT_HRLA_TLD_MCFL_040LTP                  :File Identification Number
#--------------------------------------------------
~WELL INFORMATION
#MNEM.UNIT      DATA             DESCRIPTION
#---- ------ --------------   -----------------------------
STRT .S          916.0       :START TIME      
STOP .S         1395.0       :STOP TIME      
STEP .S            1.0       :STEP     
NULL .          -999.25      :NULL VALUE
COMP .        Nexus Energy                             :COMPANY
WELL .        Crux-3                                   :WELL
FLD  .        Crux                                     :FIELD
LOC  .        Easting: 656981.7mE                      :LOCATION
CNTY .        Sedco-703                                :COUNTY
STAT .        Northern Territory                       :STATE
CTRY .        Australia                                :COUNTRY
API  .                                                 :API NUMBER
UWI  .                                                 :UNIQUE WELL ID
DATE .        31-Dec-2007                              :LOG DATE {DD-MMM-YYYY}
SRVC .        Schlumberger                             :SERVICE COMPANY
LATI .DEG     12*57'32.63" S                           :LATITUDE
LONG .DEG     124*26'50.07" E                          :LONGITUDE
GDAT .                                                 :GeoDetic Datum
#-----------------------------------------------------------------------------
~PARAMETER INFORMATION
#MNEM.UNIT    VALUE                      DESCRIPTION
#---- -----   --------------------       ------------------------
RUN  .          1                        :RUN NUMBER
PDAT .        LAT                        :Permanent Datum
EPD  .M           0.000000               :Elevation of Permanent Datum above Mean Sea Level
EPD  .M           0.000000               :Elevation of tool zero above Mean Sea Level
LMF  .          DF                       :Logging Measured From (Name of Logging Elevation Reference)
APD  .M          26.400000               :Elevation of Depth Reference (LMF) above Permanent Datum
#-----------------------------------------------------------------------------
~CURVE INFORMATION
#MNEM.UNIT   API CODE                                  DESCRIPTION
#---- -----  --------                                  -----------------------
TIME .S                                                :TIME {F10.1}
TENS_SL.LBF                                            :Cable Tension {F13.4}
DEPT_SL..1IN                                           :Station logging depth {F13.4}
PDEP_XPT.M                                             :XPT Probe Depth {F13.4}
MTEP_SAP.DEGC                                          :Sapphire Gauge Manometer Temperature {F13.4}
MTEP_HYD.DEGC                                          :Hydrostatic Sapphire Gauge Manometer Temperature {F13.4}
PCO_HYD.PSI                                            :Hydrostatic Sapphire Dynamic Compensation {F13.4}
PND_HYD.PSI                                            :Hydrostatic Sapphire Pressure Without Dynamic Compensation {F13.4}
CP_HYD.PSI                                             :Hydrostatic Sapphire Pressure With Dynamic Compensation {F13.4}
MTEP_QG.DEGC                                           :CQG Manometer Temperature {F13.4}
PTNO_XPT.                                              :XPT Pretest Number {I11}
ETIM_XPT.S                                             :Elapsed Logging Time {F13.4}
PCO_SAP.PSI                                            :Sapphire Dynamic Compensation {F13.4}
PND_SAP.PSI                                            :Sapphire Pressure Without Dynamic Compensation {F13.4}
CP_SAP.PSI                                             :Sapphire Pressure With Dynamic Compensation {F13.4}
QNDP .PSI                                              :CQG Pressure Without Dynamic Compensation {F13.4}
QCP  .PSI                                              :CQG Pressure With Dynamic Compensation {F13.4}
QPCO .PSI                                              :CQG Dynamic Compensation {F13.4}
#-----------------------------------------------------------------------------
# 
#     TIME      TENS_SL      DEPT_SL      PDEP_XPT     MTEP_SAP     MTEP_HYD     PCO_HYD      PND_HYD       CP_HYD      MTEP_QG       PTNO_XPT       ETIM_XPT     PCO_SAP      PND_SAP       CP_SAP        QNDP         QCP          QPCO
#
~A  
     916.0    4787.1916 1419488.2870    3603.8914     119.0850     119.6464       0.0000    5870.0751    5870.0751     119.6488          3       0.0000       0.0000    5868.3000    5868.3000    5865.7121    5865.7121      -0.0000
     917.0    4804.9063 1419728.0000    3604.5000     119.1060     119.6679       0.0000    5871.0796    5871.0796     119.6700          4       0.8453       0.0000    5869.3590    5869.3590    5866.6871    5866.6871       0.0000
     918.0    4792.7844 1419728.0000    3604.5000     119.1077     119.6673       0.0000    5871.0730    5871.0730     119.6703          4       1.8453       0.0000    5869.3747    5869.3747    5866.7280    5866.7280       0.0000
     919.0    4765.4859 1419728.0000    3604.5000     119.1073     119.6674       0.0000    5871.1338    5871.1338     119.6704          4       2.8453       0.0000    5869.3856    5869.3856    5866.7944    5866.7944       0.0000
     920.0    4733.1047 1419728.0000    3604.5000     119.1058     119.6669       0.0000    5871.1887    5871.1887     119.6702          4       3.8453       0.0000    5869.3760    5869.3760    5866.8465    5866.8465       0.0000
     921.0    4733.0719 1419728.0000    3604.5000     119.1060     119.6678       0.0000    5871.1979    5871.1979     119.6704          4       4.8453       0.0000    5869.4068    5869.4068    5866.8888    5866.8888       0.0000
     922.0    4740.7625 1419728.0000    3604.5000     119.1066     119.6681       0.0049    5871.3203    5871.3253     119.6709          4       5.8453       0.0071    5869.4427    5869.4498    5866.9240    5866.9535       0.0296
     923.0    4779.1938 1419728.0000    3604.5000     119.1092     119.6680       0.0125    5871.2837    5871.2961     119.6710          4       6.8453       0.0170    5869.5724    5869.5894    5866.9293    5866.9908       0.0613
     924.0    4777.5469 1419728.0000    3604.5000     119.1089     119.6688       0.0140    5871.3017    5871.3155     119.6712          4       7.8453       0.0165    5869.5524    5869.5688    5866.9595    5867.0205       0.0612
     925.0    4781.9172 1419728.0000    3604.5000     119.1069     119.6674       0.0155    5871.2543    5871.2697     119.6715          4       8.8453       0.0123    5869.4974    5869.5099    5866.9288    5866.9894       0.0607
     926.0    4782.1547 1419728.0000    3604.5000     119.1084     119.6695       0.0164    5871.2262    5871.2427     119.6716          4       9.8453       0.0079    5869.5215    5869.5295    5866.9499    5867.0105       0.0606
     927.0    4732.9719 1419728.0000    3604.5000     119.1094     119.6689       0.0162    5871.3281    5871.3442     119.6719          4      10.8453       0.0063    5869.6320    5869.6384    5866.9991    5867.0597       0.0603
     928.0    4736.6797 1419728.0000    3604.5000     119.1071     119.6696       0.0156    5871.3050    5871.3206     119.6721          4      11.8453       0.0059    5869.5930    5869.5989    5867.0162    5867.0763       0.0601
     929.0    4717.0219 1419728.0000    3604.5000     119.1077     119.6699       0.0143    5871.4092    5871.4235     119.6724          4      12.8453       0.0050    5869.7329    5869.7378    5867.0824    5867.1421       0.0596
     930.0    4691.8672 1419728.0000    3604.5000     119.1096     119.6697       0.0112    5871.4551    5871.4663     119.6727          4      13.8453       0.0060    5869.7992    5869.8051    5867.1016    5867.1611       0.0595
     931.0    4688.0000 1419728.0000    3604.5000     119.1075     119.6697       0.0086    5871.4397    5871.4485     119.6726          4      14.8453       0.0086    5869.6045    5869.6130    5867.0694    5867.1290       0.0595
     932.0    4699.8344 1419728.0000    3604.5000     119.1095     119.6710       0.0063    5871.4097    5871.4161     119.6729          4      15.8453       0.0114    5869.6726    5869.6842    5867.0411    5867.1007       0.0594
     933.0    4762.8625 1419728.0000    3604.5000     119.1081     119.6705       0.0061    5871.3488    5871.3548     119.6731          4      16.8453       0.0118    5869.5974    5869.6091    5866.9831    5867.0422       0.0592
     934.0    4776.5359 1419728.0000    3604.5000     119.1098     119.6711       0.0067    5871.3215    5871.3284     119.6732          4      17.8453       0.0117    5869.4873    5869.4990    5866.9326    5866.9922       0.0596
     935.0    4802.3594 1419728.0000    3604.5000     119.1091     119.6704       0.0062    5871.2300    5871.2364     119.6733          4      18.8453       0.0133    5869.3480    5869.3615    5866.8581    5866.9181       0.0600
     936.0    4812.0719 1419728.0000    3604.5000     119.1106     119.6704       0.0044    5871.0509    5871.0552     119.6735          4      19.8453       0.0149    5869.4283    5869.4430    5866.8288    5866.8889       0.0601
     937.0    4814.6906 1419728.0000    3604.5000     119.1091     119.6707       0.0039    5871.1970    5871.2009     119.6739          4      20.8453       0.0141    5869.5658    5869.5797    5866.9692    5867.0293       0.0602
     938.0    4791.3313 1419728.0000    3604.5000     119.1098     119.6712       0.0055    5871.3523    5871.3580     119.6740          4      21.8453       0.0119    5869.7345    5869.7463    5867.0802    5867.1407       0.0604
     939.0    4753.1875 1419728.0000    3604.5000     119.1108     119.6704       0.0083    5871.4033    5871.4118     119.6743          4      22.8453       0.0108    5869.8015    5869.8122    5867.1660    5867.2265       0.0608
     940.0    4704.7344 1419728.0000    3604.5000     119.1117     119.6717       0.0114    5871.5258    5871.5373     119.6744          4      23.8453       0.0109    5869.8132    5869.8239    5867.2181    5867.2784       0.0603
     941.0    4684.3203 1419728.0000    3604.5000     119.1118     119.6704       0.0139    5871.5815    5871.5955     119.6747          4      24.8453       0.0108    5869.9681    5869.9789    5867.3463    5867.4060       0.0596
     942.0    4669.3203 1419728.0000    3604.5000     119.1119     119.6720       0.0148    5871.6662    5871.6808     119.6752          4      25.8453       0.0100    5869.8771    5869.8873    5867.3372    5867.3962       0.0593
     943.0    4683.0609 1419728.0000    3604.5000     119.1110     119.6714       0.0136    5871.5714    5871.5851     119.6751          4      26.8453       0.0097    5869.8072    5869.8170    5867.2829    5867.3420       0.0592
     944.0    4743.4812 1419728.0000    3604.5000     119.1125     119.6731       0.0102    5871.6101    5871.6203     119.6751          4      27.8453       0.0103    5869.7950    5869.8052    5867.1502    5867.2088       0.0587
     945.0    4764.1438 1419728.0000    3604.5000     119.1111     119.6728       0.0062    5871.4696    5871.4756     119.6755          4      28.8453       0.0114    5869.6431    5869.6544    5867.0295    5867.0876       0.0579
     946.0    4780.3703 1419728.0000    3604.5000     119.1120     119.6725       0.0024    5871.3062    5871.3087     119.6757          4      29.8453       0.0121    5869.5362    5869.5484    5866.9487    5867.0068       0.0579
     947.0    4781.3094 1419728.0000    3604.5000     119.1119     119.6719      -0.0004    5871.2164    5871.2159     119.6759          4      30.8453       0.0122    5869.4011    5869.4133    5866.8574    5866.9160       0.0588
     948.0    4799.5969 1419728.0000    3604.5000     119.1125     119.6726      -0.0003    5871.3068    5871.3064     119.6760          4      31.8453       0.0117    5869.5059    5869.5176    5866.9353    5866.9944       0.0593
     949.0    4806.3813 1419728.0000    3604.5000     119.1127     119.6719       0.0023    5871.3268    5871.3292     119.6763          4      32.8453       0.0118    5869.4834    5869.4951    5866.9399    5866.9995       0.0598
     950.0    4746.9828 1419728.0000    3604.5000     119.1114     119.6722       0.0060    5871.3274    5871.3334     119.6765          4      33.8453       0.0134    5869.5233    5869.5367    5867.0202    5867.0803       0.0602
