~VERSION INFORMATION
VERS.           2.0   :CWLS Log ASCII Standard - VERSION 2.0
WRAP.           NO    :One Line per depth step
PROD.  Schlumberger   :LAS Producer
PROG.  DLIS to ASCII 2.2                               :LAS Program name and version
CREA.        2020/10/30 12:18                          :LAS Creation date {YYYY/MM/DD hh:mm}
SOURCE.     XPT_HRLA_TLD_MCFL_045LTP.DLIS              :DLIS File Name
FILE-ID.     XPT_HRLA_TLD_MCFL_045LTP                  :File Identification Number
#--------------------------------------------------
~WELL INFORMATION
#MNEM.UNIT      DATA             DESCRIPTION
#---- ------ --------------   -----------------------------
STRT .S         3688.0       :START TIME      
STOP .S         4251.0       :STOP TIME      
STEP .S            1.0       :STEP     
NULL .          -999.25      :NULL VALUE
COMP .        Nexus Energy                             :COMPANY
WELL .        Crux-3                                   :WELL
FLD  .        Crux                                     :FIELD
LOC  .        Easting: 656981.7mE                      :LOCATION
CNTY .        Sedco-703                                :COUNTY
STAT .        Northern Territory                       :STATE
CTRY .        Australia                                :COUNTRY
API  .                                                 :API NUMBER
UWI  .                                                 :UNIQUE WELL ID
DATE .        31-Dec-2007                              :LOG DATE {DD-MMM-YYYY}
SRVC .        Schlumberger                             :SERVICE COMPANY
LATI .DEG     12*57'32.63" S                           :LATITUDE
LONG .DEG     124*26'50.07" E                          :LONGITUDE
GDAT .                                                 :GeoDetic Datum
#-----------------------------------------------------------------------------
~PARAMETER INFORMATION
#MNEM.UNIT    VALUE                      DESCRIPTION
#---- -----   --------------------       ------------------------
RUN  .          1                        :RUN NUMBER
PDAT .        LAT                        :Permanent Datum
EPD  .M           0.000000               :Elevation of Permanent Datum above Mean Sea Level
EPD  .M           0.000000               :Elevation of tool zero above Mean Sea Level
LMF  .          DF                       :Logging Measured From (Name of Logging Elevation Reference)
APD  .M          26.400000               :Elevation of Depth Reference (LMF) above Permanent Datum
#-----------------------------------------------------------------------------
~CURVE INFORMATION
#MNEM.UNIT   API CODE                                  DESCRIPTION
#---- -----  --------                                  -----------------------
TIME .S                                                :TIME {F10.1}
TENS_SL.LBF                                            :Cable Tension {F13.4}
DEPT_SL..1IN                                           :Station logging depth {F13.4}
PDEP_XPT.M                                             :XPT Probe Depth {F13.4}
MTEP_SAP.DEGC                                          :Sapphire Gauge Manometer Temperature {F13.4}
MTEP_HYD.DEGC                                          :Hydrostatic Sapphire Gauge Manometer Temperature {F13.4}
PCO_HYD.PSI                                            :Hydrostatic Sapphire Dynamic Compensation {F13.4}
PND_HYD.PSI                                            :Hydrostatic Sapphire Pressure Without Dynamic Compensation {F13.4}
CP_HYD.PSI                                             :Hydrostatic Sapphire Pressure With Dynamic Compensation {F13.4}
MTEP_QG.DEGC                                           :CQG Manometer Temperature {F13.4}
PTNO_XPT.                                              :XPT Pretest Number {I11}
ETIM_XPT.S                                             :Elapsed Logging Time {F13.4}
PCO_SAP.PSI                                            :Sapphire Dynamic Compensation {F13.4}
PND_SAP.PSI                                            :Sapphire Pressure Without Dynamic Compensation {F13.4}
CP_SAP.PSI                                             :Sapphire Pressure With Dynamic Compensation {F13.4}
QNDP .PSI                                              :CQG Pressure Without Dynamic Compensation {F13.4}
QCP  .PSI                                              :CQG Pressure With Dynamic Compensation {F13.4}
QPCO .PSI                                              :CQG Dynamic Compensation {F13.4}
#-----------------------------------------------------------------------------
# 
#     TIME      TENS_SL      DEPT_SL      PDEP_XPT     MTEP_SAP     MTEP_HYD     PCO_HYD      PND_HYD       CP_HYD      MTEP_QG       PTNO_XPT       ETIM_XPT     PCO_SAP      PND_SAP       CP_SAP        QNDP         QCP          QPCO
#
~A  
# ...
    4213.0    4929.6675 1440603.0000    3657.5227     121.8426     122.3714       0.0024    5955.5127    5955.5151     122.5088          8     525.0725      -0.0635    5953.8043    5953.7408    5951.3746    5951.2928      -0.0820
    4214.0    4952.1600 1440603.0000    3657.5227     121.8410     122.3726       0.0021    5955.5851    5955.5872     122.5085          8     526.0725      -0.0560    5953.8536    5953.7976    5951.4104    5951.3114      -0.0989
    4215.0    4967.0000 1440603.0000    3657.5227     121.8382     122.3720      -0.0003    5955.5423    5955.5419     122.5081          8     527.0725      -0.0489    5953.6947    5953.6457    5951.3721    5951.2588      -0.1132
    4216.0    4965.7675 1440603.0000    3657.5227     121.8397     122.3711      -0.0039    5955.5097    5955.5057     122.5078          8     528.0725      -0.0427    5953.7025    5953.6599    5951.3156    5951.1904      -0.1251
    4217.0    4943.4025 1440603.0000    3657.5227     121.8391     122.3726      -0.0055    5955.5469    5955.5415     122.5073          8     529.0725      -0.0374    5953.7463    5953.7090    5951.3898    5951.2555      -0.1343
    4218.0    4858.2750 1440603.0000    3657.5227     121.8386     122.3716      -0.0039    5955.6097    5955.6057     122.5066          8     530.0725      -0.0325    5953.8357    5953.8034    5951.4887    5951.3477      -0.1411
    4219.0    4848.2750 1440603.0000    3657.5227     121.8384     122.3706      -0.0014    5955.6014    5955.6001     122.5062          8     531.0725      -0.0283    5953.8611    5953.8326    5951.4744    5951.3280      -0.1465
    4220.0    4838.5650 1440603.0000    3657.5227     121.8375     122.3708      -0.0000    5955.6731    5955.6731     122.5057          8     532.0725      -0.0247    5953.9014    5953.8766    5951.6040    5951.4530      -0.1510
    4221.0    4832.0575 1440603.0000    3657.5227     121.8374     122.3720       0.0011    5955.6983    5955.6993     122.5051          8     533.0725      -0.0223    5953.9711    5953.9486    5951.5909    5951.4363      -0.1546
    4222.0    4824.4225 1440603.0000    3657.5227     121.8369     122.3714       0.0021    5955.6323    5955.6344     122.5046          8     534.0725      -0.0218    5953.9219    5953.8999    5951.5431    5951.3863      -0.1567
    4223.0    4883.4650 1440603.0000    3657.5227     121.8370     122.3710       0.0021    5955.6060    5955.6081     122.5041          8     535.0725      -0.0219    5953.7943    5953.7723    5951.4788    5951.3211      -0.1578
    4224.0    4915.3625 1440603.0000    3657.5227     121.8374     122.3714       0.0008    5955.5723    5955.5728     122.5038          8     536.0725      -0.0218    5953.7978    5953.7758    5951.4018    5951.2436      -0.1583
    4225.0    4923.0450 1440603.0000    3657.5227     121.8358     122.3714       0.0002    5955.5723    5955.5724     122.5031          8     537.0725      -0.0209    5953.6789    5953.6580    5951.3002    5951.1420      -0.1582
    4226.0    4962.8700 1440603.0000    3657.5227     121.8352     122.3729       0.0020    5955.4092    5955.4112     122.5026          8     538.0725      -0.0198    5953.5522    5953.5324    5951.2506    5951.0929      -0.1577
    4227.0    4972.1875 1440603.0000    3657.5227     121.8340     122.3714       0.0050    5955.3927    5955.3975     122.5020          8     539.0725      -0.0172    5953.7130    5953.6958    5951.3740    5951.2172      -0.1567
    4228.0    4943.5625 1440603.0000    3657.5227     121.8339     122.3715       0.0076    5955.4757    5955.4831     122.5015          8     540.0725      -0.0132    5953.6754    5953.6621    5951.4021    5951.2470      -0.1552
    4229.0    4873.0575 1440603.0000    3657.5227     121.8342     122.3720       0.0083    5955.5365    5955.5448     122.5011          8     541.0725      -0.0098    5953.7424    5953.7328    5951.3974    5951.2444      -0.1532
    4230.0    4860.6375 1440603.0000    3657.5227     121.8337     122.3721       0.0072    5955.5795    5955.5869     122.5008          8     542.0725      -0.0087    5953.8164    5953.8076    5951.4613    5951.3103      -0.1511
    4231.0    4854.1150 1440603.0000    3657.5227     121.8349     122.3730       0.0047    5955.6706    5955.6753     122.5001          8     543.0725      -0.0094    5953.9472    5953.9378    5951.6116    5951.4623      -0.1491
    4232.0    4829.2750 1440603.0000    3657.5227     121.8338     122.3718       0.0019    5955.7815    5955.7834     122.4998          8     544.0725      -0.0102    5953.9091    5953.8988    5951.5417    5951.3948      -0.1469
    4233.0    4824.8575 1440603.0000    3657.5227     121.8331     122.3719       0.0000    5955.7157    5955.7157     122.4993          8     545.0725      -0.0111    5953.8374    5953.8262    5951.5152    5951.3706      -0.1446
    4234.0    4887.2900 1440603.0000    3657.5227     121.8329     122.3726       0.0001    5955.7037    5955.7039     122.4986          8     546.0725      -0.0118    5953.8087    5953.7970    5951.4722    5951.3294      -0.1427
    4235.0    4894.3350 1440603.0000    3657.5227     121.8335     122.3714       0.0023    5955.6149    5955.6172     122.4983          8     547.0725      -0.0121    5953.8931    5953.8809    5951.4202    5951.2788      -0.1412
    4236.0    4938.6675 1440603.0000    3657.5227     121.8330     122.3722       0.0051    5955.5806    5955.5858     122.4978          8     548.0725      -0.0123    5953.6888    5953.6766    5951.3320    5951.1923      -0.1398
    4237.0    4960.7975 1440603.0000    3657.5227     121.8327     122.3718       0.0071    5955.4569    5955.4639     122.4974          8     549.0725      -0.0137    5953.7031    5953.6893    5951.3493    5951.2113      -0.1380
    4238.0    4967.8825 1440603.0000    3657.5227     121.8327     122.3725       0.0068    5955.5494    5955.5559     122.4968          8     550.0725      -0.0151    5953.8432    5953.8281    5951.3927    5951.2570      -0.1358
    4239.0    4924.1575 1440603.0000    3657.5227     121.8334     122.3736       0.0041    5955.6170    5955.6210     122.4966          8     551.0725      -0.0148    5953.9221    5953.9074    5951.3958    5951.2624      -0.1335
    4240.0    4871.7375 1440603.0000    3657.5227     121.8322     122.3729      -0.0005    5955.5884    5955.5880     122.4960          8     552.0725      -0.0122    5953.8464    5953.8343    5951.4120    5951.2808      -0.1312
    4241.0    4831.2325 1440603.0000    3657.5227     121.8302     122.3720      -0.0050    5955.6046    5955.5997     122.4958          8     553.0725      -0.0097    5953.8278    5953.8181    5951.5109    5951.3815      -0.1293
    4242.0    4844.3175 1440603.0000    3657.5227     121.8310     122.3729      -0.0074    5955.7075    5955.7002     122.4953          8     554.0725      -0.0080    5953.8702    5953.8624    5951.4864    5951.3585      -0.1277
    4243.0    4814.7850 1440603.0000    3657.5227     121.8316     122.3722      -0.0069    5955.6401    5955.6334     122.4947          8     555.0725      -0.0064    5953.8259    5953.8196    5951.4582    5951.3318      -0.1265
    4244.0    4880.8575 1440603.0000    3657.5227     121.8332     122.3714      -0.0044    5955.6751    5955.6708     122.4944          8     556.0725      -0.0054    5953.9418    5953.9364    5951.5004    5951.3752      -0.1253
    4245.0    4945.5375 1440603.0000    3657.5227     121.8322     122.3722      -0.0008    5955.7272    5955.7261     122.4941          8     557.0725      -0.0058    5953.9271    5953.9213    5951.4971    5951.3735      -0.1237
    4246.0    4975.4625 1440603.0000    3657.5227     121.8296     122.3720       0.0004    5955.6608    5955.7427     122.4936          8     558.0725      -0.0063    5953.6727    5953.7744    5951.3809    5951.3486      -0.1231
    4247.0    4937.2000 1440603.0000    3657.5227     121.8302     122.3722       0.0004    5955.4950    5955.7427     122.4931          8     559.0725      -0.0063    5953.6831    5953.7744    5951.3242    5951.3486      -0.1231
