~VERSION INFORMATION
VERS.           2.0   :CWLS Log ASCII Standard - VERSION 2.0
WRAP.           NO    :One Line per depth step
PROD.  Schlumberger   :LAS Producer
PROG.  DLIS to ASCII 2.2                               :LAS Program name and version
CREA.        2020/10/30 12:18                          :LAS Creation date {YYYY/MM/DD hh:mm}
SOURCE.     XPT_HRLA_TLD_MCFL_046LTP.DLIS              :DLIS File Name
FILE-ID.     XPT_HRLA_TLD_MCFL_046LTP                  :File Identification Number
#--------------------------------------------------
~WELL INFORMATION
#MNEM.UNIT      DATA             DESCRIPTION
#---- ------ --------------   -----------------------------
STRT .S         4617.0       :START TIME      
STOP .S         5507.0       :STOP TIME      
STEP .S            1.0       :STEP     
NULL .          -999.25      :NULL VALUE
COMP .        Nexus Energy                             :COMPANY
WELL .        Crux-3                                   :WELL
FLD  .        Crux                                     :FIELD
LOC  .        Easting: 656981.7mE                      :LOCATION
CNTY .        Sedco-703                                :COUNTY
STAT .        Northern Territory                       :STATE
CTRY .        Australia                                :COUNTRY
API  .                                                 :API NUMBER
UWI  .                                                 :UNIQUE WELL ID
DATE .        31-Dec-2007                              :LOG DATE {DD-MMM-YYYY}
SRVC .        Schlumberger                             :SERVICE COMPANY
LATI .DEG     12*57'32.63" S                           :LATITUDE
LONG .DEG     124*26'50.07" E                          :LONGITUDE
GDAT .                                                 :GeoDetic Datum
#-----------------------------------------------------------------------------
~PARAMETER INFORMATION
#MNEM.UNIT    VALUE                      DESCRIPTION
#---- -----   --------------------       ------------------------
RUN  .          1                        :RUN NUMBER
PDAT .        LAT                        :Permanent Datum
EPD  .M           0.000000               :Elevation of Permanent Datum above Mean Sea Level
EPD  .M           0.000000               :Elevation of tool zero above Mean Sea Level
LMF  .          DF                       :Logging Measured From (Name of Logging Elevation Reference)
APD  .M          26.400000               :Elevation of Depth Reference (LMF) above Permanent Datum
#-----------------------------------------------------------------------------
~CURVE INFORMATION
#MNEM.UNIT   API CODE                                  DESCRIPTION
#---- -----  --------                                  -----------------------
TIME .S                                                :TIME {F10.1}
TENS_SL.LBF                                            :Cable Tension {F13.4}
DEPT_SL..1IN                                           :Station logging depth {F13.4}
PDEP_XPT.M                                             :XPT Probe Depth {F13.4}
MTEP_SAP.DEGC                                          :Sapphire Gauge Manometer Temperature {F13.4}
MTEP_HYD.DEGC                                          :Hydrostatic Sapphire Gauge Manometer Temperature {F13.4}
PCO_HYD.PSI                                            :Hydrostatic Sapphire Dynamic Compensation {F13.4}
PND_HYD.PSI                                            :Hydrostatic Sapphire Pressure Without Dynamic Compensation {F13.4}
CP_HYD.PSI                                             :Hydrostatic Sapphire Pressure With Dynamic Compensation {F13.4}
MTEP_QG.DEGC                                           :CQG Manometer Temperature {F13.4}
PTNO_XPT.                                              :XPT Pretest Number {I11}
ETIM_XPT.S                                             :Elapsed Logging Time {F13.4}
PCO_SAP.PSI                                            :Sapphire Dynamic Compensation {F13.4}
PND_SAP.PSI                                            :Sapphire Pressure Without Dynamic Compensation {F13.4}
CP_SAP.PSI                                             :Sapphire Pressure With Dynamic Compensation {F13.4}
QNDP .PSI                                              :CQG Pressure Without Dynamic Compensation {F13.4}
QCP  .PSI                                              :CQG Pressure With Dynamic Compensation {F13.4}
QPCO .PSI                                              :CQG Dynamic Compensation {F13.4}
#-----------------------------------------------------------------------------
# 
#     TIME      TENS_SL      DEPT_SL      PDEP_XPT     MTEP_SAP     MTEP_HYD     PCO_HYD      PND_HYD       CP_HYD      MTEP_QG       PTNO_XPT       ETIM_XPT     PCO_SAP      PND_SAP       CP_SAP        QNDP         QCP          QPCO
#
~A  
# ...
    4967.0    4739.7850 1443523.0000    3664.9392     121.8579     122.4114       0.0006    5967.5967    5967.5973     122.4663          9     349.6870       0.0064    5521.8619    5521.8684    5519.1493    5519.1791       0.0299
    4968.0    4798.2200 1443523.0000    3664.9392     121.8591     122.4118       0.0027    5967.6593    5967.6622     122.4667          9     350.6870       0.0050    5521.9894    5521.9943    5519.2502    5519.2809       0.0309
    4969.0    4814.2520 1443523.0000    3664.9392     121.8593     122.4120       0.0048    5967.6376    5967.6427     122.4666          9     351.6870       0.0039    5522.1376    5522.1415    5519.3452    5519.3769       0.0318
    4970.0    4820.5570 1443523.0000    3664.9392     121.8587     122.4121       0.0053    5967.5656    5967.5710     122.4667          9     352.6870       0.0036    5522.2017    5522.2051    5519.4307    5519.4625       0.0319
    4971.0    4827.4350 1443523.0000    3664.9392     121.8566     122.4119       0.0034    5967.3628    5967.3662     122.4669          9     353.6870       0.0038    5522.0943    5522.0982    5519.5218    5519.5531       0.0313
    4972.0    4813.1990 1443523.0000    3664.9392     121.8586     122.4129       0.0013    5967.5098    5967.5111     122.4670          9     354.6870       0.0044    5522.3388    5522.3433    5519.6151    5519.6458       0.0306
    4973.0    4744.8570 1443523.0000    3664.9392     121.8579     122.4124       0.0017    5967.5879    5967.5896     122.4670          9     355.6870       0.0062    5522.4152    5522.4213    5519.6977    5519.7277       0.0300
    4974.0    4738.2970 1443523.0000    3664.9392     121.8581     122.4111       0.0041    5967.5653    5967.5691     122.4671          9     356.6870       0.0078    5522.5140    5522.5218    5519.7904    5519.8197       0.0292
    4975.0    4725.3290 1443523.0000    3664.9392     121.8584     122.4116       0.0074    5967.5983    5967.6055     122.4671          9     357.6870       0.0083    5522.5207    5522.5290    5519.8786    5519.9069       0.0284
    4976.0    4706.0690 1443523.0000    3664.9392     121.8583     122.4124       0.0112    5967.7449    5967.7561     122.4673          9     358.6870       0.0064    5522.6053    5522.6118    5519.9605    5519.9891       0.0285
    4977.0    4702.0000 1443523.0000    3664.9392     121.8597     122.4127       0.0143    5967.6724    5967.6865     122.4671          9     359.6870       0.0025    5522.8277    5522.8303    5520.0470    5520.0763       0.0294
    4978.0    4747.3420 1443523.0000    3664.9392     121.8575     122.4138       0.0149    5967.5620    5967.5770     122.4675          9     360.6870      -0.0018    5522.7705    5522.7687    5520.1227    5520.1530       0.0302
    4979.0    4803.7240 1443523.0000    3664.9392     121.8591     122.4122       0.0125    5967.5674    5967.5799     122.4673          9     361.6870      -0.0045    5522.8760    5522.8713    5520.1989    5520.2292       0.0302
    4980.0    4821.3740 1443523.0000    3664.9392     121.8575     122.4142       0.0089    5967.6288    5967.6376     122.4676          9     362.6870      -0.0040    5522.9056    5522.9017    5520.2773    5520.3071       0.0299
    4981.0    4817.8780 1443523.0000    3664.9392     121.8576     122.4141       0.0056    5967.6250    5967.6305     122.4678          9     363.6870      -0.0020    5522.9726    5522.9708    5520.3534    5520.3832       0.0298
    4982.0    4814.6260 1443523.0000    3664.9392     121.8588     122.4136       0.0028    5967.5224    5967.5252     122.4679          9     364.6870       0.0000    5523.1568    5523.1566    5520.4309    5520.4604       0.0295
    4983.0    4809.8780 1443523.0000    3664.9392     121.8581     122.4142       0.0011    5967.5628    5967.5638     122.4677          9     365.6870       0.0012    5523.2611    5523.2626    5520.5093    5520.5381       0.0288
    4984.0    4791.5120 1443523.0000    3664.9392     121.8586     122.4134       0.0017    5967.5896    5967.5912     122.4681          9     366.6870       0.0022    5523.2684    5523.2705    5520.5837    5520.6118       0.0281
    4985.0    4740.7190 1443523.0000    3664.9392     121.8586     122.4137       0.0039    5967.5606    5967.5646     122.4680          9     367.6870       0.0031    5523.3924    5523.3956    5520.6504    5520.6787       0.0281
    4986.0    4738.8620 1443523.0000    3664.9392     121.8592     122.4134       0.0061    5967.5602    5967.5661     122.4682          9     368.6870       0.0030    5523.3897    5523.3927    5520.7257    5520.7540       0.0284
    4987.0    4716.0850 1443523.0000    3664.9392     121.8583     122.4146       0.0073    5967.6153    5967.6226     122.4684          9     369.6870       0.0016    5523.5363    5523.5378    5520.7975    5520.8262       0.0286
    4988.0    4719.1750 1443523.0000    3664.9392     121.8583     122.4134       0.0078    5967.7482    5967.7560     122.4682          9     370.6870       0.0008    5523.5238    5523.5247    5520.8609    5520.8895       0.0286
    4989.0    4706.3900 1443523.0000    3664.9392     121.8603     122.4149       0.0075    5967.6942    5967.7015     122.4686          9     371.6870       0.0020    5523.6048    5523.6068    5520.9167    5520.9455       0.0290
    4990.0    4719.6710 1443523.0000    3664.9392     121.8591     122.4141       0.0060    5967.6472    5967.6533     122.4686          9     372.6870       0.0046    5523.6404    5523.6449    5520.9803    5521.0101       0.0296
    4991.0    4780.1510 1443523.0000    3664.9392     121.8589     122.4142       0.0039    5967.6367    5967.6405     122.4685          9     373.6870       0.0064    5523.7676    5523.7739    5521.0407    5521.0705       0.0297
    4992.0    4813.9920 1443523.0000    3664.9392     121.8599     122.4149       0.0028    5967.6916    5967.6945     122.4690          9     374.6870       0.0067    5523.8719    5523.8787    5521.1020    5521.1313       0.0295
    4993.0    4835.4880 1443523.0000    3664.9392     121.8594     122.4148       0.0044    5967.5642    5967.5687     122.4688          9     375.6870       0.0056    5523.9458    5523.9514    5521.1677    5521.1938       0.0261
    4994.0    4841.6260 1443523.0000    3664.9392     121.8593     122.4142       0.0072    5967.4463    5967.4534     122.4691          9     376.6870      -0.0022    5523.9677    5523.9654    5521.2301    5521.2417       0.0116
    4995.0    4823.8250 1443523.0000    3664.9392     121.8598     122.4157       0.0091    5967.5788    5967.5880     122.4688          9     377.6870      -0.0251    5523.9393    5523.9143    5521.2887    5521.2625      -0.0260
    4996.0    4787.1460 1443523.0000    3664.9392     121.8591     122.4142       0.0090    5967.5770    5967.5862     122.4692          9     378.6870      -0.0668    5524.0419    5523.9750    5521.3442    5521.2518      -0.0923
    4997.0    4741.0240 1443523.0000    3664.9392     121.8593     122.4165       0.0074    5967.6494    5967.6569     122.4691          9     379.6870      -0.1203    5524.1057    5523.9855    5521.4057    5521.2254      -0.1804
    4998.0    4719.1300 1443523.0000    3664.9392     121.8599     122.4157       0.0054    5967.6404    5967.6457     122.4691          9     380.6870      -0.1741    5521.5819    5521.4078    5518.8736    5518.5937      -0.2800
    4999.0    4720.8090 1443523.0000    3664.9392     121.8533     122.4145       0.0035    5967.5203    5967.5237     122.4674         10     381.6870      -0.2200    5481.2374    5481.0172    5479.2514    5478.8690      -0.3824
    5000.0    4744.2970 1443523.0000    3664.9392     121.8456     122.4156       0.0034    5967.5770    5967.5804     122.4654         10     382.6870      -0.2520    5440.4182    5440.1663    5438.9849    5438.5058      -0.4790
    5001.0    4778.7320 1443523.0000    3664.9392     121.8384     122.4146       0.0044    5967.6325    5967.6368     122.4635         10     383.6870      -0.2617    5406.6512    5406.3894    5405.6809    5405.1237      -0.5574
