~VERSION INFORMATION
VERS.           2.0   :CWLS Log ASCII Standard - VERSION 2.0
WRAP.           NO    :One Line per depth step
PROD.  Schlumberger   :LAS Producer
PROG.  DLIS to ASCII 2.2                               :LAS Program name and version
CREA.        2020/10/30 12:18                          :LAS Creation date {YYYY/MM/DD hh:mm}
SOURCE.     XPT_HRLA_TLD_MCFL_039LTP.DLIS              :DLIS File Name
FILE-ID.     XPT_HRLA_TLD_MCFL_039LTP                  :File Identification Number
#--------------------------------------------------
~WELL INFORMATION
#MNEM.UNIT      DATA             DESCRIPTION
#---- ------ --------------   -----------------------------
STRT .S          109.0       :START TIME      
STOP .S          613.0       :STOP TIME      
STEP .S            1.0       :STEP     
NULL .          -999.25      :NULL VALUE
COMP .        Nexus Energy                             :COMPANY
WELL .        Crux-3                                   :WELL
FLD  .        Crux                                     :FIELD
LOC  .        Easting: 656981.7mE                      :LOCATION
CNTY .        Sedco-703                                :COUNTY
STAT .        Northern Territory                       :STATE
CTRY .        Australia                                :COUNTRY
API  .                                                 :API NUMBER
UWI  .                                                 :UNIQUE WELL ID
DATE .        31-Dec-2007                              :LOG DATE {DD-MMM-YYYY}
SRVC .        Schlumberger                             :SERVICE COMPANY
LATI .DEG     12*57'32.63" S                           :LATITUDE
LONG .DEG     124*26'50.07" E                          :LONGITUDE
GDAT .                                                 :GeoDetic Datum
#-----------------------------------------------------------------------------
~PARAMETER INFORMATION
#MNEM.UNIT    VALUE                      DESCRIPTION
#---- -----   --------------------       ------------------------
RUN  .          1                        :RUN NUMBER
PDAT .        LAT                        :Permanent Datum
EPD  .M           0.000000               :Elevation of Permanent Datum above Mean Sea Level
EPD  .M           0.000000               :Elevation of tool zero above Mean Sea Level
LMF  .          DF                       :Logging Measured From (Name of Logging Elevation Reference)
APD  .M          26.400000               :Elevation of Depth Reference (LMF) above Permanent Datum
#-----------------------------------------------------------------------------
~CURVE INFORMATION
#MNEM.UNIT   API CODE                                  DESCRIPTION
#---- -----  --------                                  -----------------------
TIME .S                                                :TIME {F10.1}
TENS_SL.LBF                                            :Cable Tension {F13.4}
DEPT_SL..1IN                                           :Station logging depth {F13.4}
PDEP_XPT.M                                             :XPT Probe Depth {F13.4}
MTEP_SAP.DEGC                                          :Sapphire Gauge Manometer Temperature {F13.4}
MTEP_HYD.DEGC                                          :Hydrostatic Sapphire Gauge Manometer Temperature {F13.4}
PCO_HYD.PSI                                            :Hydrostatic Sapphire Dynamic Compensation {F13.4}
PND_HYD.PSI                                            :Hydrostatic Sapphire Pressure Without Dynamic Compensation {F13.4}
CP_HYD.PSI                                             :Hydrostatic Sapphire Pressure With Dynamic Compensation {F13.4}
MTEP_QG.DEGC                                           :CQG Manometer Temperature {F13.4}
PTNO_XPT.                                              :XPT Pretest Number {I11}
ETIM_XPT.S                                             :Elapsed Logging Time {F13.4}
PCO_SAP.PSI                                            :Sapphire Dynamic Compensation {F13.4}
PND_SAP.PSI                                            :Sapphire Pressure Without Dynamic Compensation {F13.4}
CP_SAP.PSI                                             :Sapphire Pressure With Dynamic Compensation {F13.4}
QNDP .PSI                                              :CQG Pressure Without Dynamic Compensation {F13.4}
QCP  .PSI                                              :CQG Pressure With Dynamic Compensation {F13.4}
QPCO .PSI                                              :CQG Dynamic Compensation {F13.4}
#-----------------------------------------------------------------------------
# 
#     TIME      TENS_SL      DEPT_SL      PDEP_XPT     MTEP_SAP     MTEP_HYD     PCO_HYD      PND_HYD       CP_HYD      MTEP_QG       PTNO_XPT       ETIM_XPT     PCO_SAP      PND_SAP       CP_SAP        QNDP         QCP          QPCO
#
~A  
# ...
     319.0    4696.9563 1418545.0000    3601.4951     119.0075     119.5596       0.0126    5866.7006    5866.7132     119.5356          3     210.2610       0.0158    5505.1459    5505.1616    5502.3678    5502.4694       0.1018
     320.0    4715.3969 1418545.0000    3601.4951     119.0084     119.5596       0.0133    5866.6255    5866.6387     119.5356          3     211.2610       0.0137    5505.2126    5505.2262    5502.3680    5502.4695       0.1015
     321.0    4772.0859 1418545.0000    3601.4951     119.0081     119.5601       0.0125    5866.6619    5866.6744     119.5359          3     212.2610       0.0109    5505.1710    5505.1817    5502.3694    5502.4705       0.1009
     322.0    4758.3906 1418545.0000    3601.4951     119.0089     119.5603       0.0092    5866.6482    5866.6572     119.5363          3     213.2610       0.0080    5505.1951    5505.2030    5502.3683    5502.4684       0.1001
     323.0    4759.0891 1418545.0000    3601.4951     119.0081     119.5596       0.0047    5866.5068    5866.5114     119.5367          3     214.2610       0.0054    5505.1913    5505.1966    5502.3704    5502.4695       0.0992
     324.0    4791.1328 1418545.0000    3601.4951     119.0074     119.5610       0.0007    5866.6122    5866.6129     119.5368          3     215.2610       0.0034    5505.1787    5505.1821    5502.3692    5502.4676       0.0984
     325.0    4815.9563 1418545.0000    3601.4951     119.0084     119.5611      -0.0026    5866.6411    5866.6383     119.5375          3     216.2610       0.0023    5505.2615    5505.2640    5502.3734    5502.4706       0.0973
     326.0    4794.7344 1418545.0000    3601.4951     119.0086     119.5596      -0.0054    5866.6255    5866.6200     119.5375          3     217.2610       0.0023    5505.1842    5505.1867    5502.3694    5502.4661       0.0968
     327.0    4728.1266 1418545.0000    3601.4951     119.0077     119.5590      -0.0068    5866.6195    5866.6127     119.5378          3     218.2610       0.0031    5505.2043    5505.2075    5502.3738    5502.4705       0.0965
     328.0    4682.6078 1418545.0000    3601.4951     119.0079     119.5604      -0.0048    5866.5781    5866.5731     119.5383          3     219.2610       0.0054    5505.2073    5505.2126    5502.3733    5502.4695       0.0963
     329.0    4674.3047 1418545.0000    3601.4951     119.0086     119.5589      -0.0002    5866.6185    5866.6183     119.5385          3     220.2610       0.0086    5505.2004    5505.2089    5502.3741    5502.4697       0.0955
     330.0    4681.1313 1418545.0000    3601.4951     119.0080     119.5596       0.0047    5866.6851    5866.6898     119.5388          3     221.2610       0.0113    5505.1773    5505.1886    5502.3766    5502.4711       0.0943
     331.0    4691.5656 1418545.0000    3601.4951     119.0085     119.5589       0.0083    5866.6778    5866.6859     119.5391          3     222.2610       0.0126    5505.2465    5505.2591    5502.3851    5502.4788       0.0936
     332.0    4700.9578 1418545.0000    3601.4951     119.0099     119.5602       0.0104    5866.7030    5866.7133     119.5393          3     223.2610       0.0135    5505.2219    5505.2356    5502.3772    5502.4705       0.0934
     333.0    4720.4797 1418545.0000    3601.4951     119.0098     119.5604       0.0114    5866.6338    5866.6453     119.5396          3     224.2610       0.0135    5505.1536    5505.1673    5502.3792    5502.4725       0.0933
     334.0    4750.8734 1418545.0000    3601.4951     119.0096     119.5604       0.0107    5866.6929    5866.7037     119.5401          3     225.2610       0.0118    5505.1944    5505.2063    5502.3810    5502.4737       0.0929
     335.0    4786.4766 1418545.0000    3601.4951     119.0097     119.5605       0.0084    5866.6354    5866.6440     119.5404          3     226.2610       0.0089    5505.1545    5505.1635    5502.3800    5502.4727       0.0926
     336.0    4780.2641 1418545.0000    3601.4951     119.0115     119.5609       0.0055    5866.6235    5866.6291     119.5407          3     227.2610       0.0064    5505.2399    5505.2462    5502.3820    5502.4748       0.0927
     337.0    4805.6062 1418545.0000    3601.4951     119.0088     119.5612       0.0035    5866.5571    5866.5606     119.5411          3     228.2610       0.0052    5505.0690    5505.0744    5502.3830    5502.4758       0.0927
     338.0    4773.7813 1418545.0000    3601.4951     119.0106     119.5611       0.0031    5866.4750    5866.4780     119.5413          3     229.2610       0.0048    5505.2132    5505.2181    5502.3814    5502.4735       0.0920
     339.0    4764.4797 1418545.0000    3601.4951     119.0108     119.5613       0.0038    5866.6117    5866.6154     119.5416          3     230.2610       0.0047    5505.2493    5505.2539    5502.3826    5502.4734       0.0908
     340.0    4771.1281 1418545.0000    3601.4951     119.0092     119.5604       0.0050    5866.5742    5866.5791     119.5419          3     231.2610       0.0045    5505.1540    5505.1584    5502.3866    5502.4760       0.0896
     341.0    4741.5641 1418545.0000    3601.4951     119.0088     119.5615       0.0069    5866.6774    5866.6843     119.5421          3     232.2610       0.0047    5505.1240    5505.1289    5502.3849    5502.4737       0.0889
     342.0    4719.6062 1418545.0000    3601.4951     119.0103     119.5607       0.0098    5866.6965    5866.7063     119.5424          3     233.2610       0.0061    5505.1637    5505.1699    5502.3859    5502.4748       0.0887
     343.0    4692.4781 1418545.0000    3601.4951     119.0116     119.5623       0.0127    5866.7052    5866.7178     119.5429          3     234.2610       0.0080    5505.2184    5505.2267    5502.3915    5502.4799       0.0884
     344.0    4689.6953 1418545.0000    3601.4951     119.0105     119.5615       0.0144    5866.7915    5866.8057     119.5430          3     235.2610       0.0093    5505.2359    5505.2452    5502.3886    5502.4765       0.0880
     345.0    4684.9563 1418545.0000    3601.4951     119.0106     119.5620       0.0151    5866.7145    5866.7296     119.5432          3     236.2610       0.0093    5505.1478    5505.1571    5502.3883    5502.4757       0.0875
     346.0    4686.6969 1418545.0000    3601.4951     119.0120     119.5621       0.0147    5866.7265    5866.7412     119.5437          3     237.2610       0.0090    5505.2366    5505.2458    5502.3835    5502.4704       0.0870
     347.0    4719.8313 1418545.0000    3601.4951     119.0122     119.5626       0.0119    5866.6413    5866.6532     119.5439          3     238.2610       0.0089    5505.1628    5505.1716    5502.3853    5502.4717       0.0866
     348.0    4777.5656 1418545.0000    3601.4951     119.0118     119.5626       0.0061    5866.6523    5866.6586     119.5442          3     239.2610       0.0082    5505.3093    5505.3173    5502.3908    5502.4767       0.0860
     349.0    4785.6531 1418545.0000    3601.4951     119.0095     119.5640       0.0001    5866.6631    5866.6633     119.5445          3     240.2610       0.0069    5505.1230    5505.1299    5502.3863    5502.4722       0.0858
     350.0    4801.2188 1418545.0000    3601.4951     119.0114     119.5639      -0.0033    5866.4915    5866.4881     119.5447          3     241.2610       0.0062    5505.2278    5505.2342    5502.3902    5502.4756       0.0853
     351.0    4811.5641 1418545.0000    3601.4951     119.0121     119.5632      -0.0035    5866.5167    5866.5133     119.5449          3     242.2610       0.0032    5505.2001    5505.2034    5502.3903    5502.4680       0.0778
     352.0    4800.8266 1418545.0000    3601.4951     119.0124     119.5611      -0.0016    5866.4137    5866.4121     119.5453          3     243.2610      -0.0130    5505.1796    5505.1665    5502.3926    5502.4407       0.0482
     353.0    4782.5156 1418545.0000    3601.4951     119.0135     119.5627       0.0027    5866.5986    5866.6014     119.5456          3     244.2610      -0.0515    5505.2575    5505.2061    5502.3933    5502.3793      -0.0139
