~VERSION INFORMATION
VERS.           2.0   :CWLS Log ASCII Standard - VERSION 2.0
WRAP.           NO    :One Line per depth step
PROD.  Schlumberger   :LAS Producer
PROG.  DLIS to ASCII 2.2                               :LAS Program name and version
CREA.        2020/10/30 12:18                          :LAS Creation date {YYYY/MM/DD hh:mm}
SOURCE.     XPT_HRLA_TLD_MCFL_060LTP.DLIS              :DLIS File Name
FILE-ID.     XPT_HRLA_TLD_MCFL_060LTP                  :File Identification Number
#--------------------------------------------------
~WELL INFORMATION
#MNEM.UNIT      DATA             DESCRIPTION
#---- ------ --------------   -----------------------------
STRT .S         8759.0       :START TIME      
STOP .S         8943.0       :STOP TIME      
STEP .S            1.0       :STEP     
NULL .          -999.25      :NULL VALUE
COMP .        Nexus Energy                             :COMPANY
WELL .        Crux-3                                   :WELL
FLD  .        Crux                                     :FIELD
LOC  .        Easting: 656981.7mE                      :LOCATION
CNTY .        Sedco-703                                :COUNTY
STAT .        Northern Territory                       :STATE
CTRY .        Australia                                :COUNTRY
API  .                                                 :API NUMBER
UWI  .                                                 :UNIQUE WELL ID
DATE .        31-Dec-2007                              :LOG DATE {DD-MMM-YYYY}
SRVC .        Schlumberger                             :SERVICE COMPANY
LATI .DEG     12*57'32.63" S                           :LATITUDE
LONG .DEG     124*26'50.07" E                          :LONGITUDE
GDAT .                                                 :GeoDetic Datum
#-----------------------------------------------------------------------------
~PARAMETER INFORMATION
#MNEM.UNIT    VALUE                      DESCRIPTION
#---- -----   --------------------       ------------------------
RUN  .          1                        :RUN NUMBER
PDAT .        LAT                        :Permanent Datum
EPD  .M           0.000000               :Elevation of Permanent Datum above Mean Sea Level
EPD  .M           0.000000               :Elevation of tool zero above Mean Sea Level
LMF  .          DF                       :Logging Measured From (Name of Logging Elevation Reference)
APD  .M          26.400000               :Elevation of Depth Reference (LMF) above Permanent Datum
#-----------------------------------------------------------------------------
~CURVE INFORMATION
#MNEM.UNIT   API CODE                                  DESCRIPTION
#---- -----  --------                                  -----------------------
TIME .S                                                :TIME {F10.1}
TENS_SL.LBF                                            :Cable Tension {F13.4}
DEPT_SL..1IN                                           :Station logging depth {F13.4}
PDEP_XPT.M                                             :XPT Probe Depth {F13.4}
MTEP_SAP.DEGC                                          :Sapphire Gauge Manometer Temperature {F13.4}
MTEP_HYD.DEGC                                          :Hydrostatic Sapphire Gauge Manometer Temperature {F13.4}
PCO_HYD.PSI                                            :Hydrostatic Sapphire Dynamic Compensation {F13.4}
PND_HYD.PSI                                            :Hydrostatic Sapphire Pressure Without Dynamic Compensation {F13.4}
CP_HYD.PSI                                             :Hydrostatic Sapphire Pressure With Dynamic Compensation {F13.4}
MTEP_QG.DEGC                                           :CQG Manometer Temperature {F13.4}
PTNO_XPT.                                              :XPT Pretest Number {I11}
ETIM_XPT.S                                             :Elapsed Logging Time {F13.4}
PCO_SAP.PSI                                            :Sapphire Dynamic Compensation {F13.4}
PND_SAP.PSI                                            :Sapphire Pressure Without Dynamic Compensation {F13.4}
CP_SAP.PSI                                             :Sapphire Pressure With Dynamic Compensation {F13.4}
QNDP .PSI                                              :CQG Pressure Without Dynamic Compensation {F13.4}
QCP  .PSI                                              :CQG Pressure With Dynamic Compensation {F13.4}
QPCO .PSI                                              :CQG Dynamic Compensation {F13.4}
#-----------------------------------------------------------------------------
# 
#     TIME      TENS_SL      DEPT_SL      PDEP_XPT     MTEP_SAP     MTEP_HYD     PCO_HYD      PND_HYD       CP_HYD      MTEP_QG       PTNO_XPT       ETIM_XPT     PCO_SAP      PND_SAP       CP_SAP        QNDP         QCP          QPCO
#
~A  
# ...
    8794.0    5070.1340 1538425.0000    3905.9902     129.0294     129.5856       0.0230    6350.4229    6350.4458     129.6258         24      35.0020       0.0230    6348.0256    6348.0484    6345.6003    6345.6677       0.0673
    8795.0    5136.9620 1538425.0000    3905.9902     129.0304     129.5871       0.0257    6350.4387    6350.4646     129.6261         24      36.0020       0.0249    6347.9895    6348.0144    6345.5502    6345.6171       0.0671
    8796.0    5118.0080 1538425.0000    3905.9902     129.0301     129.5859       0.0244    6350.4051    6350.4293     129.6264         24      37.0020       0.0264    6347.9163    6347.9427    6345.4907    6345.5581       0.0672
    8797.0    5122.0000 1538425.0000    3905.9902     129.0316     129.5871       0.0224    6350.3690    6350.3915     129.6265         24      38.0020       0.0260    6347.8909    6347.9169    6345.4343    6345.5017       0.0674
    8798.0    5121.9880 1538425.0000    3905.9902     129.0319     129.5886       0.0232    6350.2744    6350.2973     129.6265         24      39.0020       0.0239    6347.8845    6347.9084    6345.4315    6345.4993       0.0677
    8799.0    5115.9340 1538425.0000    3905.9902     129.0319     129.5874       0.0250    6350.3315    6350.3565     129.6269         24      40.0020       0.0211    6347.9432    6347.9643    6345.4926    6345.5605       0.0678
    8800.0    5082.8660 1538425.0000    3905.9902     129.0310     129.5888       0.0247    6350.4335    6350.4580     129.6271         24      41.0020       0.0187    6347.9124    6347.9311    6345.5562    6345.6242       0.0681
    8801.0    5016.0260 1538425.0000    3905.9902     129.0323     129.5894       0.0222    6350.4638    6350.4858     129.6269         24      42.0020       0.0178    6347.9787    6347.9967    6345.5932    6345.6615       0.0685
    8802.0    5028.9120 1538425.0000    3905.9902     129.0320     129.5895       0.0194    6350.4254    6350.4448     129.6276         24      43.0020       0.0183    6347.9961    6348.0143    6345.6187    6345.6875       0.0689
    8803.0    4985.0780 1538425.0000    3905.9902     129.0324     129.5906       0.0175    6350.6307    6350.6485     129.6277         24      44.0020       0.0189    6348.1024    6348.1213    6345.6910    6345.7599       0.0686
    8804.0    5023.9380 1538425.0000    3905.9902     129.0326     129.5909       0.0159    6350.5400    6350.5561     129.6282         24      45.0020       0.0196    6348.1615    6348.1810    6345.6517    6345.7200       0.0685
    8805.0    4993.0200 1538425.0000    3905.9902     129.0341     129.5892       0.0145    6350.5022    6350.5167     129.6282         24      46.0020       0.0206    6348.1756    6348.1962    6345.6840    6345.7524       0.0683
    8806.0    5003.0520 1538425.0000    3905.9902     129.0344     129.5909       0.0140    6350.5074    6350.5216     129.6284         24      47.0020       0.0209    6348.0456    6348.0666    6345.6269    6345.6953       0.0683
    8807.0    5029.0660 1538425.0000    3905.9902     129.0315     129.5902       0.0149    6350.4722    6350.4868     129.6286         24      48.0020       0.0191    6347.9722    6347.9912    6345.5982    6345.6665       0.0684
    8808.0    5062.0660 1538425.0000    3905.9902     129.0336     129.5907       0.0171    6350.4776    6350.4946     129.6289         24      49.0020       0.0165    6348.0112    6348.0277    6345.5808    6345.6492       0.0683
    8809.0    5095.0780 1538425.0000    3905.9902     129.0347     129.5925       0.0211    6350.4635    6350.4846     129.6291         24      50.0020       0.0160    6347.9280    6347.9441    6345.5581    6345.6273       0.0691
    8810.0    5133.9960 1538425.0000    3905.9902     129.0349     129.5913       0.0254    6350.4243    6350.4497     129.6294         24      51.0020       0.0170    6348.0341    6348.0512    6345.5639    6345.6337       0.0699
    8811.0    5131.9980 1538425.0000    3905.9902     129.0345     129.5913       0.0276    6350.3571    6350.3846     129.6293         24      52.0020       0.0176    6347.9498    6347.9674    6345.5043    6345.5746       0.0703
    8812.0    5130.9600 1538425.0000    3905.9902     129.0350     129.5922       0.0276    6350.3125    6350.3400     129.6298         24      53.0020       0.0174    6347.8742    6347.8918    6345.4783    6345.5486       0.0703
    8813.0    5110.8740 1538425.0000    3905.9902     129.0382     129.5936       0.0271    6350.4182    6350.4451     129.6302         24      54.0020       0.0186    6348.0076    6348.0262    6345.5298    6345.6001       0.0705
    8814.0    5047.9260 1538425.0000    3905.9902     129.0360     129.5948       0.0265    6350.4354    6350.4621     129.6302         24      55.0020       0.0207    6347.9583    6347.9790    6345.5302    6345.6010       0.0708
    8815.0    5011.0020 1538425.0000    3905.9902     129.0367     129.5940       0.0236    6350.4528    6350.4766     129.6305         24      56.0020       0.0230    6347.9224    6347.9455    6345.5222    6345.5930       0.0709
    8816.0    5012.0600 1538425.0000    3905.9902     129.0356     129.5947       0.0190    6350.4009    6350.4199     129.6305         24      57.0020       0.0246    6347.9208    6347.9452    6345.5855    6345.6563       0.0708
    8817.0    5042.1100 1538425.0000    3905.9902     129.0392     129.5944       0.0160    6350.4574    6350.4733     129.6309         24      58.0020       0.0254    6348.0704    6348.0958    6345.6119    6345.6827       0.0708
    8818.0    5097.0700 1538425.0000    3905.9902     129.0388     129.5957       0.0168    6350.4719    6350.4887     129.6310         24      59.0020       0.0250    6348.0738    6348.0989    6345.5863    6345.6575       0.0710
    8819.0    5132.0120 1538425.0000    3905.9902     129.0408     129.5947       0.0198    6350.4009    6350.4209     129.6314         24      60.0020       0.0228    6348.0626    6348.0856    6345.5612    6345.6325       0.0714
    8820.0    5137.9740 1538425.0000    3905.9902     129.0401     129.5955       0.0223    6350.4425    6350.4646     129.6316         24      61.0020       0.0199    6347.9458    6347.9658    6345.5496    6345.6212       0.0716
    8821.0    5124.8740 1538425.0000    3905.9902     129.0399     129.5963       0.0227    6350.3668    6350.3894     129.6315         24      62.0020       0.0176    6347.9645    6347.9822    6345.5173    6345.5886       0.0713
    8822.0    5061.9180 1538425.0000    3905.9902     129.0383     129.5955       0.0212    6350.4089    6350.4299     129.6318         24      63.0020       0.0161    6347.9169    6347.9331    6345.5358    6345.6071       0.0712
    8823.0    5021.0220 1538425.0000    3905.9902     129.0397     129.5983       0.0190    6350.4892    6350.5080     129.6321         24      64.0020       0.0157    6348.0356    6348.0514    6345.5661    6345.6380       0.0719
    8824.0    5031.9180 1538425.0000    3905.9902     129.0400     129.5994       0.0172    6350.6033    6350.6205     129.6323         24      65.0020       0.0166    6348.0744    6348.0910    6345.6049    6345.6776       0.0729
    8825.0    4991.0060 1538425.0000    3905.9902     129.0405     129.5970       0.0166    6350.4251    6350.4417     129.6322         24      66.0020       0.0177    6347.9098    6347.9274    6345.6004    6345.6736       0.0732
    8826.0    4994.1120 1538425.0000    3905.9902     129.0422     129.5976       0.0172    6350.4721    6350.4893     129.6327         24      67.0020       0.0180    6348.0806    6348.0987    6345.6017    6345.6746       0.0730
    8827.0    5050.1500 1538425.0000    3905.9902     129.0406     129.5989       0.0194    6350.4865    6350.5059     129.6330         24      68.0020       0.0175    6348.0520    6348.0695    6345.6265    6345.6992       0.0729
    8828.0    5124.9580 1538425.0000    3905.9902     129.0409     129.5985       0.0237    6350.5016    6350.5256     129.6335         24      69.0020       0.0176    6348.0928    6348.1103    6345.6048    6345.6781       0.0731
