~VERSION INFORMATION
VERS.           2.0   :CWLS Log ASCII Standard - VERSION 2.0
WRAP.           NO    :One Line per depth step
PROD.  Schlumberger   :LAS Producer
PROG.  DLIS to ASCII 2.2                               :LAS Program name and version
CREA.        2020/10/30 12:18                          :LAS Creation date {YYYY/MM/DD hh:mm}
SOURCE.     XPT_HRLA_TLD_MCFL_037LTP.DLIS              :DLIS File Name
FILE-ID.     XPT_HRLA_TLD_MCFL_037LTP                  :File Identification Number
#--------------------------------------------------
~WELL INFORMATION
#MNEM.UNIT      DATA             DESCRIPTION
#---- ------ --------------   -----------------------------
STRT .S        35745.0       :START TIME      
STOP .S        36558.0       :STOP TIME      
STEP .S            1.0       :STEP     
NULL .          -999.25      :NULL VALUE
COMP .        Nexus Energy                             :COMPANY
WELL .        Crux-3                                   :WELL
FLD  .        Crux                                     :FIELD
LOC  .        Easting: 656981.7mE                      :LOCATION
CNTY .        Sedco-703                                :COUNTY
STAT .        Northern Territory                       :STATE
CTRY .        Australia                                :COUNTRY
API  .                                                 :API NUMBER
UWI  .                                                 :UNIQUE WELL ID
DATE .        31-Dec-2007                              :LOG DATE {DD-MMM-YYYY}
SRVC .        Schlumberger                             :SERVICE COMPANY
LATI .DEG     12*57'32.63" S                           :LATITUDE
LONG .DEG     124*26'50.07" E                          :LONGITUDE
GDAT .                                                 :GeoDetic Datum
#-----------------------------------------------------------------------------
~PARAMETER INFORMATION
#MNEM.UNIT    VALUE                      DESCRIPTION
#---- -----   --------------------       ------------------------
RUN  .          1                        :RUN NUMBER
PDAT .        LAT                        :Permanent Datum
EPD  .M           0.000000               :Elevation of Permanent Datum above Mean Sea Level
EPD  .M           0.000000               :Elevation of tool zero above Mean Sea Level
LMF  .          DF                       :Logging Measured From (Name of Logging Elevation Reference)
APD  .M          26.400000               :Elevation of Depth Reference (LMF) above Permanent Datum
#-----------------------------------------------------------------------------
~CURVE INFORMATION
#MNEM.UNIT   API CODE                                  DESCRIPTION
#---- -----  --------                                  -----------------------
TIME .S                                                :TIME {F10.1}
TENS_SL.LBF                                            :Cable Tension {F13.4}
DEPT_SL..1IN                                           :Station logging depth {F13.4}
PDEP_XPT.M                                             :XPT Probe Depth {F13.4}
MTEP_SAP.DEGC                                          :Sapphire Gauge Manometer Temperature {F13.4}
MTEP_HYD.DEGC                                          :Hydrostatic Sapphire Gauge Manometer Temperature {F13.4}
PCO_HYD.PSI                                            :Hydrostatic Sapphire Dynamic Compensation {F13.4}
PND_HYD.PSI                                            :Hydrostatic Sapphire Pressure Without Dynamic Compensation {F13.4}
CP_HYD.PSI                                             :Hydrostatic Sapphire Pressure With Dynamic Compensation {F13.4}
MTEP_QG.DEGC                                           :CQG Manometer Temperature {F13.4}
PTNO_XPT.                                              :XPT Pretest Number {I11}
ETIM_XPT.S                                             :Elapsed Logging Time {F13.4}
PCO_SAP.PSI                                            :Sapphire Dynamic Compensation {F13.4}
PND_SAP.PSI                                            :Sapphire Pressure Without Dynamic Compensation {F13.4}
CP_SAP.PSI                                             :Sapphire Pressure With Dynamic Compensation {F13.4}
QNDP .PSI                                              :CQG Pressure Without Dynamic Compensation {F13.4}
QCP  .PSI                                              :CQG Pressure With Dynamic Compensation {F13.4}
QPCO .PSI                                              :CQG Dynamic Compensation {F13.4}
#-----------------------------------------------------------------------------
# 
#     TIME      TENS_SL      DEPT_SL      PDEP_XPT     MTEP_SAP     MTEP_HYD     PCO_HYD      PND_HYD       CP_HYD      MTEP_QG       PTNO_XPT       ETIM_XPT     PCO_SAP      PND_SAP       CP_SAP        QNDP         QCP          QPCO
#
~A  
# ...
   36305.0    4718.4160 1417595.0000    3599.0823     118.7421     119.2960       0.0067    5862.6699    5862.6766     119.0792          2     559.7480       0.0068    5504.4651    5504.4720    5501.4229    5501.5792       0.1561
   36306.0    4743.9600 1417595.0000    3599.0823     118.7414     119.2959       0.0093    5862.3880    5862.3973     119.0796          2     560.7480       0.0062    5504.3053    5504.3115    5501.4266    5501.5824       0.1557
   36307.0    4742.2680 1417595.0000    3599.0823     118.7422     119.2965       0.0111    5862.4483    5862.4595     119.0802          2     561.7480       0.0060    5504.3976    5504.4034    5501.4299    5501.5855       0.1555
   36308.0    4710.8280 1417595.0000    3599.0823     118.7439     119.2962       0.0112    5862.5160    5862.5273     119.0809          2     562.7480       0.0056    5504.4715    5504.4769    5501.4351    5501.5904       0.1555
   36309.0    4620.9640 1417595.0000    3599.0823     118.7437     119.2966       0.0106    5862.5687    5862.5794     119.0816          2     563.7480       0.0053    5504.4304    5504.4357    5501.4329    5501.5881       0.1555
   36310.0    4605.9680 1417595.0000    3599.0823     118.7437     119.2975       0.0105    5862.6514    5862.6617     119.0818          2     564.7480       0.0049    5504.4705    5504.4754    5501.4370    5501.5922       0.1551
   36311.0    4603.2680 1417595.0000    3599.0823     118.7417     119.2975       0.0108    5862.6694    5862.6802     119.0822          2     565.7480       0.0046    5504.4090    5504.4138    5501.4388    5501.5932       0.1543
   36312.0    4586.0400 1417595.0000    3599.0823     118.7440     119.2964       0.0108    5862.8439    5862.8546     119.0827          2     566.7480       0.0050    5504.4698    5504.4748    5501.4401    5501.5934       0.1535
   36313.0    4576.5120 1417595.0000    3599.0823     118.7437     119.2982       0.0111    5862.7334    5862.7443     119.0834          2     567.7480       0.0060    5504.5007    5504.5065    5501.4416    5501.5947       0.1530
   36314.0    4643.8160 1417595.0000    3599.0823     118.7439     119.2982       0.0127    5862.7202    5862.7329     119.0838          2     568.7480       0.0062    5504.4442    5504.4506    5501.4413    5501.5945       0.1531
   36315.0    4675.2280 1417595.0000    3599.0823     118.7429     119.2962       0.0151    5862.5330    5862.5483     119.0841          2     569.7480       0.0045    5504.4488    5504.4531    5501.4429    5501.5957       0.1527
   36316.0    4695.2040 1417595.0000    3599.0823     118.7435     119.2986       0.0165    5862.6190    5862.6356     119.0848          2     570.7480       0.0026    5504.4393    5504.4419    5501.4433    5501.5954       0.1520
   36317.0    4725.6840 1417595.0000    3599.0823     118.7441     119.2986       0.0162    5862.5244    5862.5406     119.0852          2     571.7480       0.0026    5504.4782    5504.4806    5501.4471    5501.5981       0.1510
   36318.0    4723.5280 1417595.0000    3599.0823     118.7429     119.2979       0.0144    5862.5221    5862.5366     119.0858          2     572.7480       0.0040    5504.4630    5504.4670    5501.4453    5501.5956       0.1505
   36319.0    4698.3080 1417595.0000    3599.0823     118.7433     119.3001       0.0114    5862.5753    5862.5865     119.0862          2     573.7480       0.0050    5504.4376    5504.4425    5501.4492    5501.5991       0.1498
   36320.0    4649.1120 1417595.0000    3599.0823     118.7440     119.2995       0.0080    5862.6037    5862.6117     119.0868          2     574.7480       0.0049    5504.4489    5504.4537    5501.4536    5501.6026       0.1489
   36321.0    4609.5680 1417595.0000    3599.0823     118.7434     119.2990       0.0051    5862.5837    5862.5890     119.0872          2     575.7480       0.0057    5504.5081    5504.5136    5501.4497    5501.5981       0.1485
   36322.0    4600.2520 1417595.0000    3599.0823     118.7442     119.2992       0.0043    5862.6743    5862.6787     119.0878          2     576.7480       0.0069    5504.4747    5504.4818    5501.4558    5501.6050       0.1491
   36323.0    4611.2200 1417595.0000    3599.0823     118.7452     119.2991       0.0053    5862.7029    5862.7082     119.0882          2     577.7480       0.0065    5504.5132    5504.5196    5501.4551    5501.6050       0.1499
   36324.0    4631.4560 1417595.0000    3599.0823     118.7430     119.2992       0.0067    5862.6544    5862.6612     119.0885          2     578.7480       0.0040    5504.5043    5504.5081    5501.4576    5501.6075       0.1499
   36325.0    4631.0160 1417595.0000    3599.0823     118.7451     119.2987       0.0075    5862.6103    5862.6177     119.0893          2     579.7480       0.0037    5504.4189    5504.4225    5501.4554    5501.6048       0.1493
   36326.0    4610.3000 1417595.0000    3599.0823     118.7459     119.3010       0.0080    5862.6731    5862.6809     119.0896          2     580.7480       0.0079    5504.4619    5504.4698    5501.4588    5501.6077       0.1490
   36327.0    4587.5440 1417595.0000    3599.0823     118.7433     119.2997       0.0082    5862.6006    5862.6089     119.0902          2     581.7480       0.0130    5504.3927    5504.4055    5501.4580    5501.6064       0.1485
   36328.0    4583.4960 1417595.0000    3599.0823     118.7445     119.2997       0.0073    5862.6997    5862.7068     119.0908          2     582.7480       0.0152    5504.3846    5504.3997    5501.4636    5501.6113       0.1475
   36329.0    4570.5360 1417595.0000    3599.0823     118.7458     119.3005       0.0056    5862.6191    5862.6246     119.0912          2     583.7480       0.0149    5504.4850    5504.5001    5501.4623    5501.6084       0.1463
   36330.0    4589.1880 1417595.0000    3599.0823     118.7487     119.3004       0.0047    5862.6721    5862.6770     119.0918          2     584.7480       0.0144    5504.5856    5504.6002    5501.4646    5501.6105       0.1458
   36331.0    4667.3120 1417595.0000    3599.0823     118.7453     119.3004       0.0050    5862.6769    5862.6820     119.0922          2     585.7480       0.0123    5504.4009    5504.4131    5501.4641    5501.6101       0.1461
   36332.0    4692.4960 1417595.0000    3599.0823     118.7459     119.3005       0.0058    5862.7224    5862.7282     119.0928          2     586.7480       0.0075    5504.3973    5504.4049    5501.4662    5501.6127       0.1463
   36333.0    4714.6920 1417595.0000    3599.0823     118.7459     119.2999       0.0064    5862.4379    5862.4443     119.0933          2     587.7480       0.0020    5504.4608    5504.4630    5501.4679    5501.6139       0.1460
   36334.0    4730.2280 1417595.0000    3599.0823     118.7474     119.3011       0.0076    5862.5856    5862.5932     119.0937          2     588.7480      -0.0009    5504.4434    5504.4427    5501.4675    5501.6130       0.1455
   36335.0    4703.8280 1417595.0000    3599.0823     118.7465     119.3005       0.0099    5862.5442    5862.5542     119.0940          2     589.7480      -0.0003    5504.4620    5504.4619    5501.4669    5501.6124       0.1454
   36336.0    4632.6640 1417595.0000    3599.0823     118.7463     119.3013       0.0123    5862.6119    5862.6242     119.0947          2     590.7480       0.0021    5504.5196    5504.5217    5501.4683    5501.6138       0.1453
   36337.0    4618.7320 1417595.0000    3599.0823     118.7469     119.3007       0.0136    5862.6111    5862.6247     119.0951          2     591.7480       0.0052    5504.4951    5504.5002    5501.4677    5501.6130       0.1453
   36338.0    4623.2440 1417595.0000    3599.0823     118.7445     119.3005       0.0138    5862.6089    5862.6226     119.0955          2     592.7480       0.0084    5504.4088    5504.4174    5501.4729    5501.6179       0.1450
   36339.0    4628.4880 1417595.0000    3599.0823     118.7478     119.3027       0.0137    5862.7783    5862.7920     119.0961          2     593.7480       0.0127    5504.4784    5504.4912    5501.4665    5501.6112       0.1448
