~VERSION INFORMATION
VERS.           2.0   :CWLS Log ASCII Standard - VERSION 2.0
WRAP.           NO    :One Line per depth step
PROD.  Schlumberger   :LAS Producer
PROG.  DLIS to ASCII 2.2                               :LAS Program name and version
CREA.        2020/10/30 12:18                          :LAS Creation date {YYYY/MM/DD hh:mm}
SOURCE.     XPT_HRLA_TLD_MCFL_051LTP.DLIS              :DLIS File Name
FILE-ID.     XPT_HRLA_TLD_MCFL_051LTP                  :File Identification Number
#--------------------------------------------------
~WELL INFORMATION
#MNEM.UNIT      DATA             DESCRIPTION
#---- ------ --------------   -----------------------------
STRT .S         3209.0       :START TIME      
STOP .S         3664.0       :STOP TIME      
STEP .S            1.0       :STEP     
NULL .          -999.25      :NULL VALUE
COMP .        Nexus Energy                             :COMPANY
WELL .        Crux-3                                   :WELL
FLD  .        Crux                                     :FIELD
LOC  .        Easting: 656981.7mE                      :LOCATION
CNTY .        Sedco-703                                :COUNTY
STAT .        Northern Territory                       :STATE
CTRY .        Australia                                :COUNTRY
API  .                                                 :API NUMBER
UWI  .                                                 :UNIQUE WELL ID
DATE .        31-Dec-2007                              :LOG DATE {DD-MMM-YYYY}
SRVC .        Schlumberger                             :SERVICE COMPANY
LATI .DEG     12*57'32.63" S                           :LATITUDE
LONG .DEG     124*26'50.07" E                          :LONGITUDE
GDAT .                                                 :GeoDetic Datum
#-----------------------------------------------------------------------------
~PARAMETER INFORMATION
#MNEM.UNIT    VALUE                      DESCRIPTION
#---- -----   --------------------       ------------------------
RUN  .          1                        :RUN NUMBER
PDAT .        LAT                        :Permanent Datum
EPD  .M           0.000000               :Elevation of Permanent Datum above Mean Sea Level
EPD  .M           0.000000               :Elevation of tool zero above Mean Sea Level
LMF  .          DF                       :Logging Measured From (Name of Logging Elevation Reference)
APD  .M          26.400000               :Elevation of Depth Reference (LMF) above Permanent Datum
#-----------------------------------------------------------------------------
~CURVE INFORMATION
#MNEM.UNIT   API CODE                                  DESCRIPTION
#---- -----  --------                                  -----------------------
TIME .S                                                :TIME {F10.1}
TENS_SL.LBF                                            :Cable Tension {F13.4}
DEPT_SL..1IN                                           :Station logging depth {F13.4}
PDEP_XPT.M                                             :XPT Probe Depth {F13.4}
MTEP_SAP.DEGC                                          :Sapphire Gauge Manometer Temperature {F13.4}
MTEP_HYD.DEGC                                          :Hydrostatic Sapphire Gauge Manometer Temperature {F13.4}
PCO_HYD.PSI                                            :Hydrostatic Sapphire Dynamic Compensation {F13.4}
PND_HYD.PSI                                            :Hydrostatic Sapphire Pressure Without Dynamic Compensation {F13.4}
CP_HYD.PSI                                             :Hydrostatic Sapphire Pressure With Dynamic Compensation {F13.4}
MTEP_QG.DEGC                                           :CQG Manometer Temperature {F13.4}
PTNO_XPT.                                              :XPT Pretest Number {I11}
ETIM_XPT.S                                             :Elapsed Logging Time {F13.4}
PCO_SAP.PSI                                            :Sapphire Dynamic Compensation {F13.4}
PND_SAP.PSI                                            :Sapphire Pressure Without Dynamic Compensation {F13.4}
CP_SAP.PSI                                             :Sapphire Pressure With Dynamic Compensation {F13.4}
QNDP .PSI                                              :CQG Pressure Without Dynamic Compensation {F13.4}
QCP  .PSI                                              :CQG Pressure With Dynamic Compensation {F13.4}
QPCO .PSI                                              :CQG Dynamic Compensation {F13.4}
#-----------------------------------------------------------------------------
# 
#     TIME      TENS_SL      DEPT_SL      PDEP_XPT     MTEP_SAP     MTEP_HYD     PCO_HYD      PND_HYD       CP_HYD      MTEP_QG       PTNO_XPT       ETIM_XPT     PCO_SAP      PND_SAP       CP_SAP        QNDP         QCP          QPCO
#
~A  
# ...
    3419.0    4893.8720 1496497.0000    3799.4934     125.1342     125.7840       0.0258    6181.4354    6181.4613     125.4186         16     210.0840      -0.2893    5350.0806    5349.7914    5349.7922    5349.4602      -0.3320
    3420.0    4947.8400 1496497.0000    3799.4934     125.1264     125.7863       0.0261    6181.5030    6181.5292     125.4178         16     211.0840      -0.1463    5328.9501    5328.8037    5328.4713    5328.2551      -0.2163
    3421.0    4954.3960 1496497.0000    3799.4934     125.1272     125.7868       0.0273    6181.6853    6181.7126     125.4172         16     212.0840       0.0669    5330.0947    5330.1614    5329.0613    5329.0675       0.0061
    3422.0    4931.2080 1496497.0000    3799.4934     125.1287     125.7870       0.0283    6181.6521    6181.6804     125.4167         16     213.0840       0.2848    5332.5104    5332.7953    5331.1003    5331.3599       0.2595
    3423.0    4992.1160 1496497.0000    3799.4934     125.1390     125.7881       0.0279    6181.5461    6181.5740     125.4183         16     214.0840       0.4374    5381.7778    5382.2151    5378.8712    5379.3383       0.4670
    3424.0    5034.0600 1496497.0000    3799.4934     125.1648     125.7880       0.0270    6181.4995    6181.5264     125.4242         16     215.0840       0.4967    5515.9881    5516.4848    5511.4100    5512.0132       0.6031
    3425.0    5005.3600 1496497.0000    3799.4934     125.1786     125.7888       0.0272    6181.4694    6181.4967     125.4258         16     216.0840       0.4682    5546.1948    5546.6632    5541.1513    5541.8220       0.6707
    3426.0    5043.2600 1496497.0000    3799.4934     125.1836     125.7893       0.0283    6181.4869    6181.5152     125.4276         16     217.0840       0.3755    5556.5356    5556.9111    5551.5751    5552.2553       0.6802
    3427.0    5057.1680 1496497.0000    3799.4934     125.1845     125.7898       0.0287    6181.3567    6181.3855     125.4291         16     218.0840       0.2505    5560.6396    5560.8901    5555.9490    5556.6038       0.6548
    3428.0    5055.7240 1496497.0000    3799.4934     125.1862     125.7906       0.0276    6181.4282    6181.4559     125.4310         16     219.0840       0.1369    5562.9280    5563.0648    5558.5026    5559.1335       0.6310
    3429.0    5013.5320 1496497.0000    3799.4934     125.1880     125.7910       0.0259    6181.4082    6181.4343     125.4330         16     220.0840       0.0627    5564.5485    5564.6111    5560.2605    5560.8893       0.6287
    3430.0    4943.4200 1496497.0000    3799.4934     125.1876     125.7899       0.0250    6181.4249    6181.4498     125.4352         16     221.0840       0.0255    5565.5591    5565.5845    5561.5327    5562.1698       0.6371
    3431.0    4943.9680 1496497.0000    3799.4934     125.1863     125.7928       0.0261    6181.5127    6181.5387     125.4374         16     222.0840       0.0090    5566.4515    5566.4605    5562.5650    5563.2037       0.6387
    3432.0    4902.4360 1496497.0000    3799.4934     125.1878     125.7913       0.0283    6181.4966    6181.5250     125.4395         16     223.0840       0.0018    5567.1726    5567.1744    5563.4097    5564.0396       0.6298
    3433.0    4931.8560 1496497.0000    3799.4934     125.1880     125.7921       0.0300    6181.5651    6181.5949     125.4416         16     224.0840       0.0001    5567.9204    5567.9204    5564.1225    5564.7361       0.6138
    3434.0    4961.8240 1496497.0000    3799.4934     125.1869     125.7924       0.0307    6181.6199    6181.6507     125.4433         16     225.0840       0.0004    5568.3843    5568.3848    5564.7754    5565.3695       0.5941
    3435.0    4951.9400 1496497.0000    3799.4934     125.1877     125.7941       0.0304    6181.5861    6181.6164     125.4454         16     226.0840       0.0002    5568.9598    5568.9600    5565.3915    5565.9648       0.5731
    3436.0    4987.1920 1496497.0000    3799.4934     125.1865     125.7944       0.0291    6181.5302    6181.5590     125.4473         16     227.0840      -0.0005    5569.3919    5569.3914    5565.8857    5566.4373       0.5517
    3437.0    5023.0080 1496497.0000    3799.4934     125.1875     125.7964       0.0262    6181.5341    6181.5602     125.4487         16     228.0840       0.0001    5569.7411    5569.7412    5566.3032    5566.8338       0.5306
    3438.0    5035.2600 1496497.0000    3799.4934     125.1869     125.7951       0.0224    6181.4585    6181.4810     125.4504         16     229.0840       0.0020    5570.1711    5570.1732    5566.7233    5567.2343       0.5109
    3439.0    5048.5800 1496497.0000    3799.4934     125.1861     125.7951       0.0193    6181.4163    6181.4354     125.4518         16     230.0840       0.0042    5570.4683    5570.4727    5567.0804    5567.5728       0.4923
    3440.0    5042.3200 1496497.0000    3799.4934     125.1868     125.7957       0.0188    6181.3461    6181.3648     125.4536         16     231.0840       0.0070    5570.6956    5570.7027    5567.4038    5567.8785       0.4746
    3441.0    5025.5960 1496497.0000    3799.4934     125.1891     125.7961       0.0213    6181.4463    6181.4674     125.4553         16     232.0840       0.0107    5571.1196    5571.1304    5567.7179    5568.1767       0.4586
    3442.0    5040.8160 1496497.0000    3799.4934     125.1883     125.7976       0.0253    6181.4220    6181.4473     125.4567         16     233.0840       0.0146    5571.3039    5571.3185    5567.9926    5568.4371       0.4446
    3443.0    5010.2800 1496497.0000    3799.4934     125.1877     125.7963       0.0290    6181.4130    6181.4421     125.4578         16     234.0840       0.0167    5571.5507    5571.5674    5568.2482    5568.6803       0.4323
    3444.0    4937.7560 1496497.0000    3799.4934     125.1889     125.7972       0.0315    6181.4627    6181.4943     125.4592         16     235.0840       0.0173    5571.7855    5571.8025    5568.4903    5568.9111       0.4208
    3445.0    4944.6560 1496497.0000    3799.4934     125.1899     125.7986       0.0331    6181.4857    6181.5189     125.4607         16     236.0840       0.0170    5572.0038    5572.0209    5568.6897    5569.1005       0.4106
    3446.0    4929.9160 1496497.0000    3799.4934     125.1895     125.7995       0.0333    6181.5236    6181.5568     125.4619         16     237.0840       0.0163    5572.1914    5572.2076    5568.9113    5569.3135       0.4021
    3447.0    4926.1440 1496497.0000    3799.4934     125.1893     125.7994       0.0320    6181.5363    6181.5682     125.4631         16     238.0840       0.0155    5572.3966    5572.4123    5569.1079    5569.5027       0.3947
    3448.0    4898.0240 1496497.0000    3799.4934     125.1896     125.8008       0.0308    6181.5660    6181.5968     125.4641         16     239.0840       0.0152    5572.4596    5572.4747    5569.2794    5569.6672       0.3879
    3449.0    4938.2240 1496497.0000    3799.4934     125.1907     125.8012       0.0304    6181.5803    6181.6105     125.4657         16     240.0840       0.0155    5572.6492    5572.6648    5569.4606    5569.8425       0.3821
    3450.0    5017.8400 1496497.0000    3799.4934     125.1887     125.8014       0.0298    6181.4995    6181.5293     125.4668         16     241.0840       0.0148    5572.7710    5572.7859    5569.6193    5569.9969       0.3775
    3451.0    5028.3440 1496497.0000    3799.4934     125.1900     125.8008       0.0289    6181.4491    6181.4780     125.4681         16     242.0840       0.0140    5572.8224    5572.8365    5569.7509    5570.1245       0.3737
    3452.0    5045.3520 1496497.0000    3799.4934     125.1911     125.8024       0.0288    6181.4570    6181.4858     125.4692         16     243.0840       0.0147    5573.0347    5573.0495    5569.8874    5570.2578       0.3702
    3453.0    5067.7240 1496497.0000    3799.4934     125.1922     125.8035       0.0295    6181.4463    6181.4759     125.4706         16     244.0840       0.0176    5573.2342    5573.2519    5570.0175    5570.3841       0.3666
