~VERSION INFORMATION
VERS.           2.0   :CWLS Log ASCII Standard - VERSION 2.0
WRAP.           NO    :One Line per depth step
PROD.  Schlumberger   :LAS Producer
PROG.  DLIS to ASCII 2.2                               :LAS Program name and version
CREA.        2020/10/30 12:18                          :LAS Creation date {YYYY/MM/DD hh:mm}
SOURCE.     XPT_HRLA_TLD_MCFL_040LTP.DLIS              :DLIS File Name
FILE-ID.     XPT_HRLA_TLD_MCFL_040LTP                  :File Identification Number
#--------------------------------------------------
~WELL INFORMATION
#MNEM.UNIT      DATA             DESCRIPTION
#---- ------ --------------   -----------------------------
STRT .S          916.0       :START TIME      
STOP .S         1395.0       :STOP TIME      
STEP .S            1.0       :STEP     
NULL .          -999.25      :NULL VALUE
COMP .        Nexus Energy                             :COMPANY
WELL .        Crux-3                                   :WELL
FLD  .        Crux                                     :FIELD
LOC  .        Easting: 656981.7mE                      :LOCATION
CNTY .        Sedco-703                                :COUNTY
STAT .        Northern Territory                       :STATE
CTRY .        Australia                                :COUNTRY
API  .                                                 :API NUMBER
UWI  .                                                 :UNIQUE WELL ID
DATE .        31-Dec-2007                              :LOG DATE {DD-MMM-YYYY}
SRVC .        Schlumberger                             :SERVICE COMPANY
LATI .DEG     12*57'32.63" S                           :LATITUDE
LONG .DEG     124*26'50.07" E                          :LONGITUDE
GDAT .                                                 :GeoDetic Datum
#-----------------------------------------------------------------------------
~PARAMETER INFORMATION
#MNEM.UNIT    VALUE                      DESCRIPTION
#---- -----   --------------------       ------------------------
RUN  .          1                        :RUN NUMBER
PDAT .        LAT                        :Permanent Datum
EPD  .M           0.000000               :Elevation of Permanent Datum above Mean Sea Level
EPD  .M           0.000000               :Elevation of tool zero above Mean Sea Level
LMF  .          DF                       :Logging Measured From (Name of Logging Elevation Reference)
APD  .M          26.400000               :Elevation of Depth Reference (LMF) above Permanent Datum
#-----------------------------------------------------------------------------
~CURVE INFORMATION
#MNEM.UNIT   API CODE                                  DESCRIPTION
#---- -----  --------                                  -----------------------
TIME .S                                                :TIME {F10.1}
TENS_SL.LBF                                            :Cable Tension {F13.4}
DEPT_SL..1IN                                           :Station logging depth {F13.4}
PDEP_XPT.M                                             :XPT Probe Depth {F13.4}
MTEP_SAP.DEGC                                          :Sapphire Gauge Manometer Temperature {F13.4}
MTEP_HYD.DEGC                                          :Hydrostatic Sapphire Gauge Manometer Temperature {F13.4}
PCO_HYD.PSI                                            :Hydrostatic Sapphire Dynamic Compensation {F13.4}
PND_HYD.PSI                                            :Hydrostatic Sapphire Pressure Without Dynamic Compensation {F13.4}
CP_HYD.PSI                                             :Hydrostatic Sapphire Pressure With Dynamic Compensation {F13.4}
MTEP_QG.DEGC                                           :CQG Manometer Temperature {F13.4}
PTNO_XPT.                                              :XPT Pretest Number {I11}
ETIM_XPT.S                                             :Elapsed Logging Time {F13.4}
PCO_SAP.PSI                                            :Sapphire Dynamic Compensation {F13.4}
PND_SAP.PSI                                            :Sapphire Pressure Without Dynamic Compensation {F13.4}
CP_SAP.PSI                                             :Sapphire Pressure With Dynamic Compensation {F13.4}
QNDP .PSI                                              :CQG Pressure Without Dynamic Compensation {F13.4}
QCP  .PSI                                              :CQG Pressure With Dynamic Compensation {F13.4}
QPCO .PSI                                              :CQG Dynamic Compensation {F13.4}
#-----------------------------------------------------------------------------
# 
#     TIME      TENS_SL      DEPT_SL      PDEP_XPT     MTEP_SAP     MTEP_HYD     PCO_HYD      PND_HYD       CP_HYD      MTEP_QG       PTNO_XPT       ETIM_XPT     PCO_SAP      PND_SAP       CP_SAP        QNDP         QCP          QPCO
#
~A  
# ...
    1301.0    4647.4643 1419728.0000    3604.5000     119.1580     119.7212       0.0142    5871.6914    5871.7057     119.7273          6     384.8453       0.0108    5506.4382    5506.4489    5503.4794    5503.5361       0.0567
    1302.0    4641.0832 1419728.0000    3604.5000     119.1551     119.7218       0.0118    5871.6806    5871.6926     119.7275          6     385.8453       0.0106    5506.1740    5506.1847    5503.4783    5503.5350       0.0568
    1303.0    4737.2037 1419728.0000    3604.5000     119.1568     119.7207       0.0077    5871.6075    5871.6151     119.7275          6     386.8453       0.0074    5506.0942    5506.1016    5503.4794    5503.5363       0.0569
    1304.0    4741.4760 1419728.0000    3604.5000     119.1609     119.7206       0.0031    5871.4828    5871.4859     119.7276          6     387.8453       0.0051    5506.4824    5506.4875    5503.4704    5503.5270       0.0567
    1305.0    4732.2380 1419728.0000    3604.5000     119.1589     119.7219       0.0009    5871.5030    5871.5040     119.7279          6     388.8453       0.0033    5506.4225    5506.4258    5503.4762    5503.5324       0.0563
    1306.0    4760.5837 1419728.0000    3604.5000     119.1576     119.7209       0.0020    5871.3319    5871.3338     119.7281          6     389.8453       0.0002    5506.0993    5506.0994    5503.4785    5503.5346       0.0560
    1307.0    4773.6073 1419728.0000    3604.5000     119.1575     119.7213       0.0041    5871.4198    5871.4241     119.7286          6     390.8453      -0.0026    5506.2312    5506.2289    5503.4831    5503.5392       0.0560
    1308.0    4734.4280 1419728.0000    3604.5000     119.1590     119.7210       0.0060    5871.4605    5871.4664     119.7285          6     391.8453      -0.0017    5506.4150    5506.4132    5503.4798    5503.5355       0.0558
    1309.0    4696.5710 1419728.0000    3604.5000     119.1577     119.7208       0.0081    5871.5380    5871.5463     119.7287          6     392.8453       0.0021    5506.1283    5506.1305    5503.4848    5503.5405       0.0557
    1310.0    4665.6425 1419728.0000    3604.5000     119.1573     119.7219       0.0120    5871.6645    5871.6765     119.7289          6     393.8453       0.0055    5506.0924    5506.0981    5503.4816    5503.5373       0.0559
    1311.0    4645.7855 1419728.0000    3604.5000     119.1578     119.7219       0.0162    5871.6997    5871.7160     119.7291          6     394.8453       0.0065    5506.3680    5506.3743    5503.4882    5503.5449       0.0565
    1312.0    4632.8570 1419728.0000    3604.5000     119.1582     119.7220       0.0183    5871.6713    5871.6897     119.7294          6     395.8453       0.0057    5506.1826    5506.1882    5503.4817    5503.5388       0.0571
    1313.0    4646.2145 1419728.0000    3604.5000     119.1578     119.7215       0.0178    5871.6460    5871.6637     119.7296          6     396.8453       0.0045    5506.0643    5506.0688    5503.4821    5503.5392       0.0572
    1314.0    4703.9412 1419728.0000    3604.5000     119.1607     119.7227       0.0167    5871.5884    5871.6050     119.7297          6     397.8453       0.0033    5506.4330    5506.4363    5503.4856    5503.5427       0.0569
    1315.0    4741.8933 1419728.0000    3604.5000     119.1574     119.7234       0.0164    5871.5385    5871.5551     119.7297          6     398.8453       0.0021    5506.2884    5506.2903    5503.4821    5503.5388       0.0565
    1316.0    4771.5122 1419728.0000    3604.5000     119.1569     119.7231       0.0149    5871.3983    5871.4131     119.7300          6     399.8453       0.0015    5506.0082    5506.0097    5503.4790    5503.5352       0.0561
    1317.0    4770.9285 1419728.0000    3604.5000     119.1607     119.7227       0.0111    5871.4097    5871.4208     119.7302          6     400.8453       0.0027    5506.3000    5506.3026    5503.4891    5503.5447       0.0556
    1318.0    4781.8335 1419728.0000    3604.5000     119.1591     119.7246       0.0076    5871.5480    5871.5556     119.7303          6     401.8453       0.0057    5506.3094    5506.3152    5503.4825    5503.5377       0.0552
    1319.0    4707.9275 1419728.0000    3604.5000     119.1573     119.7242       0.0071    5871.6040    5871.6112     119.7306          6     402.8453       0.0094    5506.0607    5506.0702    5503.4881    5503.5433       0.0554
    1320.0    4688.0832 1419728.0000    3604.5000     119.1603     119.7246       0.0094    5871.7357    5871.7451     119.7308          6     403.8453       0.0226    5506.3490    5506.3714    5503.4899    5503.5609       0.0711
    1321.0    4679.3928 1419728.0000    3604.5000     119.1591     119.7240       0.0112    5871.7192    5871.7305     119.7309          6     404.8453       0.0778    5506.3534    5506.4311    5503.4870    5503.6417       0.1548
    1322.0    4667.8570 1419728.0000    3604.5000     119.1575     119.7241       0.0114    5871.7170    5871.7282     119.7312          6     405.8453       0.2011    5506.0697    5506.2709    5503.4866    5503.8336       0.3469
    1323.0    4645.7140 1419728.0000    3604.5000     119.1600     119.7257       0.0105    5871.7337    5871.7444     119.7314          6     406.8453       0.3677    5506.3504    5506.7181    5503.4887    5504.1033       0.6146
    1324.0    4669.0480 1419728.0000    3604.5000     119.1608     119.7250       0.0091    5871.6118    5871.6209     119.7316          6     407.8453       0.5090    5506.2088    5506.7175    5503.4719    5504.3448       0.8727
    1325.0    4718.7982 1419728.0000    3604.5000     119.1613     119.7257       0.0074    5871.6196    5871.6270     119.7319          6     408.8453       0.5755    5506.5428    5507.1182    5503.6058    5504.6719       1.0662
    1326.0    4740.5240 1419728.0000    3604.5000     119.2161     119.7255       0.0061    5871.4301    5871.4363     119.7480          6     409.8453       0.5664    5873.5655    5874.1320    5866.0448    5867.2423       1.1976
    1327.0    4770.0480 1419728.0000    3604.5000     119.2262     119.7257       0.0055    5871.3223    5871.3276     119.7498          6     410.8453       0.4847    5872.6454    5873.1303    5865.8322    5867.0851       1.2528
    1328.0    4773.3095 1419728.0000    3604.5000     119.2244     119.7249       0.0059    5871.3740    5871.3799     119.7525          6     411.8453       0.3269    5872.2838    5872.6108    5865.9702    5867.1695       1.1994
    1329.0    4756.0950 1419728.0000    3604.5000     119.2230     119.7256       0.0084    5871.3807    5871.3891     119.7554          6     412.8453       0.1230    5871.8948    5872.0181    5866.1652    5867.2266       1.0611
    1330.0    4727.6425 1419728.0000    3604.5000     119.2212     119.7266       0.0131    5871.4655    5871.4784     119.7582          6     413.8453      -0.0547    5871.5587    5871.5042    5866.3158    5867.2343       0.9184
    1331.0    4679.0470 1419728.0000    3604.5000     119.2141     119.7258       0.0170    5871.4672    5871.4841     119.7613          6     414.8453      -0.1560    5871.0739    5870.9179    5866.4834    5867.3086       0.8252
    1332.0    4662.5475 1419728.0000    3604.5000     119.2122     119.7261       0.0178    5871.5558    5871.5738     119.7640          6     415.8453      -0.1884    5870.8922    5870.7039    5866.6403    5867.4049       0.7644
    1333.0    4669.4525 1419728.0000    3604.5000     119.2081     119.7270       0.0161    5871.5291    5871.5453     119.7664          6     416.8453      -0.1884    5870.7262    5870.5377    5866.8088    5867.5081       0.6993
    1334.0    4672.6905 1419728.0000    3604.5000     119.2057     119.7275       0.0140    5871.6389    5871.6528     119.7688          6     417.8453      -0.1794    5870.5575    5870.3782    5866.8725    5867.4946       0.6219
    1335.0    4665.3928 1419728.0000    3604.5000     119.2022     119.7271       0.0114    5871.5157    5871.5273     119.7708          6     418.8453      -0.1676    5870.4494    5870.2820    5866.9529    5867.4938       0.5409
