~VERSION INFORMATION
VERS.           2.0   :CWLS Log ASCII Standard - VERSION 2.0
WRAP.           NO    :One Line per depth step
PROD.  Schlumberger   :LAS Producer
PROG.  DLIS to ASCII 2.2                               :LAS Program name and version
CREA.        2020/10/30 12:18                          :LAS Creation date {YYYY/MM/DD hh:mm}
SOURCE.     XPT_HRLA_TLD_MCFL_064LTP.DLIS              :DLIS File Name
FILE-ID.     XPT_HRLA_TLD_MCFL_064LTP                  :File Identification Number
#--------------------------------------------------
~WELL INFORMATION
#MNEM.UNIT      DATA             DESCRIPTION
#---- ------ --------------   -----------------------------
STRT .S         1332.0       :START TIME      
STOP .S         1827.0       :STOP TIME      
STEP .S            1.0       :STEP     
NULL .          -999.25      :NULL VALUE
COMP .        Nexus Energy                             :COMPANY
WELL .        Crux-3                                   :WELL
FLD  .        Crux                                     :FIELD
LOC  .        Easting: 656981.7mE                      :LOCATION
CNTY .        Sedco-703                                :COUNTY
STAT .        Northern Territory                       :STATE
CTRY .        Australia                                :COUNTRY
API  .                                                 :API NUMBER
UWI  .                                                 :UNIQUE WELL ID
DATE .        31-Dec-2007                              :LOG DATE {DD-MMM-YYYY}
SRVC .        Schlumberger                             :SERVICE COMPANY
LATI .DEG     12*57'32.63" S                           :LATITUDE
LONG .DEG     124*26'50.07" E                          :LONGITUDE
GDAT .                                                 :GeoDetic Datum
#-----------------------------------------------------------------------------
~PARAMETER INFORMATION
#MNEM.UNIT    VALUE                      DESCRIPTION
#---- -----   --------------------       ------------------------
RUN  .          1                        :RUN NUMBER
PDAT .        LAT                        :Permanent Datum
EPD  .M           0.000000               :Elevation of Permanent Datum above Mean Sea Level
EPD  .M           0.000000               :Elevation of tool zero above Mean Sea Level
LMF  .          DF                       :Logging Measured From (Name of Logging Elevation Reference)
APD  .M          26.400000               :Elevation of Depth Reference (LMF) above Permanent Datum
#-----------------------------------------------------------------------------
~CURVE INFORMATION
#MNEM.UNIT   API CODE                                  DESCRIPTION
#---- -----  --------                                  -----------------------
TIME .S                                                :TIME {F10.1}
TENS_SL.LBF                                            :Cable Tension {F13.4}
DEPT_SL..1IN                                           :Station logging depth {F13.4}
PDEP_XPT.M                                             :XPT Probe Depth {F13.4}
MTEP_SAP.DEGC                                          :Sapphire Gauge Manometer Temperature {F13.4}
MTEP_HYD.DEGC                                          :Hydrostatic Sapphire Gauge Manometer Temperature {F13.4}
PCO_HYD.PSI                                            :Hydrostatic Sapphire Dynamic Compensation {F13.4}
PND_HYD.PSI                                            :Hydrostatic Sapphire Pressure Without Dynamic Compensation {F13.4}
CP_HYD.PSI                                             :Hydrostatic Sapphire Pressure With Dynamic Compensation {F13.4}
MTEP_QG.DEGC                                           :CQG Manometer Temperature {F13.4}
PTNO_XPT.                                              :XPT Pretest Number {I11}
ETIM_XPT.S                                             :Elapsed Logging Time {F13.4}
PCO_SAP.PSI                                            :Sapphire Dynamic Compensation {F13.4}
PND_SAP.PSI                                            :Sapphire Pressure Without Dynamic Compensation {F13.4}
CP_SAP.PSI                                             :Sapphire Pressure With Dynamic Compensation {F13.4}
QNDP .PSI                                              :CQG Pressure Without Dynamic Compensation {F13.4}
QCP  .PSI                                              :CQG Pressure With Dynamic Compensation {F13.4}
QPCO .PSI                                              :CQG Dynamic Compensation {F13.4}
#-----------------------------------------------------------------------------
# 
#     TIME      TENS_SL      DEPT_SL      PDEP_XPT     MTEP_SAP     MTEP_HYD     PCO_HYD      PND_HYD       CP_HYD      MTEP_QG       PTNO_XPT       ETIM_XPT     PCO_SAP      PND_SAP       CP_SAP        QNDP         QCP          QPCO
#
~A  
# ...
    1367.0    4777.0299 1496483.0000    3799.4575     128.7754     129.1923      -0.1092    6182.2068    6182.0974     129.6565         27      35.1646      -0.0955    6179.9136    6179.8183    6178.2508    6177.9188      -0.3319
    1368.0    4836.2925 1496483.0000    3799.4575     128.7741     129.1897      -0.1095    6182.1467    6182.0374     129.6553         27      36.1646      -0.0957    6179.8713    6179.7756    6178.1967    6177.8639      -0.3329
    1369.0    4850.6952 1496483.0000    3799.4575     128.7709     129.1905      -0.1097    6182.2480    6182.1382     129.6545         27      37.1646      -0.0945    6179.7556    6179.6613    6178.1882    6177.8547      -0.3337
    1370.0    4845.0911 1496483.0000    3799.4575     128.7708     129.1857      -0.1100    6182.0774    6181.9675     129.6531         27      38.1646      -0.0923    6179.7725    6179.6804    6178.0922    6177.7577      -0.3344
    1371.0    4876.4939 1496483.0000    3799.4575     128.7673     129.1840      -0.1097    6182.0528    6181.9432     129.6521         27      39.1646      -0.0904    6179.6601    6179.5695    6178.0680    6177.7328      -0.3353
    1372.0    4876.3660 1496483.0000    3799.4575     128.7660     129.1826      -0.1074    6182.0711    6181.9636     129.6513         27      40.1646      -0.0890    6179.7844    6179.6954    6178.1261    6177.7897      -0.3366
    1373.0    4849.5008 1496483.0000    3799.4575     128.7656     129.1794      -0.1042    6182.0467    6181.9424     129.6503         27      41.1646      -0.0878    6179.8148    6179.7270    6178.1572    6177.8193      -0.3377
    1374.0    4779.1891 1496483.0000    3799.4575     128.7629     129.1787      -0.1026    6182.1173    6182.0147     129.6490         27      42.1646      -0.0875    6179.7726    6179.6852    6178.1743    6177.8359      -0.3384
    1375.0    4772.1401 1496483.0000    3799.4575     128.7612     129.1758      -0.1039    6182.1266    6182.0226     129.6481         27      43.1646      -0.0886    6179.7783    6179.6895    6178.1913    6177.8520      -0.3393
    1376.0    4778.0612 1496483.0000    3799.4575     128.7609     129.1754      -0.1070    6182.2698    6182.1628     129.6469         27      44.1646      -0.0905    6179.9533    6179.8629    6178.2891    6177.9486      -0.3402
    1377.0    4754.6462 1496483.0000    3799.4575     128.7589     129.1729      -0.1091    6182.1591    6182.0500     129.6458         27      45.1646      -0.0921    6179.9800    6179.8879    6178.2582    6177.9169      -0.3414
    1378.0    4773.0421 1496483.0000    3799.4575     128.7577     129.1709      -0.1102    6182.1758    6182.0656     129.6448         27      46.1646      -0.0932    6179.9285    6179.8353    6178.2162    6177.8739      -0.3422
    1379.0    4827.7864 1496483.0000    3799.4575     128.7552     129.1687      -0.1111    6182.1756    6182.0647     129.6439         27      47.1646      -0.0931    6179.8881    6179.7949    6178.2588    6177.9160      -0.3429
    1380.0    4845.0245 1496483.0000    3799.4575     128.7546     129.1654      -0.1122    6182.1641    6182.0520     129.6427         27      48.1646      -0.0924    6179.8288    6179.7365    6178.1936    6177.8500      -0.3435
    1381.0    4835.9878 1496483.0000    3799.4575     128.7503     129.1654      -0.1123    6182.0043    6181.8920     129.6414         27      49.1646      -0.0916    6179.6310    6179.5396    6178.0635    6177.7193      -0.3443
    1382.0    4839.0245 1496483.0000    3799.4575     128.7509     129.1631      -0.1108    6181.9585    6181.8478     129.6405         27      50.1646      -0.0910    6179.7255    6179.6343    6178.0654    6177.7207      -0.3446
    1383.0    4817.1470 1496483.0000    3799.4575     128.7493     129.1612      -0.1100    6182.0587    6181.9488     129.6395         27      51.1646      -0.0905    6179.8378    6179.7474    6178.1642    6177.8192      -0.3450
    1384.0    4759.7986 1496483.0000    3799.4575     128.7460     129.1586      -0.1108    6182.1457    6182.0349     129.6382         27      52.1646      -0.0902    6179.7423    6179.6519    6178.2107    6177.8645      -0.3461
    1385.0    4783.3836 1496483.0000    3799.4575     128.7450     129.1555      -0.1120    6182.0120    6181.9001     129.6371         27      53.1646      -0.0910    6179.8317    6179.7408    6178.1898    6177.8421      -0.3475
    1386.0    4827.7075 1496483.0000    3799.4575     128.7433     129.1555      -0.1104    6182.1665    6182.0562     129.6363         27      54.1646      -0.0933    6179.8888    6179.7955    6178.3196    6177.9707      -0.3490
    1387.0    4819.3959 1496483.0000    3799.4575     128.7424     129.1518      -0.1066    6182.2047    6182.0981     129.6348         27      55.1646      -0.0968    6179.7746    6179.6776    6178.2314    6177.8813      -0.3502
    1388.0    4857.3905 1496483.0000    3799.4575     128.7396     129.1508      -0.1044    6182.1300    6182.0256     129.6341         27      56.1646      -0.1006    6179.7832    6179.6824    6178.2002    6177.8495      -0.3508
    1389.0    4835.1524 1496483.0000    3799.4575     128.7382     129.1485      -0.1056    6182.1067    6182.0012     129.6329         27      57.1646      -0.1032    6179.8041    6179.7008    6178.1624    6177.8110      -0.3514
    1390.0    4846.4326 1496483.0000    3799.4575     128.7370     129.1478      -0.1089    6182.1561    6182.0474     129.6317         27      58.1646      -0.1030    6179.6620    6179.5590    6178.0865    6177.7345      -0.3520
    1391.0    4873.3415 1496483.0000    3799.4575     128.7329     129.1462      -0.1097    6182.0278    6181.9179     129.6308         27      59.1646      -0.1018    6179.6654    6179.5636    6178.0937    6177.7412      -0.3524
    1392.0    4860.1225 1496483.0000    3799.4575     128.7320     129.1432      -0.1097    6182.0499    6181.9401     129.6298         27      60.1646      -0.0997    6179.7575    6179.6579    6178.1509    6177.7976      -0.3533
    1393.0    4803.9089 1496483.0000    3799.4575     128.7301     129.1403      -0.1103    6182.1401    6182.0298     129.6284         27      61.1646      -0.0956    6179.8112    6179.7157    6178.1861    6177.8308      -0.3552
    1394.0    4771.0245 1496483.0000    3799.4575     128.7308     129.1390      -0.1112    6182.1006    6181.9893     129.6275         27      62.1646      -0.0928    6179.7149    6179.6220    6178.1291    6177.7726      -0.3564
    1395.0    4758.0368 1496483.0000    3799.4575     128.7272     129.1367      -0.1121    6182.1468    6182.0347     129.6264         27      63.1646      -0.0899    6179.8314    6179.7414    6178.2530    6177.8958      -0.3574
    1396.0    4743.6585 1496483.0000    3799.4575     128.7256     129.1357      -0.1127    6182.2729    6182.1602     129.6253         27      64.1646      -0.0898    6179.8118    6179.7220    6178.2873    6177.9298      -0.3577
    1397.0    4756.7129 1496483.0000    3799.4575     128.7235     129.1319      -0.1137    6182.1118    6181.9980     129.6239         27      65.1646      -0.0918    6179.7674    6179.6755    6178.2064    6177.8490      -0.3576
    1398.0    4815.8775 1496483.0000    3799.4575     128.7235     129.1316      -0.1149    6182.1917    6182.0766     129.6230         27      66.1646      -0.0943    6179.9023    6179.8080    6178.2414    6177.8835      -0.3577
    1399.0    4866.4939 1496483.0000    3799.4575     128.7198     129.1281      -0.1155    6182.1318    6182.0162     129.6220         27      67.1646      -0.0969    6179.8119    6179.7149    6178.2688    6177.9095      -0.3595
    1400.0    4868.1769 1496483.0000    3799.4575     128.7190     129.1251      -0.1162    6182.0871    6181.9708     129.6206         27      68.1646      -0.1024    6179.6699    6179.5674    6178.1469    6177.7771      -0.3697
    1401.0    4863.6708 1496483.0000    3799.4575     128.7174     129.1248      -0.1163    6182.0146    6181.8984     129.6197         27      69.1646      -0.1145    6179.6604    6179.5459    6178.1288    6177.7315      -0.3973
