~VERSION INFORMATION
VERS.           2.0   :CWLS Log ASCII Standard - VERSION 2.0
WRAP.           NO    :One Line per depth step
PROD.  Schlumberger   :LAS Producer
PROG.  DLIS to ASCII 2.2                               :LAS Program name and version
CREA.        2020/10/30 12:18                          :LAS Creation date {YYYY/MM/DD hh:mm}
SOURCE.     XPT_HRLA_TLD_MCFL_037LTP.DLIS              :DLIS File Name
FILE-ID.     XPT_HRLA_TLD_MCFL_037LTP                  :File Identification Number
#--------------------------------------------------
~WELL INFORMATION
#MNEM.UNIT      DATA             DESCRIPTION
#---- ------ --------------   -----------------------------
STRT .S        35745.0       :START TIME      
STOP .S        36558.0       :STOP TIME      
STEP .S            1.0       :STEP     
NULL .          -999.25      :NULL VALUE
COMP .        Nexus Energy                             :COMPANY
WELL .        Crux-3                                   :WELL
FLD  .        Crux                                     :FIELD
LOC  .        Easting: 656981.7mE                      :LOCATION
CNTY .        Sedco-703                                :COUNTY
STAT .        Northern Territory                       :STATE
CTRY .        Australia                                :COUNTRY
API  .                                                 :API NUMBER
UWI  .                                                 :UNIQUE WELL ID
DATE .        31-Dec-2007                              :LOG DATE {DD-MMM-YYYY}
SRVC .        Schlumberger                             :SERVICE COMPANY
LATI .DEG     12*57'32.63" S                           :LATITUDE
LONG .DEG     124*26'50.07" E                          :LONGITUDE
GDAT .                                                 :GeoDetic Datum
#-----------------------------------------------------------------------------
~PARAMETER INFORMATION
#MNEM.UNIT    VALUE                      DESCRIPTION
#---- -----   --------------------       ------------------------
RUN  .          1                        :RUN NUMBER
PDAT .        LAT                        :Permanent Datum
EPD  .M           0.000000               :Elevation of Permanent Datum above Mean Sea Level
EPD  .M           0.000000               :Elevation of tool zero above Mean Sea Level
LMF  .          DF                       :Logging Measured From (Name of Logging Elevation Reference)
APD  .M          26.400000               :Elevation of Depth Reference (LMF) above Permanent Datum
#-----------------------------------------------------------------------------
~CURVE INFORMATION
#MNEM.UNIT   API CODE                                  DESCRIPTION
#---- -----  --------                                  -----------------------
TIME .S                                                :TIME {F10.1}
TENS_SL.LBF                                            :Cable Tension {F13.4}
DEPT_SL..1IN                                           :Station logging depth {F13.4}
PDEP_XPT.M                                             :XPT Probe Depth {F13.4}
MTEP_SAP.DEGC                                          :Sapphire Gauge Manometer Temperature {F13.4}
MTEP_HYD.DEGC                                          :Hydrostatic Sapphire Gauge Manometer Temperature {F13.4}
PCO_HYD.PSI                                            :Hydrostatic Sapphire Dynamic Compensation {F13.4}
PND_HYD.PSI                                            :Hydrostatic Sapphire Pressure Without Dynamic Compensation {F13.4}
CP_HYD.PSI                                             :Hydrostatic Sapphire Pressure With Dynamic Compensation {F13.4}
MTEP_QG.DEGC                                           :CQG Manometer Temperature {F13.4}
PTNO_XPT.                                              :XPT Pretest Number {I11}
ETIM_XPT.S                                             :Elapsed Logging Time {F13.4}
PCO_SAP.PSI                                            :Sapphire Dynamic Compensation {F13.4}
PND_SAP.PSI                                            :Sapphire Pressure Without Dynamic Compensation {F13.4}
CP_SAP.PSI                                             :Sapphire Pressure With Dynamic Compensation {F13.4}
QNDP .PSI                                              :CQG Pressure Without Dynamic Compensation {F13.4}
QCP  .PSI                                              :CQG Pressure With Dynamic Compensation {F13.4}
QPCO .PSI                                              :CQG Dynamic Compensation {F13.4}
#-----------------------------------------------------------------------------
# 
#     TIME      TENS_SL      DEPT_SL      PDEP_XPT     MTEP_SAP     MTEP_HYD     PCO_HYD      PND_HYD       CP_HYD      MTEP_QG       PTNO_XPT       ETIM_XPT     PCO_SAP      PND_SAP       CP_SAP        QNDP         QCP          QPCO
#
~A  
   35745.0    4641.9673 1417585.0061    3599.0569     118.7058     119.2563       0.0000    5862.4870    5862.4870     118.7072          0       0.0000       0.0000    5861.0534    5861.0534    5857.7492    5857.7492       0.0000
   35746.0    4633.7720 1417595.0000    3599.0823     118.7076     119.2577       0.0000    5862.4897    5862.4897     118.7094          0       0.7480       0.0000    5861.0879    5861.0879    5857.8185    5857.8185       0.0000
   35747.0    4633.9920 1417595.0000    3599.0823     118.7060     119.2593       0.0000    5862.6202    5862.6202     118.7105          0       1.7480       0.0000    5861.0819    5861.0819    5857.8437    5857.8437       0.0000
   35748.0    4676.1400 1417595.0000    3599.0823     118.7084     119.2585       0.0000    5862.6236    5862.6236     118.7117          0       2.7480       0.0000    5861.0649    5861.0649    5857.8084    5857.8084       0.0000
   35749.0    4727.4000 1417595.0000    3599.0823     118.7072     119.2573       0.0000    5862.4858    5862.4858     118.7126          0       3.7480       0.0000    5861.0258    5861.0258    5857.8039    5857.8039       0.0000
   35750.0    4742.9920 1417595.0000    3599.0823     118.7069     119.2586       0.0000    5862.5431    5862.5431     118.7138          0       4.7480       0.0000    5861.0239    5861.0239    5857.7629    5857.7629       0.0000
   35751.0    4746.2440 1417595.0000    3599.0823     118.7089     119.2587       0.0010    5862.5444    5862.5454     118.7148          0       5.7480       0.0008    5860.9918    5860.9926    5857.7369    5857.7898       0.0530
   35752.0    4703.6160 1417595.0000    3599.0823     118.7089     119.2588       0.0076    5862.4570    5862.4645     118.7160          0       6.7480       0.0054    5860.9535    5860.9588    5857.7390    5858.0695       0.3305
   35753.0    4678.5280 1417595.0000    3599.0823     118.7075     119.2592       0.0076    5862.4835    5862.4909     118.7171          0       7.7480       0.0049    5860.9668    5860.9718    5857.7879    5858.1179       0.3299
   35754.0    4655.5520 1417595.0000    3599.0823     118.7083     119.2594       0.0057    5862.5576    5862.5633     118.7179          0       8.7480       0.0030    5861.0577    5861.0605    5857.8382    5858.1677       0.3294
   35755.0    4643.0160 1417595.0000    3599.0823     118.7076     119.2594       0.0037    5862.6704    5862.6741     118.7192          0       9.7480       0.0010    5861.0593    5861.0603    5857.8702    5858.1991       0.3288
   35756.0    4618.5600 1417595.0000    3599.0823     118.7068     119.2608       0.0015    5862.6260    5862.6277     118.7202          0      10.7480       0.0004    5861.0018    5861.0022    5857.8154    5858.1435       0.3280
   35757.0    4689.5400 1417595.0000    3599.0823     118.7071     119.2588      -0.0002    5862.5988    5862.5987     118.7212          0      11.7480       0.0011    5861.0241    5861.0253    5857.8251    5858.1526       0.3274
   35758.0    4730.9600 1417595.0000    3599.0823     118.7074     119.2594      -0.0023    5862.5371    5862.5349     118.7224          0      12.7480       0.0035    5860.9980    5861.0015    5857.7864    5858.1129       0.3264
   35759.0    4749.4640 1417595.0000    3599.0823     118.7088     119.2580      -0.0024    5862.5336    5862.5311     118.7234          0      13.7480       0.0070    5860.9066    5860.9136    5857.6797    5858.0049       0.3254
   35760.0    4754.0000 1417595.0000    3599.0823     118.7073     119.2579      -0.0011    5862.3510    5862.3501     118.7247          0      14.7480       0.0086    5860.8051    5860.8138    5857.5951    5857.9202       0.3249
   35761.0    4738.2920 1417595.0000    3599.0823     118.7087     119.2598       0.0012    5862.3919    5862.3932     118.7255          0      15.7480       0.0097    5860.9365    5860.9463    5857.6955    5858.0197       0.3243
   35762.0    4705.3240 1417595.0000    3599.0823     118.7089     119.2584       0.0020    5862.4761    5862.4781     118.7268          0      16.7480       0.0108    5861.0798    5861.0904    5857.7842    5858.1079       0.3237
   35763.0    4650.3720 1417595.0000    3599.0823     118.7082     119.2588       0.0011    5862.4451    5862.4461     118.7277          0      17.7480       0.0116    5860.9006    5860.9123    5857.8016    5858.1252       0.3235
   35764.0    4624.5280 1417595.0000    3599.0823     118.7079     119.2590       0.0004    5862.5478    5862.5483     118.7290          0      18.7480       0.0115    5860.9877    5860.9991    5857.8237    5858.1467       0.3231
   35765.0    4656.9040 1417595.0000    3599.0823     118.7094     119.2600       0.0001    5862.7192    5862.7192     118.7297          0      19.7480       0.0103    5861.1864    5861.1967    5857.9800    5858.3024       0.3223
   35766.0    4669.0000 1417595.0000    3599.0823     118.7098     119.2591      -0.0005    5862.7572    5862.7566     118.7311          0      20.7480       0.0088    5861.2538    5861.2625    5857.9529    5858.2742       0.3213
   35767.0    4683.2120 1417595.0000    3599.0823     118.7093     119.2587      -0.0015    5862.6335    5862.6320     118.7321          0      21.7480       0.0077    5861.1050    5861.1129    5857.8854    5858.2062       0.3207
   35768.0    4726.1480 1417595.0000    3599.0823     118.7107     119.2598      -0.0008    5862.6154    5862.6148     118.7331          0      22.7480       0.0069    5860.9331    5860.9401    5857.8054    5858.1257       0.3202
   35769.0    4736.0080 1417595.0000    3599.0823     118.7089     119.2587       0.0022    5862.4748    5862.4770     118.7341          0      23.7480       0.0060    5860.9981    5861.0040    5857.7914    5858.1113       0.3199
   35770.0    4723.7800 1417595.0000    3599.0823     118.7096     119.2590       0.0045    5862.4891    5862.4935     118.7353          0      24.7480       0.0048    5860.8579    5860.8625    5857.6887    5858.0081       0.3195
   35771.0    4710.2760 1417595.0000    3599.0823     118.7101     119.2594       0.0033    5862.4393    5862.4424     118.7361          0      25.7480       0.0038    5860.9509    5860.9548    5857.7226    5858.0415       0.3187
   35772.0    4674.0880 1417595.0000    3599.0823     118.7103     119.2587      -0.0002    5862.4594    5862.4592     118.7374          0      26.7480       0.0036    5860.9719    5860.9753    5857.7721    5858.0899       0.3177
   35773.0    4670.4800 1417595.0000    3599.0823     118.7096     119.2594      -0.0023    5862.5073    5862.5048     118.7385          0      27.7480       0.0036    5860.9452    5860.9486    5857.7941    5858.1105       0.3166
   35774.0    4651.3080 1417595.0000    3599.0823     118.7101     119.2600      -0.0021    5862.5516    5862.5496     118.7395          0      28.7480       0.0030    5861.0688    5861.0718    5857.8661    5858.1816       0.3157
   35775.0    4639.5120 1417595.0000    3599.0823     118.7098     119.2590      -0.0014    5862.6318    5862.6304     118.7404          0      29.7480       0.0025    5861.2254    5861.2278    5857.9613    5858.2763       0.3149
   35776.0    4654.4560 1417595.0000    3599.0823     118.7108     119.2579      -0.0007    5862.5512    5862.5507     118.7415          0      30.7480       0.0029    5861.1058    5861.1087    5857.8879    5858.2024       0.3142
   35777.0    4692.9120 1417595.0000    3599.0823     118.7102     119.2598       0.0014    5862.6540    5862.6553     118.7425          0      31.7480       0.0034    5861.0105    5861.0140    5857.8220    5858.1359       0.3138
   35778.0    4705.4960 1417595.0000    3599.0823     118.7099     119.2587       0.0052    5862.5439    5862.5491     118.7435          0      32.7480       0.0034    5861.0370    5861.0404    5857.8117    5858.1251       0.3134
   35779.0    4717.9680 1417595.0000    3599.0823     118.7102     119.2585       0.0081    5862.4976    5862.5056     118.7445          0      33.7480       0.0028    5860.8777    5860.8807    5857.7529    5858.0657       0.3127
