~VERSION INFORMATION
VERS.           2.0   :CWLS Log ASCII Standard - VERSION 2.0
WRAP.           NO    :One Line per depth step
PROD.  Schlumberger   :LAS Producer
PROG.  DLIS to ASCII 2.2                               :LAS Program name and version
CREA.        2020/10/30 12:18                          :LAS Creation date {YYYY/MM/DD hh:mm}
SOURCE.     XPT_HRLA_TLD_MCFL_048LTP.DLIS              :DLIS File Name
FILE-ID.     XPT_HRLA_TLD_MCFL_048LTP                  :File Identification Number
#--------------------------------------------------
~WELL INFORMATION
#MNEM.UNIT      DATA             DESCRIPTION
#---- ------ --------------   -----------------------------
STRT .S           91.0       :START TIME      
STOP .S          545.0       :STOP TIME      
STEP .S            1.0       :STEP     
NULL .          -999.25      :NULL VALUE
COMP .        Nexus Energy                             :COMPANY
WELL .        Crux-3                                   :WELL
FLD  .        Crux                                     :FIELD
LOC  .        Easting: 656981.7mE                      :LOCATION
CNTY .        Sedco-703                                :COUNTY
STAT .        Northern Territory                       :STATE
CTRY .        Australia                                :COUNTRY
API  .                                                 :API NUMBER
UWI  .                                                 :UNIQUE WELL ID
DATE .        31-Dec-2007                              :LOG DATE {DD-MMM-YYYY}
SRVC .        Schlumberger                             :SERVICE COMPANY
LATI .DEG     12*57'32.63" S                           :LATITUDE
LONG .DEG     124*26'50.07" E                          :LONGITUDE
GDAT .                                                 :GeoDetic Datum
#-----------------------------------------------------------------------------
~PARAMETER INFORMATION
#MNEM.UNIT    VALUE                      DESCRIPTION
#---- -----   --------------------       ------------------------
RUN  .          1                        :RUN NUMBER
PDAT .        LAT                        :Permanent Datum
EPD  .M           0.000000               :Elevation of Permanent Datum above Mean Sea Level
EPD  .M           0.000000               :Elevation of tool zero above Mean Sea Level
LMF  .          DF                       :Logging Measured From (Name of Logging Elevation Reference)
APD  .M          26.400000               :Elevation of Depth Reference (LMF) above Permanent Datum
#-----------------------------------------------------------------------------
~CURVE INFORMATION
#MNEM.UNIT   API CODE                                  DESCRIPTION
#---- -----  --------                                  -----------------------
TIME .S                                                :TIME {F10.1}
TENS_SL.LBF                                            :Cable Tension {F13.4}
DEPT_SL..1IN                                           :Station logging depth {F13.4}
PDEP_XPT.M                                             :XPT Probe Depth {F13.4}
MTEP_SAP.DEGC                                          :Sapphire Gauge Manometer Temperature {F13.4}
MTEP_HYD.DEGC                                          :Hydrostatic Sapphire Gauge Manometer Temperature {F13.4}
PCO_HYD.PSI                                            :Hydrostatic Sapphire Dynamic Compensation {F13.4}
PND_HYD.PSI                                            :Hydrostatic Sapphire Pressure Without Dynamic Compensation {F13.4}
CP_HYD.PSI                                             :Hydrostatic Sapphire Pressure With Dynamic Compensation {F13.4}
MTEP_QG.DEGC                                           :CQG Manometer Temperature {F13.4}
PTNO_XPT.                                              :XPT Pretest Number {I11}
ETIM_XPT.S                                             :Elapsed Logging Time {F13.4}
PCO_SAP.PSI                                            :Sapphire Dynamic Compensation {F13.4}
PND_SAP.PSI                                            :Sapphire Pressure Without Dynamic Compensation {F13.4}
CP_SAP.PSI                                             :Sapphire Pressure With Dynamic Compensation {F13.4}
QNDP .PSI                                              :CQG Pressure Without Dynamic Compensation {F13.4}
QCP  .PSI                                              :CQG Pressure With Dynamic Compensation {F13.4}
QPCO .PSI                                              :CQG Dynamic Compensation {F13.4}
#-----------------------------------------------------------------------------
# 
#     TIME      TENS_SL      DEPT_SL      PDEP_XPT     MTEP_SAP     MTEP_HYD     PCO_HYD      PND_HYD       CP_HYD      MTEP_QG       PTNO_XPT       ETIM_XPT     PCO_SAP      PND_SAP       CP_SAP        QNDP         QCP          QPCO
#
~A  
# ...
     371.0    4706.5650 1445909.0000    3671.0000     122.1288     122.6834       0.0078    5977.7249    5977.7327     122.6852         12     279.8206       0.0146    5529.5442    5529.5587    5526.7492    5526.8338       0.0847
     372.0    4703.0763 1445909.0000    3671.0000     122.1277     122.6842       0.0078    5977.7940    5977.8018     122.6853         12     280.8206       0.0131    5529.5290    5529.5421    5526.7558    5526.8393       0.0835
     373.0    4680.6637 1445909.0000    3671.0000     122.1287     122.6839       0.0081    5977.7911    5977.7992     122.6857         12     281.8206       0.0084    5529.6016    5529.6101    5526.7645    5526.8466       0.0822
     374.0    4694.0538 1445909.0000    3671.0000     122.1299     122.6834       0.0079    5977.7856    5977.7935     122.6860         12     282.8206       0.0035    5529.5985    5529.6018    5526.7721    5526.8536       0.0814
     375.0    4746.4169 1445909.0000    3671.0000     122.1319     122.6845       0.0072    5977.7930    5977.8003     122.6862         12     283.8206       0.0006    5529.6254    5529.6259    5526.7800    5526.8611       0.0809
     376.0    4778.3363 1445909.0000    3671.0000     122.1299     122.6835       0.0073    5977.7088    5977.7161     122.6865         12     284.8206      -0.0006    5529.5524    5529.5517    5526.7878    5526.8684       0.0803
     377.0    4780.5381 1445909.0000    3671.0000     122.1294     122.6847       0.0094    5977.7400    5977.7495     122.6867         12     285.8206      -0.0009    5529.5713    5529.5703    5526.7930    5526.8726       0.0796
     378.0    4732.4038 1445909.0000    3671.0000     122.1307     122.6849       0.0119    5977.7417    5977.7535     122.6870         12     286.8206       0.0006    5529.5197    5529.5202    5526.8042    5526.8828       0.0787
     379.0    4688.3544 1445909.0000    3671.0000     122.1292     122.6833       0.0111    5977.6474    5977.6584     122.6873         12     287.8206       0.0038    5529.4924    5529.4962    5526.8100    5526.8879       0.0779
     380.0    4681.0000 1445909.0000    3671.0000     122.1284     122.6858       0.0069    5977.7953    5977.8020     122.6875         12     288.8206       0.0071    5529.4883    5529.4954    5526.8180    5526.8952       0.0772
     381.0    4726.9550 1445909.0000    3671.0000     122.1290     122.6857       0.0033    5977.6899    5977.6933     122.6880         12     289.8206       0.0094    5529.5915    5529.6009    5526.8213    5526.8985       0.0769
     382.0    4789.5200 1445909.0000    3671.0000     122.1307     122.6864       0.0027    5977.7578    5977.7605     122.6881         12     290.8206       0.0109    5529.5473    5529.5580    5526.8343    5526.9110       0.0767
     383.0    4806.7444 1445909.0000    3671.0000     122.1303     122.6849       0.0033    5977.6900    5977.6934     122.6883         12     291.8206       0.0108    5529.5945    5529.6053    5526.8398    5526.9164       0.0767
     384.0    4796.5112 1445909.0000    3671.0000     122.1292     122.6849       0.0034    5977.6795    5977.6829     122.6883         12     292.8206       0.0086    5529.6338    5529.6426    5526.8426    5526.9197       0.0771
     385.0    4798.1031 1445909.0000    3671.0000     122.1298     122.6848       0.0045    5977.6205    5977.6251     122.6889         12     293.8206       0.0049    5529.6109    5529.6159    5526.8528    5526.9305       0.0776
     386.0    4761.2513 1445909.0000    3671.0000     122.1305     122.6861       0.0073    5977.6866    5977.6937     122.6891         12     294.8206       0.0020    5529.6030    5529.6051    5526.8571    5526.9343       0.0773
     387.0    4702.1213 1445909.0000    3671.0000     122.1299     122.6849       0.0101    5977.6824    5977.6927     122.6892         12     295.8206       0.0012    5529.6936    5529.6946    5526.8605    5526.9366       0.0760
     388.0    4704.9506 1445909.0000    3671.0000     122.1303     122.6854       0.0105    5977.6868    5977.6974     122.6896         12     296.8206       0.0025    5529.6750    5529.6773    5526.8711    5526.9463       0.0752
     389.0    4688.3050 1445909.0000    3671.0000     122.1310     122.6856       0.0086    5977.7554    5977.7639     122.6898         12     297.8206       0.0051    5529.6444    5529.6495    5526.8740    5526.9488       0.0749
     390.0    4705.3363 1445909.0000    3671.0000     122.1312     122.6850       0.0065    5977.8583    5977.8647     122.6899         12     298.8206       0.0073    5529.6811    5529.6885    5526.8756    5526.9503       0.0747
     391.0    4725.5919 1445909.0000    3671.0000     122.1301     122.6863       0.0062    5977.7560    5977.7621     122.6902         12     299.8206       0.0084    5529.6192    5529.6275    5526.8815    5526.9557       0.0742
     392.0    4756.0806 1445909.0000    3671.0000     122.1301     122.6861       0.0080    5977.8436    5977.8517     122.6905         12     300.8206       0.0083    5529.6378    5529.6461    5526.8828    5526.9570       0.0742
     393.0    4782.5156 1445909.0000    3671.0000     122.1321     122.6864       0.0099    5977.6978    5977.7076     122.6904         12     301.8206       0.0072    5529.7059    5529.7132    5526.8931    5526.9678       0.0746
     394.0    4782.8969 1445909.0000    3671.0000     122.1317     122.6858       0.0101    5977.7274    5977.7374     122.6909         12     302.8206       0.0054    5529.6810    5529.6864    5526.8886    5526.9633       0.0747
     395.0    4766.4081 1445909.0000    3671.0000     122.1310     122.6876       0.0098    5977.7256    5977.7354     122.6910         12     303.8206       0.0031    5529.6058    5529.6088    5526.8903    5526.9645       0.0741
     396.0    4750.6906 1445909.0000    3671.0000     122.1307     122.6872       0.0106    5977.7107    5977.7214     122.6914         12     304.8206       0.0017    5529.6486    5529.6501    5526.8902    5526.9639       0.0738
     397.0    4743.8969 1445909.0000    3671.0000     122.1305     122.6877       0.0115    5977.7942    5977.8060     122.6917         12     305.8206       0.0017    5529.6229    5529.6246    5526.8982    5526.9720       0.0738
     398.0    4782.3900 1445909.0000    3671.0000     122.1309     122.6866       0.0110    5977.7372    5977.7480     122.6921         12     306.8206       0.0026    5529.6007    5529.6035    5526.8983    5526.9720       0.0739
     399.0    4804.9506 1445909.0000    3671.0000     122.1324     122.6876       0.0098    5977.6820    5977.6917     122.6921         12     307.8206       0.0041    5529.7175    5529.7215    5526.9001    5526.9738       0.0736
     400.0    4814.5650 1445909.0000    3671.0000     122.1312     122.6887       0.0098    5977.7456    5977.7554     122.6925         12     308.8206       0.0062    5529.6410    5529.6473    5526.9018    5526.9748       0.0730
     401.0    4826.6681 1445909.0000    3671.0000     122.1316     122.6877       0.0099    5977.6290    5977.6388     122.6926         12     309.8206       0.0083    5529.6799    5529.6882    5526.9075    5526.9803       0.0727
     402.0    4800.2781 1445909.0000    3671.0000     122.1309     122.6880       0.0091    5977.6538    5977.6631     122.6930         12     310.8206       0.0092    5529.4865    5529.4958    5526.9095    5526.9818       0.0723
     403.0    4707.0138 1445909.0000    3671.0000     122.1321     122.6889       0.0085    5977.6516    5977.6599     122.6932         12     311.8206       0.0092    5529.6847    5529.6939    5526.9109    5526.9832       0.0722
     404.0    4692.9237 1445909.0000    3671.0000     122.1330     122.6885       0.0093    5977.6758    5977.6850     122.6934         12     312.8206       0.0102    5529.5974    5529.6075    5526.9122    5526.9840       0.0718
     405.0    4677.5875 1445909.0000    3671.0000     122.1342     122.6872       0.0111    5977.7656    5977.7769     122.6934         12     313.8206       0.0122    5529.5924    5529.6047    5526.9122    5526.9840       0.0716
