~VERSION INFORMATION
VERS.           2.0   :CWLS Log ASCII Standard - VERSION 2.0
WRAP.           NO    :One Line per depth step
PROD.  Schlumberger   :LAS Producer
PROG.  DLIS to ASCII 2.2                               :LAS Program name and version
CREA.        2020/10/30 12:18                          :LAS Creation date {YYYY/MM/DD hh:mm}
SOURCE.     XPT_HRLA_TLD_MCFL_039LTP.DLIS              :DLIS File Name
FILE-ID.     XPT_HRLA_TLD_MCFL_039LTP                  :File Identification Number
#--------------------------------------------------
~WELL INFORMATION
#MNEM.UNIT      DATA             DESCRIPTION
#---- ------ --------------   -----------------------------
STRT .S          109.0       :START TIME      
STOP .S          613.0       :STOP TIME      
STEP .S            1.0       :STEP     
NULL .          -999.25      :NULL VALUE
COMP .        Nexus Energy                             :COMPANY
WELL .        Crux-3                                   :WELL
FLD  .        Crux                                     :FIELD
LOC  .        Easting: 656981.7mE                      :LOCATION
CNTY .        Sedco-703                                :COUNTY
STAT .        Northern Territory                       :STATE
CTRY .        Australia                                :COUNTRY
API  .                                                 :API NUMBER
UWI  .                                                 :UNIQUE WELL ID
DATE .        31-Dec-2007                              :LOG DATE {DD-MMM-YYYY}
SRVC .        Schlumberger                             :SERVICE COMPANY
LATI .DEG     12*57'32.63" S                           :LATITUDE
LONG .DEG     124*26'50.07" E                          :LONGITUDE
GDAT .                                                 :GeoDetic Datum
#-----------------------------------------------------------------------------
~PARAMETER INFORMATION
#MNEM.UNIT    VALUE                      DESCRIPTION
#---- -----   --------------------       ------------------------
RUN  .          1                        :RUN NUMBER
PDAT .        LAT                        :Permanent Datum
EPD  .M           0.000000               :Elevation of Permanent Datum above Mean Sea Level
EPD  .M           0.000000               :Elevation of tool zero above Mean Sea Level
LMF  .          DF                       :Logging Measured From (Name of Logging Elevation Reference)
APD  .M          26.400000               :Elevation of Depth Reference (LMF) above Permanent Datum
#-----------------------------------------------------------------------------
~CURVE INFORMATION
#MNEM.UNIT   API CODE                                  DESCRIPTION
#---- -----  --------                                  -----------------------
TIME .S                                                :TIME {F10.1}
TENS_SL.LBF                                            :Cable Tension {F13.4}
DEPT_SL..1IN                                           :Station logging depth {F13.4}
PDEP_XPT.M                                             :XPT Probe Depth {F13.4}
MTEP_SAP.DEGC                                          :Sapphire Gauge Manometer Temperature {F13.4}
MTEP_HYD.DEGC                                          :Hydrostatic Sapphire Gauge Manometer Temperature {F13.4}
PCO_HYD.PSI                                            :Hydrostatic Sapphire Dynamic Compensation {F13.4}
PND_HYD.PSI                                            :Hydrostatic Sapphire Pressure Without Dynamic Compensation {F13.4}
CP_HYD.PSI                                             :Hydrostatic Sapphire Pressure With Dynamic Compensation {F13.4}
MTEP_QG.DEGC                                           :CQG Manometer Temperature {F13.4}
PTNO_XPT.                                              :XPT Pretest Number {I11}
ETIM_XPT.S                                             :Elapsed Logging Time {F13.4}
PCO_SAP.PSI                                            :Sapphire Dynamic Compensation {F13.4}
PND_SAP.PSI                                            :Sapphire Pressure Without Dynamic Compensation {F13.4}
CP_SAP.PSI                                             :Sapphire Pressure With Dynamic Compensation {F13.4}
QNDP .PSI                                              :CQG Pressure Without Dynamic Compensation {F13.4}
QCP  .PSI                                              :CQG Pressure With Dynamic Compensation {F13.4}
QPCO .PSI                                              :CQG Dynamic Compensation {F13.4}
#-----------------------------------------------------------------------------
# 
#     TIME      TENS_SL      DEPT_SL      PDEP_XPT     MTEP_SAP     MTEP_HYD     PCO_HYD      PND_HYD       CP_HYD      MTEP_QG       PTNO_XPT       ETIM_XPT     PCO_SAP      PND_SAP       CP_SAP        QNDP         QCP          QPCO
#
~A  
# ...
     494.0    4767.6469 1418545.0000    3601.4951     119.0278     119.5844       0.0098    5866.6459    5866.6556     119.5779          4     385.2610       0.0117    5505.0406    5505.0525    5502.4116    5502.4707       0.0589
     495.0    4704.2594 1418545.0000    3601.4951     119.0281     119.5857       0.0084    5866.7185    5866.7270     119.5781          4     386.2610       0.0139    5505.1502    5505.1641    5502.4076    5502.4666       0.0592
     496.0    4681.7375 1418545.0000    3601.4951     119.0282     119.5846       0.0062    5866.6552    5866.6612     119.5784          4     387.2610       0.0138    5505.0922    5505.1059    5502.4083    5502.4679       0.0596
     497.0    4660.3469 1418545.0000    3601.4951     119.0279     119.5854       0.0036    5866.7744    5866.7782     119.5786          4     388.2610       0.0128    5505.0951    5505.1077    5502.4115    5502.4716       0.0599
     498.0    4648.6953 1418545.0000    3601.4951     119.0295     119.5857       0.0026    5866.8647    5866.8672     119.5788          4     389.2610       0.0116    5505.1862    5505.1977    5502.4119    5502.4719       0.0601
     499.0    4674.2250 1418545.0000    3601.4951     119.0301     119.5854       0.0033    5866.7744    5866.7778     119.5788          4     390.2610       0.0094    5505.1416    5505.1510    5502.4090    5502.4690       0.0602
     500.0    4758.3047 1418545.0000    3601.4951     119.0286     119.5854       0.0049    5866.7148    5866.7198     119.5794          4     391.2610       0.0055    5505.1781    5505.1837    5502.4097    5502.4701       0.0603
     501.0    4764.8703 1418545.0000    3601.4951     119.0293     119.5838       0.0072    5866.5801    5866.5874     119.5793          4     392.2610       0.0019    5505.2068    5505.2087    5502.4080    5502.4678       0.0598
     502.0    4777.1750 1418545.0000    3601.4951     119.0292     119.5854       0.0099    5866.4344    5866.4446     119.5796          4     393.2610       0.0008    5505.1370    5505.1380    5502.4084    5502.4680       0.0595
     503.0    4776.2141 1418545.0000    3601.4951     119.0302     119.5860       0.0114    5866.5906    5866.6020     119.5798          4     394.2610       0.0019    5505.1455    5505.1475    5502.4126    5502.4722       0.0594
     504.0    4726.6922 1418545.0000    3601.4951     119.0280     119.5870       0.0107    5866.6724    5866.6831     119.5801          4     395.2610       0.0027    5505.1159    5505.1186    5502.4164    5502.4757       0.0594
     505.0    4685.8687 1418545.0000    3601.4951     119.0299     119.5861       0.0094    5866.7183    5866.7276     119.5801          4     396.2610       0.0024    5505.1952    5505.1977    5502.4142    5502.4734       0.0592
     506.0    4676.7391 1418545.0000    3601.4951     119.0289     119.5876       0.0090    5866.7375    5866.7464     119.5805          4     397.2610       0.0025    5505.0922    5505.0947    5502.4194    5502.4785       0.0591
     507.0    4678.6094 1418545.0000    3601.4951     119.0308     119.5861       0.0095    5866.7822    5866.7915     119.5804          4     398.2610       0.0034    5505.1879    5505.1914    5502.4165    5502.4755       0.0591
     508.0    4696.4375 1418545.0000    3601.4951     119.0290     119.5861       0.0097    5866.7822    5866.7920     119.5807          4     399.2610       0.0038    5505.1002    5505.1041    5502.4105    5502.4696       0.0593
     509.0    4733.5672 1418545.0000    3601.4951     119.0306     119.5864       0.0107    5866.7612    5866.7720     119.5808          4     400.2610       0.0033    5505.1253    5505.1286    5502.4121    5502.4717       0.0596
     510.0    4756.8266 1418545.0000    3601.4951     119.0292     119.5876       0.0127    5866.6627    5866.6755     119.5811          4     401.2610       0.0032    5505.1600    5505.1632    5502.4132    5502.4730       0.0598
     511.0    4770.6109 1418545.0000    3601.4951     119.0302     119.5876       0.0138    5866.6787    5866.6924     119.5813          4     402.2610       0.0045    5505.0633    5505.0676    5502.4143    5502.4739       0.0596
     512.0    4796.0437 1418545.0000    3601.4951     119.0295     119.5878       0.0121    5866.5263    5866.5384     119.5818          4     403.2610       0.0069    5505.1742    5505.1811    5502.4159    5502.4750       0.0592
     513.0    4783.3438 1418545.0000    3601.4951     119.0303     119.5880       0.0090    5866.5951    5866.6042     119.5817          4     404.2610       0.0083    5505.1107    5505.1190    5502.4151    5502.4739       0.0587
     514.0    4727.2578 1418545.0000    3601.4951     119.0293     119.5877       0.0070    5866.6206    5866.6275     119.5820          4     405.2610       0.0086    5505.1391    5505.1478    5502.4166    5502.4747       0.0581
     515.0    4686.4328 1418545.0000    3601.4951     119.0308     119.5890       0.0071    5866.7402    5866.7475     119.5822          4     406.2610       0.0078    5505.1616    5505.1693    5502.4167    5502.4742       0.0574
     516.0    4663.1734 1418545.0000    3601.4951     119.0299     119.5880       0.0076    5866.6869    5866.6947     119.5825          4     407.2610       0.0063    5505.1549    5505.1610    5502.4190    5502.4761       0.0573
     517.0    4658.5219 1418545.0000    3601.4951     119.0293     119.5881       0.0071    5866.6759    5866.6828     119.5824          4     408.2610       0.0044    5505.1059    5505.1103    5502.4172    5502.4753       0.0579
     518.0    4673.8297 1418545.0000    3601.4951     119.0305     119.5890       0.0075    5866.7049    5866.7123     119.5826          4     409.2610       0.0035    5505.1539    5505.1573    5502.4178    5502.4765       0.0586
     519.0    4735.9625 1418545.0000    3601.4951     119.0309     119.5884       0.0101    5866.6865    5866.6968     119.5828          4     410.2610       0.0044    5505.1896    5505.1940    5502.4144    5502.4735       0.0590
     520.0    4804.6531 1418545.0000    3601.4951     119.0312     119.5896       0.0129    5866.6060    5866.6191     119.5833          4     411.2610       0.0049    5505.0792    5505.0841    5502.4103    5502.4694       0.0593
     521.0    4810.3031 1418545.0000    3601.4951     119.0304     119.5884       0.0135    5866.5558    5866.5693     119.5833          4     412.2610       0.0031    5505.1348    5505.1380    5502.4146    5502.4743       0.0597
     522.0    4787.6062 1418545.0000    3601.4951     119.0311     119.5884       0.0124    5866.5083    5866.5207     119.5835          4     413.2610       0.0011    5505.1458    5505.1470    5502.4142    5502.4740       0.0598
     523.0    4761.2609 1418545.0000    3601.4951     119.0328     119.5913       0.0126    5866.5903    5866.6030     119.5839          4     414.2610       0.0004    5505.1149    5505.1154    5502.4179    5502.4771       0.0591
     524.0    4748.1703 1418545.0000    3601.4951     119.0313     119.5891       0.0130    5866.5757    5866.5889     119.5839          4     415.2610       0.0007    5505.0598    5505.0603    5502.4181    5502.4767       0.0585
     525.0    4706.6516 1418545.0000    3601.4951     119.0299     119.5907       0.0120    5866.5911    5866.6030     119.5841          4     416.2610       0.0013    5504.9961    5504.9973    5502.4213    5502.4797       0.0584
     526.0    4698.6953 1418545.0000    3601.4951     119.0307     119.5891       0.0105    5866.6353    5866.6460     119.5844          4     417.2610       0.0039    5505.0850    5505.0888    5502.4218    5502.4804       0.0587
     527.0    4698.3922 1418545.0000    3601.4951     119.0305     119.5907       0.0110    5866.7104    5866.7213     119.5844          4     418.2610       0.0085    5505.0770    5505.0856    5502.4216    5502.4801       0.0585
     528.0    4709.5656 1418545.0000    3601.4951     119.0312     119.5901       0.0124    5866.7142    5866.7266     119.5846          4     419.2610       0.0124    5505.1691    5505.1816    5502.4198    5502.4779       0.0580
