~VERSION INFORMATION
VERS.           2.0   :CWLS Log ASCII Standard - VERSION 2.0
WRAP.           NO    :One Line per depth step
PROD.  Schlumberger   :LAS Producer
PROG.  DLIS to ASCII 2.2                               :LAS Program name and version
CREA.        2020/10/30 12:18                          :LAS Creation date {YYYY/MM/DD hh:mm}
SOURCE.     XPT_HRLA_TLD_MCFL_051LTP.DLIS              :DLIS File Name
FILE-ID.     XPT_HRLA_TLD_MCFL_051LTP                  :File Identification Number
#--------------------------------------------------
~WELL INFORMATION
#MNEM.UNIT      DATA             DESCRIPTION
#---- ------ --------------   -----------------------------
STRT .S         3209.0       :START TIME      
STOP .S         3664.0       :STOP TIME      
STEP .S            1.0       :STEP     
NULL .          -999.25      :NULL VALUE
COMP .        Nexus Energy                             :COMPANY
WELL .        Crux-3                                   :WELL
FLD  .        Crux                                     :FIELD
LOC  .        Easting: 656981.7mE                      :LOCATION
CNTY .        Sedco-703                                :COUNTY
STAT .        Northern Territory                       :STATE
CTRY .        Australia                                :COUNTRY
API  .                                                 :API NUMBER
UWI  .                                                 :UNIQUE WELL ID
DATE .        31-Dec-2007                              :LOG DATE {DD-MMM-YYYY}
SRVC .        Schlumberger                             :SERVICE COMPANY
LATI .DEG     12*57'32.63" S                           :LATITUDE
LONG .DEG     124*26'50.07" E                          :LONGITUDE
GDAT .                                                 :GeoDetic Datum
#-----------------------------------------------------------------------------
~PARAMETER INFORMATION
#MNEM.UNIT    VALUE                      DESCRIPTION
#---- -----   --------------------       ------------------------
RUN  .          1                        :RUN NUMBER
PDAT .        LAT                        :Permanent Datum
EPD  .M           0.000000               :Elevation of Permanent Datum above Mean Sea Level
EPD  .M           0.000000               :Elevation of tool zero above Mean Sea Level
LMF  .          DF                       :Logging Measured From (Name of Logging Elevation Reference)
APD  .M          26.400000               :Elevation of Depth Reference (LMF) above Permanent Datum
#-----------------------------------------------------------------------------
~CURVE INFORMATION
#MNEM.UNIT   API CODE                                  DESCRIPTION
#---- -----  --------                                  -----------------------
TIME .S                                                :TIME {F10.1}
TENS_SL.LBF                                            :Cable Tension {F13.4}
DEPT_SL..1IN                                           :Station logging depth {F13.4}
PDEP_XPT.M                                             :XPT Probe Depth {F13.4}
MTEP_SAP.DEGC                                          :Sapphire Gauge Manometer Temperature {F13.4}
MTEP_HYD.DEGC                                          :Hydrostatic Sapphire Gauge Manometer Temperature {F13.4}
PCO_HYD.PSI                                            :Hydrostatic Sapphire Dynamic Compensation {F13.4}
PND_HYD.PSI                                            :Hydrostatic Sapphire Pressure Without Dynamic Compensation {F13.4}
CP_HYD.PSI                                             :Hydrostatic Sapphire Pressure With Dynamic Compensation {F13.4}
MTEP_QG.DEGC                                           :CQG Manometer Temperature {F13.4}
PTNO_XPT.                                              :XPT Pretest Number {I11}
ETIM_XPT.S                                             :Elapsed Logging Time {F13.4}
PCO_SAP.PSI                                            :Sapphire Dynamic Compensation {F13.4}
PND_SAP.PSI                                            :Sapphire Pressure Without Dynamic Compensation {F13.4}
CP_SAP.PSI                                             :Sapphire Pressure With Dynamic Compensation {F13.4}
QNDP .PSI                                              :CQG Pressure Without Dynamic Compensation {F13.4}
QCP  .PSI                                              :CQG Pressure With Dynamic Compensation {F13.4}
QPCO .PSI                                              :CQG Dynamic Compensation {F13.4}
#-----------------------------------------------------------------------------
# 
#     TIME      TENS_SL      DEPT_SL      PDEP_XPT     MTEP_SAP     MTEP_HYD     PCO_HYD      PND_HYD       CP_HYD      MTEP_QG       PTNO_XPT       ETIM_XPT     PCO_SAP      PND_SAP       CP_SAP        QNDP         QCP          QPCO
#
~A  
# ...
    3454.0    5027.2120 1496497.0000    3799.4934     125.1904     125.8028       0.0291    6181.4421    6181.4713     125.4716         16     245.0840       0.0213    5573.2115    5573.2329    5570.1252    5570.4875       0.3626
    3455.0    4968.7000 1496497.0000    3799.4934     125.1927     125.8042       0.0267    6181.4541    6181.4807     125.4727         16     246.0840       0.0246    5573.5322    5573.5569    5570.2464    5570.6049       0.3584
    3456.0    4902.0160 1496497.0000    3799.4934     125.1913     125.8048       0.0237    6181.4603    6181.4841     125.4738         16     247.0840       0.0276    5573.5309    5573.5584    5570.3567    5570.7119       0.3552
    3457.0    4925.5960 1496497.0000    3799.4934     125.1922     125.8043       0.0214    6181.4610    6181.4825     125.4749         16     248.0840       0.0300    5573.6444    5573.6741    5570.4457    5570.7987       0.3529
    3458.0    4938.6320 1496497.0000    3799.4934     125.1938     125.8050       0.0198    6181.6426    6181.6625     125.4760         16     249.0840       0.0312    5573.6641    5573.6954    5570.5494    5570.9004       0.3510
    3459.0    4896.2920 1496497.0000    3799.4934     125.1945     125.8052       0.0185    6181.5846    6181.6032     125.4772         16     250.0840       0.0309    5573.8038    5573.8348    5570.6365    5570.9855       0.3490
    3460.0    4961.3920 1496497.0000    3799.4934     125.1938     125.8065       0.0179    6181.5970    6181.6151     125.4782         16     251.0840       0.0302    5573.9268    5573.9571    5570.7151    5571.0623       0.3473
    3461.0    5039.8160 1496497.0000    3799.4934     125.1958     125.8071       0.0181    6181.5878    6181.6059     125.4794         16     252.0840       0.0299    5573.9849    5574.0147    5570.8006    5571.1471       0.3464
    3462.0    5018.1840 1496497.0000    3799.4934     125.1958     125.8058       0.0186    6181.4891    6181.5077     125.4806         16     253.0840       0.0301    5574.1068    5574.1371    5570.8793    5571.2247       0.3452
    3463.0    5041.6640 1496497.0000    3799.4934     125.1955     125.8073       0.0191    6181.3715    6181.3905     125.4814         16     254.0840       0.0307    5574.0078    5574.0386    5570.9455    5571.2887       0.3433
    3464.0    5039.5120 1496497.0000    3799.4934     125.1958     125.8065       0.0204    6181.3584    6181.3787     125.4825         16     255.0840       0.0324    5574.1084    5574.1409    5571.0115    5571.3525       0.3408
    3465.0    5048.4400 1496497.0000    3799.4934     125.1977     125.8083       0.0223    6181.4142    6181.4365     125.4836         16     256.0840       0.0341    5574.2766    5574.3106    5571.0844    5571.4237       0.3394
    3466.0    4962.3040 1496497.0000    3799.4934     125.1979     125.8080       0.0251    6181.3779    6181.4028     125.4848         16     257.0840       0.0345    5574.2350    5574.2697    5571.1400    5571.4784       0.3383
    3467.0    4924.1840 1496497.0000    3799.4934     125.1977     125.8076       0.0270    6181.4733    6181.5003     125.4860         16     258.0840       0.0325    5574.3149    5574.3473    5571.2019    5571.5392       0.3372
    3468.0    4949.0920 1496497.0000    3799.4934     125.1997     125.8100       0.0285    6181.5403    6181.5689     125.4869         16     259.0840       0.0296    5574.3782    5574.4079    5571.2525    5571.5887       0.3361
    3469.0    4956.8000 1496497.0000    3799.4934     125.1984     125.8088       0.0298    6181.5630    6181.5927     125.4882         16     260.0840       0.0274    5574.5009    5574.5283    5571.3080    5571.6435       0.3355
    3470.0    4914.7800 1496497.0000    3799.4934     125.2008     125.8112       0.0302    6181.6153    6181.6456     125.4893         16     261.0840       0.0261    5574.4355    5574.4617    5571.3487    5571.6840       0.3351
    3471.0    4961.1240 1496497.0000    3799.4934     125.2011     125.8105       0.0288    6181.5211    6181.5498     125.4902         16     262.0840       0.0248    5574.6165    5574.6411    5571.3911    5571.7256       0.3345
    3472.0    5017.2520 1496497.0000    3799.4934     125.2002     125.8114       0.0255    6181.4992    6181.5246     125.4912         16     263.0840       0.0237    5574.5292    5574.5531    5571.4320    5571.7655       0.3336
    3473.0    5020.1680 1496497.0000    3799.4934     125.2012     125.8109       0.0225    6181.4922    6181.5146     125.4925         16     264.0840       0.0240    5574.5983    5574.6224    5571.4688    5571.8012       0.3325
    3474.0    5023.0920 1496497.0000    3799.4934     125.2024     125.8115       0.0211    6181.4235    6181.4445     125.4935         16     265.0840       0.0263    5574.6870    5574.7132    5571.5067    5571.8382       0.3315
    3475.0    5033.4880 1496497.0000    3799.4934     125.2027     125.8126       0.0214    6181.4520    6181.4735     125.4946         16     266.0840       0.0295    5574.5816    5574.6109    5571.5431    5571.8737       0.3304
    3476.0    5012.9680 1496497.0000    3799.4934     125.2022     125.8129       0.0231    6181.4479    6181.4712     125.4956         16     267.0840       0.0320    5574.6441    5574.6762    5571.5740    5571.9034       0.3292
    3477.0    4965.6400 1496497.0000    3799.4934     125.2042     125.8123       0.0271    6181.4572    6181.4844     125.4965         16     268.0840       0.0339    5574.7525    5574.7865    5571.6067    5571.9350       0.3284
    3478.0    4928.5800 1496497.0000    3799.4934     125.2053     125.8141       0.0334    6181.4677    6181.5013     125.4976         16     269.0840       0.0354    5574.8048    5574.8400    5571.6373    5571.9655       0.3280
    3479.0    4925.1760 1496497.0000    3799.4934     125.2052     125.8136       0.0388    6181.4777    6181.5165     125.4989         16     270.0840       0.0356    5574.6925    5574.7280    5571.6685    5571.9961       0.3277
    3480.0    4940.1000 1496497.0000    3799.4934     125.2051     125.8146       0.0402    6181.5046    6181.5448     125.4997         16     271.0840       0.0342    5574.7962    5574.8306    5571.6911    5572.0179       0.3269
    3481.0    4966.1920 1496497.0000    3799.4934     125.2058     125.8163       0.0378    6181.5767    6181.6144     125.5005         16     272.0840       0.0330    5574.8386    5574.8718    5571.7178    5572.0435       0.3257
    3482.0    5003.5200 1496497.0000    3799.4934     125.2075     125.8179       0.0337    6181.5400    6181.5738     125.5017         16     273.0840       0.0334    5574.9666    5574.9998    5571.7404    5572.0651       0.3248
    3483.0    5030.8320 1496497.0000    3799.4934     125.2076     125.8182       0.0283    6181.5801    6181.6082     125.5027         16     274.0840       0.0328    5574.8283    5574.8612    5571.7628    5572.0867       0.3240
    3484.0    5026.5640 1496497.0000    3799.4934     125.2063     125.8178       0.0219    6181.4759    6181.4980     125.5039         16     275.0840       0.0297    5574.8761    5574.9059    5571.7903    5572.1136       0.3234
    3485.0    4997.9000 1496497.0000    3799.4934     125.2096     125.8179       0.0173    6181.4199    6181.4374     125.5049         16     276.0840       0.0260    5575.0014    5575.0275    5571.8039    5572.1262       0.3224
    3486.0    4969.5400 1496497.0000    3799.4934     125.2100     125.8185       0.0176    6181.4866    6181.5043     125.5059         16     277.0840       0.0242    5574.9575    5574.9817    5571.8226    5572.1446       0.3219
    3487.0    4910.5040 1496497.0000    3799.4934     125.2095     125.8179       0.0212    6181.4800    6181.5014     125.5068         16     278.0840       0.0237    5574.9977    5575.0211    5571.8401    5572.1618       0.3216
    3488.0    4915.4960 1496497.0000    3799.4934     125.2085     125.8187       0.0246    6181.4450    6181.4697     125.5081         16     279.0840       0.0230    5574.8880    5574.9110    5571.8576    5572.1781       0.3205
