~VERSION INFORMATION
VERS.           2.0   :CWLS Log ASCII Standard - VERSION 2.0
WRAP.           NO    :One Line per depth step
PROD.  Schlumberger   :LAS Producer
PROG.  DLIS to ASCII 2.2                               :LAS Program name and version
CREA.        2020/10/30 12:18                          :LAS Creation date {YYYY/MM/DD hh:mm}
SOURCE.     XPT_HRLA_TLD_MCFL_068LTP.DLIS              :DLIS File Name
FILE-ID.     XPT_HRLA_TLD_MCFL_068LTP                  :File Identification Number
#--------------------------------------------------
~WELL INFORMATION
#MNEM.UNIT      DATA             DESCRIPTION
#---- ------ --------------   -----------------------------
STRT .S           82.0       :START TIME      
STOP .S          488.0       :STOP TIME      
STEP .S            1.0       :STEP     
NULL .          -999.25      :NULL VALUE
COMP .        Nexus Energy                             :COMPANY
WELL .        Crux-3                                   :WELL
FLD  .        Crux                                     :FIELD
LOC  .        Easting: 656981.7mE                      :LOCATION
CNTY .        Sedco-703                                :COUNTY
STAT .        Northern Territory                       :STATE
CTRY .        Australia                                :COUNTRY
API  .                                                 :API NUMBER
UWI  .                                                 :UNIQUE WELL ID
DATE .        31-Dec-2007                              :LOG DATE {DD-MMM-YYYY}
SRVC .        Schlumberger                             :SERVICE COMPANY
LATI .DEG     12*57'32.63" S                           :LATITUDE
LONG .DEG     124*26'50.07" E                          :LONGITUDE
GDAT .                                                 :GeoDetic Datum
#-----------------------------------------------------------------------------
~PARAMETER INFORMATION
#MNEM.UNIT    VALUE                      DESCRIPTION
#---- -----   --------------------       ------------------------
RUN  .          1                        :RUN NUMBER
PDAT .        LAT                        :Permanent Datum
EPD  .M           0.000000               :Elevation of Permanent Datum above Mean Sea Level
EPD  .M           0.000000               :Elevation of tool zero above Mean Sea Level
LMF  .          DF                       :Logging Measured From (Name of Logging Elevation Reference)
APD  .M          26.400000               :Elevation of Depth Reference (LMF) above Permanent Datum
#-----------------------------------------------------------------------------
~CURVE INFORMATION
#MNEM.UNIT   API CODE                                  DESCRIPTION
#---- -----  --------                                  -----------------------
TIME .S                                                :TIME {F10.1}
TENS_SL.LBF                                            :Cable Tension {F13.4}
DEPT_SL..1IN                                           :Station logging depth {F13.4}
PDEP_XPT.M                                             :XPT Probe Depth {F13.4}
MTEP_SAP.DEGC                                          :Sapphire Gauge Manometer Temperature {F13.4}
MTEP_HYD.DEGC                                          :Hydrostatic Sapphire Gauge Manometer Temperature {F13.4}
PCO_HYD.PSI                                            :Hydrostatic Sapphire Dynamic Compensation {F13.4}
PND_HYD.PSI                                            :Hydrostatic Sapphire Pressure Without Dynamic Compensation {F13.4}
CP_HYD.PSI                                             :Hydrostatic Sapphire Pressure With Dynamic Compensation {F13.4}
MTEP_QG.DEGC                                           :CQG Manometer Temperature {F13.4}
PTNO_XPT.                                              :XPT Pretest Number {I11}
ETIM_XPT.S                                             :Elapsed Logging Time {F13.4}
PCO_SAP.PSI                                            :Sapphire Dynamic Compensation {F13.4}
PND_SAP.PSI                                            :Sapphire Pressure Without Dynamic Compensation {F13.4}
CP_SAP.PSI                                             :Sapphire Pressure With Dynamic Compensation {F13.4}
QNDP .PSI                                              :CQG Pressure Without Dynamic Compensation {F13.4}
QCP  .PSI                                              :CQG Pressure With Dynamic Compensation {F13.4}
QPCO .PSI                                              :CQG Dynamic Compensation {F13.4}
#-----------------------------------------------------------------------------
# 
#     TIME      TENS_SL      DEPT_SL      PDEP_XPT     MTEP_SAP     MTEP_HYD     PCO_HYD      PND_HYD       CP_HYD      MTEP_QG       PTNO_XPT       ETIM_XPT     PCO_SAP      PND_SAP       CP_SAP        QNDP         QCP          QPCO
#
~A  
# ...
     327.0    4958.9779 1566781.0000    3978.0146     132.9421     133.5905       0.0519    6464.7339    6464.7857     133.3043         33     245.1413       0.0401    5730.7383    5730.7784    5727.8296    5728.2362       0.4067
     328.0    4966.6203 1566781.0000    3978.0146     132.9418     133.5904       0.0520    6464.6121    6464.6641     133.3056         33     246.1413       0.0414    5730.7769    5730.8184    5727.8366    5728.2417       0.4052
     329.0    4938.3046 1566781.0000    3978.0146     132.9405     133.5927       0.0506    6464.7955    6464.8460     133.3067         33     247.1413       0.0422    5730.8307    5730.8731    5727.8417    5728.2451       0.4032
     330.0    4929.6954 1566781.0000    3978.0146     132.9426     133.5943       0.0475    6464.8359    6464.8836     133.3080         33     248.1413       0.0428    5730.7389    5730.7814    5727.8366    5728.2379       0.4013
     331.0    4952.8566 1566781.0000    3978.0146     132.9451     133.5933       0.0422    6464.7037    6464.7460     133.3091         33     249.1413       0.0436    5730.8862    5730.9296    5727.8484    5728.2483       0.3998
     332.0    5025.7726 1566781.0000    3978.0146     132.9449     133.5948       0.0375    6464.6652    6464.7026     133.3106         33     250.1413       0.0436    5730.8161    5730.8596    5727.8564    5728.2549       0.3984
     333.0    5001.4879 1566781.0000    3978.0146     132.9465     133.5964       0.0356    6464.6159    6464.6516     133.3116         33     251.1413       0.0435    5730.8176    5730.8610    5727.8490    5728.2460       0.3968
     334.0    5049.5431 1566781.0000    3978.0146     132.9467     133.5954       0.0350    6464.5157    6464.5506     133.3127         33     252.1413       0.0439    5730.8012    5730.8451    5727.8574    5728.2527       0.3951
     335.0    5063.7285 1566781.0000    3978.0146     132.9500     133.5965       0.0342    6464.5499    6464.5841     133.3143         33     253.1413       0.0435    5730.8739    5730.9174    5727.8652    5728.2593       0.3943
     336.0    5047.3818 1566781.0000    3978.0146     132.9475     133.5986       0.0329    6464.6967    6464.7294     133.3153         33     254.1413       0.0416    5730.8182    5730.8596    5727.8651    5728.2590       0.3938
     337.0    4987.2295 1566781.0000    3978.0146     132.9505     133.5981       0.0331    6464.6343    6464.6675     133.3164         33     255.1413       0.0402    5730.8498    5730.8901    5727.8702    5728.2633       0.3930
     338.0    4945.0861 1566781.0000    3978.0146     132.9506     133.5975       0.0346    6464.5666    6464.6011     133.3175         33     256.1413       0.0408    5730.8303    5730.8713    5727.8725    5728.2647       0.3924
     339.0    4969.0772 1566781.0000    3978.0146     132.9510     133.5977       0.0373    6464.5862    6464.6235     133.3190         33     257.1413       0.0416    5730.8053    5730.8468    5727.8743    5728.2659       0.3916
     340.0    4927.4238 1566781.0000    3978.0146     132.9506     133.5981       0.0400    6464.6343    6464.6743     133.3198         33     258.1413       0.0404    5730.7812    5730.8215    5727.8743    5728.2654       0.3911
     341.0    4932.9669 1566781.0000    3978.0146     132.9525     133.6004       0.0428    6464.6592    6464.7021     133.3212         33     259.1413       0.0398    5730.7933    5730.8332    5727.8767    5728.2670       0.3901
     342.0    4957.3577 1566781.0000    3978.0146     132.9530     133.6007       0.0450    6464.6183    6464.6633     133.3224         33     260.1413       0.0424    5730.7875    5730.8297    5727.8826    5728.2717       0.3889
     343.0    4999.6733 1566781.0000    3978.0146     132.9544     133.6021       0.0454    6464.6308    6464.6763     133.3234         33     261.1413       0.0463    5730.8114    5730.8578    5727.8870    5728.2745       0.3875
     344.0    5022.9890 1566781.0000    3978.0146     132.9534     133.6023       0.0437    6464.6195    6464.6632     133.3250         33     262.1413       0.0480    5730.7877    5730.8355    5727.8876    5728.2743       0.3867
     345.0    5028.8587 1566781.0000    3978.0146     132.9563     133.6042       0.0408    6464.5431    6464.5840     133.3260         33     263.1413       0.0472    5730.8052    5730.8525    5727.8913    5728.2774       0.3861
     346.0    5027.4349 1566781.0000    3978.0146     132.9558     133.6042       0.0384    6464.6396    6464.6780     133.3272         33     264.1413       0.0464    5730.7763    5730.8227    5727.8935    5728.2785       0.3851
     347.0    5023.8587 1566781.0000    3978.0146     132.9580     133.6051       0.0370    6464.6009    6464.6380     133.3284         33     265.1413       0.0463    5730.8296    5730.8760    5727.8966    5728.2809       0.3842
     348.0    5020.7395 1566781.0000    3978.0146     132.9588     133.6057       0.0361    6464.6469    6464.6830     133.3295         33     266.1413       0.0462    5730.7584    5730.8047    5727.9002    5728.2834       0.3831
     349.0    5002.9028 1566781.0000    3978.0146     132.9591     133.6065       0.0353    6464.5750    6464.6104     133.3306         33     267.1413       0.0448    5730.8404    5730.8851    5727.9020    5728.2841       0.3822
     350.0    4976.3046 1566781.0000    3978.0146     132.9592     133.6065       0.0355    6464.5792    6464.6147     133.3319         33     268.1413       0.0423    5730.7991    5730.8413    5727.8982    5728.2792       0.3811
     351.0    4966.0000 1566781.0000    3978.0146     132.9596     133.6077       0.0367    6464.6164    6464.6531     133.3329         33     269.1413       0.0405    5730.7788    5730.8193    5727.9048    5728.2846       0.3797
     352.0    4965.8587 1566781.0000    3978.0146     132.9612     133.6083       0.0385    6464.5312    6464.5695     133.3341         33     270.1413       0.0412    5730.7013    5730.7425    5727.9066    5728.2855       0.3788
     353.0    4968.2495 1566781.0000    3978.0146     132.9619     133.6080       0.0403    6464.6692    6464.7095     133.3352         33     271.1413       0.0437    5730.7312    5730.7750    5727.9072    5728.2856       0.3783
     354.0    4991.5320 1566781.0000    3978.0146     132.9626     133.6103       0.0426    6464.6017    6464.6444     133.3364         33     272.1413       0.0462    5730.7910    5730.8370    5727.9094    5728.2873       0.3779
     355.0    5013.4238 1566781.0000    3978.0146     132.9624     133.6099       0.0454    6464.5513    6464.5967     133.3375         33     273.1413       0.0482    5730.7239    5730.7720    5727.9106    5728.2875       0.3771
     356.0    5014.8697 1566781.0000    3978.0146     132.9643     133.6117       0.0474    6464.6481    6464.6953     133.3389         33     274.1413       0.0504    5730.7526    5730.8032    5727.9106    5728.2862       0.3754
     357.0    5004.6093 1566781.0000    3978.0146     132.9652     133.6118       0.0473    6464.6006    6464.6479     133.3399         33     275.1413       0.0522    5730.7540    5730.8062    5727.9138    5728.2878       0.3739
     358.0    4983.1523 1566781.0000    3978.0146     132.9671     133.6126       0.0452    6464.5769    6464.6220     133.3409         33     276.1413       0.0513    5730.9104    5730.9617    5727.9170    5728.2898       0.3729
     359.0    4978.8477 1566781.0000    3978.0146     132.9674     133.6142       0.0430    6464.6187    6464.6618     133.3424         33     277.1413       0.0473    5730.8284    5730.8755    5727.9152    5728.2874       0.3724
     360.0    4985.2715 1566781.0000    3978.0146     132.9691     133.6147       0.0416    6464.6010    6464.6425     133.3434         33     278.1413       0.0427    5730.8797    5730.9225    5727.9207    5728.2922       0.3717
     361.0    4995.1192 1566781.0000    3978.0146     132.9693     133.6158       0.0410    6464.6439    6464.6849     133.3445         33     279.1413       0.0390    5730.8324    5730.8715    5727.9213    5728.2921       0.3710
