~VERSION INFORMATION
VERS.           2.0   :CWLS Log ASCII Standard - VERSION 2.0
WRAP.           NO    :One Line per depth step
PROD.  Schlumberger   :LAS Producer
PROG.  DLIS to ASCII 2.2                               :LAS Program name and version
CREA.        2020/10/30 12:18                          :LAS Creation date {YYYY/MM/DD hh:mm}
SOURCE.     XPT_HRLA_TLD_MCFL_040LTP.DLIS              :DLIS File Name
FILE-ID.     XPT_HRLA_TLD_MCFL_040LTP                  :File Identification Number
#--------------------------------------------------
~WELL INFORMATION
#MNEM.UNIT      DATA             DESCRIPTION
#---- ------ --------------   -----------------------------
STRT .S          916.0       :START TIME      
STOP .S         1395.0       :STOP TIME      
STEP .S            1.0       :STEP     
NULL .          -999.25      :NULL VALUE
COMP .        Nexus Energy                             :COMPANY
WELL .        Crux-3                                   :WELL
FLD  .        Crux                                     :FIELD
LOC  .        Easting: 656981.7mE                      :LOCATION
CNTY .        Sedco-703                                :COUNTY
STAT .        Northern Territory                       :STATE
CTRY .        Australia                                :COUNTRY
API  .                                                 :API NUMBER
UWI  .                                                 :UNIQUE WELL ID
DATE .        31-Dec-2007                              :LOG DATE {DD-MMM-YYYY}
SRVC .        Schlumberger                             :SERVICE COMPANY
LATI .DEG     12*57'32.63" S                           :LATITUDE
LONG .DEG     124*26'50.07" E                          :LONGITUDE
GDAT .                                                 :GeoDetic Datum
#-----------------------------------------------------------------------------
~PARAMETER INFORMATION
#MNEM.UNIT    VALUE                      DESCRIPTION
#---- -----   --------------------       ------------------------
RUN  .          1                        :RUN NUMBER
PDAT .        LAT                        :Permanent Datum
EPD  .M           0.000000               :Elevation of Permanent Datum above Mean Sea Level
EPD  .M           0.000000               :Elevation of tool zero above Mean Sea Level
LMF  .          DF                       :Logging Measured From (Name of Logging Elevation Reference)
APD  .M          26.400000               :Elevation of Depth Reference (LMF) above Permanent Datum
#-----------------------------------------------------------------------------
~CURVE INFORMATION
#MNEM.UNIT   API CODE                                  DESCRIPTION
#---- -----  --------                                  -----------------------
TIME .S                                                :TIME {F10.1}
TENS_SL.LBF                                            :Cable Tension {F13.4}
DEPT_SL..1IN                                           :Station logging depth {F13.4}
PDEP_XPT.M                                             :XPT Probe Depth {F13.4}
MTEP_SAP.DEGC                                          :Sapphire Gauge Manometer Temperature {F13.4}
MTEP_HYD.DEGC                                          :Hydrostatic Sapphire Gauge Manometer Temperature {F13.4}
PCO_HYD.PSI                                            :Hydrostatic Sapphire Dynamic Compensation {F13.4}
PND_HYD.PSI                                            :Hydrostatic Sapphire Pressure Without Dynamic Compensation {F13.4}
CP_HYD.PSI                                             :Hydrostatic Sapphire Pressure With Dynamic Compensation {F13.4}
MTEP_QG.DEGC                                           :CQG Manometer Temperature {F13.4}
PTNO_XPT.                                              :XPT Pretest Number {I11}
ETIM_XPT.S                                             :Elapsed Logging Time {F13.4}
PCO_SAP.PSI                                            :Sapphire Dynamic Compensation {F13.4}
PND_SAP.PSI                                            :Sapphire Pressure Without Dynamic Compensation {F13.4}
CP_SAP.PSI                                             :Sapphire Pressure With Dynamic Compensation {F13.4}
QNDP .PSI                                              :CQG Pressure Without Dynamic Compensation {F13.4}
QCP  .PSI                                              :CQG Pressure With Dynamic Compensation {F13.4}
QPCO .PSI                                              :CQG Dynamic Compensation {F13.4}
#-----------------------------------------------------------------------------
# 
#     TIME      TENS_SL      DEPT_SL      PDEP_XPT     MTEP_SAP     MTEP_HYD     PCO_HYD      PND_HYD       CP_HYD      MTEP_QG       PTNO_XPT       ETIM_XPT     PCO_SAP      PND_SAP       CP_SAP        QNDP         QCP          QPCO
#
~A  
# ...
    1266.0    4723.4290 1419728.0000    3604.5000     119.1558     119.7144       0.0109    5871.5064    5871.5171     119.7206          6     349.8453       0.0136    5506.4438    5506.4574    5503.4543    5503.5138       0.0594
    1267.0    4745.9050 1419728.0000    3604.5000     119.1543     119.7155       0.0088    5871.4972    5871.5063     119.7207          6     350.8453       0.0105    5506.4429    5506.4535    5503.4521    5503.5109       0.0588
    1268.0    4759.9883 1419728.0000    3604.5000     119.1529     119.7146       0.0077    5871.5150    5871.5228     119.7209          6     351.8453       0.0051    5506.1638    5506.1690    5503.4530    5503.5116       0.0588
    1269.0    4772.1430 1419728.0000    3604.5000     119.1525     119.7138       0.0074    5871.4959    5871.5032     119.7211          6     352.8453       0.0001    5505.9802    5505.9801    5503.4576    5503.5167       0.0589
    1270.0    4769.7738 1419728.0000    3604.5000     119.1566     119.7142       0.0070    5871.5591    5871.5660     119.7214          6     353.8453      -0.0022    5506.3501    5506.3480    5503.4543    5503.5129       0.0586
    1271.0    4717.4397 1419728.0000    3604.5000     119.1554     119.7145       0.0069    5871.5087    5871.5155     119.7216          6     354.8453      -0.0029    5506.4175    5506.4147    5503.4571    5503.5152       0.0580
    1272.0    4674.1900 1419728.0000    3604.5000     119.1521     119.7151       0.0076    5871.5188    5871.5266     119.7218          6     355.8453      -0.0029    5506.2866    5506.2837    5503.4602    5503.5179       0.0576
    1273.0    4666.3095 1419728.0000    3604.5000     119.1534     119.7161       0.0090    5871.6242    5871.6332     119.7219          6     356.8453      -0.0016    5506.0675    5506.0661    5503.4594    5503.5170       0.0576
    1274.0    4668.5358 1419728.0000    3604.5000     119.1547     119.7159       0.0094    5871.6367    5871.6460     119.7221          6     357.8453       0.0022    5506.2123    5506.2144    5503.4580    5503.5156       0.0575
    1275.0    4685.0598 1419728.0000    3604.5000     119.1539     119.7145       0.0085    5871.6129    5871.6212     119.7225          6     358.8453       0.0076    5506.3586    5506.3662    5503.4586    5503.5161       0.0575
    1276.0    4681.2380 1419728.0000    3604.5000     119.1544     119.7159       0.0074    5871.5483    5871.5556     119.7225          6     359.8453       0.0126    5506.3465    5506.3592    5503.4606    5503.5182       0.0576
    1277.0    4692.6788 1419728.0000    3604.5000     119.1542     119.7153       0.0079    5871.5951    5871.6028     119.7226          6     360.8453       0.0149    5506.0479    5506.0630    5503.4589    5503.5170       0.0580
    1278.0    4750.7865 1419728.0000    3604.5000     119.1525     119.7166       0.0107    5871.5939    5871.6048     119.7227          6     361.8453       0.0145    5506.0402    5506.0548    5503.4619    5503.5200       0.0582
    1279.0    4761.0000 1419728.0000    3604.5000     119.1558     119.7163       0.0141    5871.5793    5871.5934     119.7231          6     362.8453       0.0130    5506.2670    5506.2799    5503.4665    5503.5241       0.0578
    1280.0    4743.2497 1419728.0000    3604.5000     119.1579     119.7163       0.0159    5871.5574    5871.5734     119.7233          6     363.8453       0.0123    5506.4429    5506.4552    5503.4672    5503.5244       0.0573
    1281.0    4740.0000 1419728.0000    3604.5000     119.1544     119.7158       0.0156    5871.4568    5871.4725     119.7237          6     364.8453       0.0112    5506.3622    5506.3734    5503.4701    5503.5272       0.0572
    1282.0    4752.6788 1419728.0000    3604.5000     119.1538     119.7174       0.0149    5871.4921    5871.5070     119.7237          6     365.8453       0.0085    5506.0800    5506.0884    5503.4678    5503.5254       0.0577
    1283.0    4747.3928 1419728.0000    3604.5000     119.1559     119.7178       0.0141    5871.5730    5871.5872     119.7237          6     366.8453       0.0053    5506.1446    5506.1496    5503.4642    5503.5223       0.0580
    1284.0    4685.1420 1419728.0000    3604.5000     119.1590     119.7180       0.0118    5871.5651    5871.5771     119.7241          6     367.8453       0.0032    5506.4749    5506.4782    5503.4674    5503.5255       0.0579
    1285.0    4659.6308 1419728.0000    3604.5000     119.1556     119.7176       0.0073    5871.6342    5871.6413     119.7242          6     368.8453       0.0021    5506.3626    5506.3645    5503.4687    5503.5266       0.0579
    1286.0    4643.4760 1419728.0000    3604.5000     119.1568     119.7177       0.0028    5871.6174    5871.6201     119.7244          6     369.8453       0.0007    5506.2708    5506.2714    5503.4704    5503.5285       0.0581
    1287.0    4630.8570 1419728.0000    3604.5000     119.1551     119.7181       0.0017    5871.6602    5871.6617     119.7244          6     370.8453      -0.0009    5506.1058    5506.1048    5503.4692    5503.5274       0.0582
    1288.0    4645.9050 1419728.0000    3604.5000     119.1556     119.7181       0.0040    5871.6395    5871.6434     119.7249          6     371.8453      -0.0021    5506.1726    5506.1707    5503.4716    5503.5297       0.0581
    1289.0    4664.2145 1419728.0000    3604.5000     119.1561     119.7180       0.0078    5871.5992    5871.6068     119.7248          6     372.8453      -0.0011    5506.4562    5506.4552    5503.4738    5503.5319       0.0579
    1290.0    4708.4173 1419728.0000    3604.5000     119.1567     119.7189       0.0109    5871.6680    5871.6788     119.7251          6     373.8453       0.0020    5506.2272    5506.2293    5503.4681    5503.5257       0.0576
    1291.0    4750.6552 1419728.0000    3604.5000     119.1544     119.7179       0.0126    5871.5486    5871.5613     119.7253          6     374.8453       0.0056    5506.1049    5506.1105    5503.4728    5503.5304       0.0575
    1292.0    4757.0000 1419728.0000    3604.5000     119.1539     119.7182       0.0131    5871.4930    5871.5062     119.7256          6     375.8453       0.0083    5506.1299    5506.1381    5503.4706    5503.5277       0.0571
    1293.0    4758.6905 1419728.0000    3604.5000     119.1582     119.7195       0.0123    5871.5510    5871.5631     119.7257          6     376.8453       0.0105    5506.3506    5506.3609    5503.4716    5503.5287       0.0569
    1294.0    4755.6190 1419728.0000    3604.5000     119.1572     119.7191       0.0105    5871.5064    5871.5169     119.7260          6     377.8453       0.0120    5506.3355    5506.3474    5503.4722    5503.5289       0.0566
    1295.0    4745.7023 1419728.0000    3604.5000     119.1548     119.7190       0.0087    5871.4966    5871.5054     119.7261          6     378.8453       0.0122    5506.1188    5506.1310    5503.4712    5503.5274       0.0564
    1296.0    4735.5475 1419728.0000    3604.5000     119.1570     119.7190       0.0085    5871.5494    5871.5578     119.7261          6     379.8453       0.0107    5506.2172    5506.2278    5503.4740    5503.5307       0.0565
    1297.0    4689.2018 1419728.0000    3604.5000     119.1584     119.7190       0.0109    5871.5500    5871.5607     119.7264          6     380.8453       0.0080    5506.4061    5506.4142    5503.4756    5503.5327       0.0570
    1298.0    4681.0000 1419728.0000    3604.5000     119.1549     119.7197       0.0143    5871.5566    5871.5711     119.7265          6     381.8453       0.0049    5506.2595    5506.2645    5503.4763    5503.5339       0.0577
    1299.0    4654.7972 1419728.0000    3604.5000     119.1553     119.7208       0.0160    5871.6377    5871.6538     119.7268          6     382.8453       0.0042    5506.0318    5506.0359    5503.4813    5503.5389       0.0577
    1300.0    4650.0000 1419728.0000    3604.5000     119.1584     119.7204       0.0156    5871.7432    5871.7586     119.7271          6     383.8453       0.0073    5506.2670    5506.2743    5503.4783    5503.5354       0.0570
