~VERSION INFORMATION
VERS.           2.0   :CWLS Log ASCII Standard - VERSION 2.0
WRAP.           NO    :One Line per depth step
PROD.  Schlumberger   :LAS Producer
PROG.  DLIS to ASCII 2.2                               :LAS Program name and version
CREA.        2020/10/30 12:18                          :LAS Creation date {YYYY/MM/DD hh:mm}
SOURCE.     XPT_HRLA_TLD_MCFL_045LTP.DLIS              :DLIS File Name
FILE-ID.     XPT_HRLA_TLD_MCFL_045LTP                  :File Identification Number
#--------------------------------------------------
~WELL INFORMATION
#MNEM.UNIT      DATA             DESCRIPTION
#---- ------ --------------   -----------------------------
STRT .S         3688.0       :START TIME      
STOP .S         4251.0       :STOP TIME      
STEP .S            1.0       :STEP     
NULL .          -999.25      :NULL VALUE
COMP .        Nexus Energy                             :COMPANY
WELL .        Crux-3                                   :WELL
FLD  .        Crux                                     :FIELD
LOC  .        Easting: 656981.7mE                      :LOCATION
CNTY .        Sedco-703                                :COUNTY
STAT .        Northern Territory                       :STATE
CTRY .        Australia                                :COUNTRY
API  .                                                 :API NUMBER
UWI  .                                                 :UNIQUE WELL ID
DATE .        31-Dec-2007                              :LOG DATE {DD-MMM-YYYY}
SRVC .        Schlumberger                             :SERVICE COMPANY
LATI .DEG     12*57'32.63" S                           :LATITUDE
LONG .DEG     124*26'50.07" E                          :LONGITUDE
GDAT .                                                 :GeoDetic Datum
#-----------------------------------------------------------------------------
~PARAMETER INFORMATION
#MNEM.UNIT    VALUE                      DESCRIPTION
#---- -----   --------------------       ------------------------
RUN  .          1                        :RUN NUMBER
PDAT .        LAT                        :Permanent Datum
EPD  .M           0.000000               :Elevation of Permanent Datum above Mean Sea Level
EPD  .M           0.000000               :Elevation of tool zero above Mean Sea Level
LMF  .          DF                       :Logging Measured From (Name of Logging Elevation Reference)
APD  .M          26.400000               :Elevation of Depth Reference (LMF) above Permanent Datum
#-----------------------------------------------------------------------------
~CURVE INFORMATION
#MNEM.UNIT   API CODE                                  DESCRIPTION
#---- -----  --------                                  -----------------------
TIME .S                                                :TIME {F10.1}
TENS_SL.LBF                                            :Cable Tension {F13.4}
DEPT_SL..1IN                                           :Station logging depth {F13.4}
PDEP_XPT.M                                             :XPT Probe Depth {F13.4}
MTEP_SAP.DEGC                                          :Sapphire Gauge Manometer Temperature {F13.4}
MTEP_HYD.DEGC                                          :Hydrostatic Sapphire Gauge Manometer Temperature {F13.4}
PCO_HYD.PSI                                            :Hydrostatic Sapphire Dynamic Compensation {F13.4}
PND_HYD.PSI                                            :Hydrostatic Sapphire Pressure Without Dynamic Compensation {F13.4}
CP_HYD.PSI                                             :Hydrostatic Sapphire Pressure With Dynamic Compensation {F13.4}
MTEP_QG.DEGC                                           :CQG Manometer Temperature {F13.4}
PTNO_XPT.                                              :XPT Pretest Number {I11}
ETIM_XPT.S                                             :Elapsed Logging Time {F13.4}
PCO_SAP.PSI                                            :Sapphire Dynamic Compensation {F13.4}
PND_SAP.PSI                                            :Sapphire Pressure Without Dynamic Compensation {F13.4}
CP_SAP.PSI                                             :Sapphire Pressure With Dynamic Compensation {F13.4}
QNDP .PSI                                              :CQG Pressure Without Dynamic Compensation {F13.4}
QCP  .PSI                                              :CQG Pressure With Dynamic Compensation {F13.4}
QPCO .PSI                                              :CQG Dynamic Compensation {F13.4}
#-----------------------------------------------------------------------------
# 
#     TIME      TENS_SL      DEPT_SL      PDEP_XPT     MTEP_SAP     MTEP_HYD     PCO_HYD      PND_HYD       CP_HYD      MTEP_QG       PTNO_XPT       ETIM_XPT     PCO_SAP      PND_SAP       CP_SAP        QNDP         QCP          QPCO
#
~A  
# ...
    4038.0    4895.2050 1440603.0000    3657.5227     121.8461     122.3816      -0.0118    5955.5322    5955.5205     122.4713          8     350.0725      -0.0125    5524.7528    5524.7403    5522.0467    5522.0266      -0.0202
    4039.0    4948.4925 1440603.0000    3657.5227     121.8460     122.3800      -0.0136    5955.4234    5955.4097     122.4712          8     351.0725      -0.0157    5524.6781    5524.6623    5522.0598    5522.0393      -0.0203
    4040.0    4943.3775 1440603.0000    3657.5227     121.8458     122.3808      -0.0149    5955.3632    5955.3483     122.4712          8     352.0725      -0.0172    5524.6129    5524.5958    5522.0675    5522.0470      -0.0204
    4041.0    4962.0150 1440603.0000    3657.5227     121.8405     122.3801      -0.0146    5955.2455    5955.2308     122.4711          8     353.0725      -0.0168    5524.5222    5524.5056    5522.0792    5522.0583      -0.0208
    4042.0    4974.9275 1440603.0000    3657.5227     121.8438     122.3803      -0.0117    5955.3897    5955.3779     122.4711          8     354.0725      -0.0136    5524.6713    5524.6575    5522.0892    5522.0678      -0.0216
    4043.0    4967.3300 1440603.0000    3657.5227     121.8428     122.3797      -0.0072    5955.3774    5955.3702     122.4709          8     355.0725      -0.0083    5524.6714    5524.6629    5522.0978    5522.0755      -0.0222
    4044.0    4880.6950 1440603.0000    3657.5227     121.8429     122.3803      -0.0034    5955.4206    5955.4171     122.4708          8     356.0725      -0.0048    5524.6537    5524.6488    5522.1083    5522.0858      -0.0226
    4045.0    4861.6075 1440603.0000    3657.5227     121.8443     122.3797      -0.0020    5955.4805    5955.4785     122.4708          8     357.0725      -0.0054    5524.6834    5524.6779    5522.1184    5522.0959      -0.0222
    4046.0    4831.8700 1440603.0000    3657.5227     121.8437     122.3791      -0.0021    5955.5168    5955.5149     122.4708          8     358.0725      -0.0089    5524.7164    5524.7075    5522.1274    5522.1057      -0.0216
    4047.0    4842.1300 1440603.0000    3657.5227     121.8449     122.3806      -0.0029    5955.6141    5955.6112     122.4708          8     359.0725      -0.0124    5524.7798    5524.7672    5522.1432    5522.1217      -0.0213
    4048.0    4835.6400 1440603.0000    3657.5227     121.8426     122.3805      -0.0042    5955.6675    5955.6633     122.4706          8     360.0725      -0.0152    5524.7359    5524.7207    5522.1417    5522.1202      -0.0215
    4049.0    4897.5375 1440603.0000    3657.5227     121.8425     122.3785      -0.0070    5955.5404    5955.5335     122.4706          8     361.0725      -0.0164    5524.7420    5524.7256    5522.1500    5522.1286      -0.0216
    4050.0    4931.4500 1440603.0000    3657.5227     121.8421     122.3797      -0.0096    5955.5370    5955.5273     122.4706          8     362.0725      -0.0151    5524.7039    5524.6887    5522.1540    5522.1325      -0.0214
    4051.0    4951.6675 1440603.0000    3657.5227     121.8407     122.3790      -0.0101    5955.4054    5955.3953     122.4706          8     363.0725      -0.0127    5524.7108    5524.6979    5522.1571    5522.1360      -0.0213
    4052.0    4972.4200 1440603.0000    3657.5227     121.8419     122.3794      -0.0087    5955.3690    5955.3603     122.4703          8     364.0725      -0.0113    5524.7132    5524.7020    5522.1658    5522.1438      -0.0219
    4053.0    4961.8825 1440603.0000    3657.5227     121.8427     122.3790      -0.0060    5955.4694    5955.4635     122.4701          8     365.0725      -0.0119    5524.8277    5524.8155    5522.1753    5522.1524      -0.0228
    4054.0    4917.4325 1440603.0000    3657.5227     121.8407     122.3782      -0.0030    5955.4647    5955.4615     122.4701          8     366.0725      -0.0132    5524.7253    5524.7121    5522.1820    5522.1586      -0.0233
    4055.0    4858.2025 1440603.0000    3657.5227     121.8416     122.3790       0.0002    5955.5322    5955.5323     122.4701          8     367.0725      -0.0137    5524.7515    5524.7378    5522.1846    5522.1609      -0.0236
    4056.0    4849.8850 1440603.0000    3657.5227     121.8424     122.3775       0.0016    5955.4600    5955.4615     122.4701          8     368.0725      -0.0135    5524.8741    5524.8604    5522.1902    5522.1662      -0.0241
    4057.0    4874.0725 1440603.0000    3657.5227     121.8400     122.3794      -0.0004    5955.6391    5955.6388     122.4701          8     369.0725      -0.0132    5524.7502    5524.7370    5522.2005    5522.1761      -0.0243
    4058.0    4871.7375 1440603.0000    3657.5227     121.8398     122.3797      -0.0055    5955.7192    5955.7137     122.4698          8     370.0725      -0.0128    5524.7779    5524.7650    5522.2039    5522.1795      -0.0242
    4059.0    4834.4225 1440603.0000    3657.5227     121.8406     122.3790      -0.0114    5955.6514    5955.6398     122.4697          8     371.0725      -0.0124    5524.7580    5524.7458    5522.2094    5522.1855      -0.0240
    4060.0    4893.6100 1440603.0000    3657.5227     121.8409     122.3796      -0.0156    5955.5688    5955.5534     122.4698          8     372.0725      -0.0114    5524.8108    5524.7996    5522.2100    5522.1865      -0.0236
    4061.0    4928.2325 1440603.0000    3657.5227     121.8401     122.3777      -0.0172    5955.4588    5955.4417     122.4697          8     373.0725      -0.0100    5524.7552    5524.7453    5522.2134    5522.1904      -0.0230
    4062.0    4945.4500 1440603.0000    3657.5227     121.8387     122.3763      -0.0159    5955.3306    5955.3149     122.4696          8     374.0725      -0.0094    5524.8031    5524.7939    5522.2138    5522.1918      -0.0222
    4063.0    4964.5075 1440603.0000    3657.5227     121.8384     122.3771      -0.0119    5955.3787    5955.3668     122.4696          8     375.0725      -0.0096    5524.7497    5524.7399    5522.2222    5522.2002      -0.0221
    4064.0    4969.8400 1440603.0000    3657.5227     121.8390     122.3782      -0.0069    5955.4219    5955.4149     122.4695          8     376.0725      -0.0095    5524.7924    5524.7831    5522.2230    5522.2007      -0.0222
    4065.0    4951.4475 1440603.0000    3657.5227     121.8405     122.3766      -0.0029    5955.3554    5955.3524     122.4692          8     377.0725      -0.0079    5524.9465    5524.9386    5522.2294    5522.2069      -0.0223
    4066.0    4902.3750 1440603.0000    3657.5227     121.8379     122.3782      -0.0013    5955.4047    5955.4034     122.4692          8     378.0725      -0.0067    5524.8134    5524.8067    5522.2357    5522.2133      -0.0226
    4067.0    4855.5650 1440603.0000    3657.5227     121.8378     122.3770      -0.0015    5955.4355    5955.4340     122.4693          8     379.0725      -0.0071    5524.7560    5524.7489    5522.2407    5522.2174      -0.0232
    4068.0    4852.7550 1440603.0000    3657.5227     121.8385     122.3771      -0.0033    5955.4205    5955.4172     122.4691          8     380.0725      -0.0082    5524.8479    5524.8396    5522.2481    5522.2237      -0.0242
    4069.0    4885.2450 1440603.0000    3657.5227     121.8379     122.3767      -0.0057    5955.5982    5955.5926     122.4692          8     381.0725      -0.0085    5524.7597    5524.7514    5522.2484    5522.2240      -0.0244
    4070.0    4849.4925 1440603.0000    3657.5227     121.8373     122.3777      -0.0072    5955.5441    5955.5369     122.4688          8     382.0725      -0.0089    5524.8063    5524.7975    5522.2511    5522.2267      -0.0242
    4071.0    4845.4650 1440603.0000    3657.5227     121.8381     122.3774      -0.0075    5955.5700    5955.5626     122.4690          8     383.0725      -0.0103    5524.8059    5524.7957    5522.2548    5522.2309      -0.0239
    4072.0    4881.6400 1440603.0000    3657.5227     121.8386     122.3767      -0.0074    5955.4639    5955.4566     122.4687          8     384.0725      -0.0113    5524.8421    5524.8307    5522.2545    5522.2307      -0.0237
