~VERSION INFORMATION
VERS.           2.0   :CWLS Log ASCII Standard - VERSION 2.0
WRAP.           NO    :One Line per depth step
PROD.  Schlumberger   :LAS Producer
PROG.  DLIS to ASCII 2.2                               :LAS Program name and version
CREA.        2020/10/30 12:18                          :LAS Creation date {YYYY/MM/DD hh:mm}
SOURCE.     XPT_HRLA_TLD_MCFL_049LTP.DLIS              :DLIS File Name
FILE-ID.     XPT_HRLA_TLD_MCFL_049LTP                  :File Identification Number
#--------------------------------------------------
~WELL INFORMATION
#MNEM.UNIT      DATA             DESCRIPTION
#---- ------ --------------   -----------------------------
STRT .S          815.0       :START TIME      
STOP .S         1341.0       :STOP TIME      
STEP .S            1.0       :STEP     
NULL .          -999.25      :NULL VALUE
COMP .        Nexus Energy                             :COMPANY
WELL .        Crux-3                                   :WELL
FLD  .        Crux                                     :FIELD
LOC  .        Easting: 656981.7mE                      :LOCATION
CNTY .        Sedco-703                                :COUNTY
STAT .        Northern Territory                       :STATE
CTRY .        Australia                                :COUNTRY
API  .                                                 :API NUMBER
UWI  .                                                 :UNIQUE WELL ID
DATE .        31-Dec-2007                              :LOG DATE {DD-MMM-YYYY}
SRVC .        Schlumberger                             :SERVICE COMPANY
LATI .DEG     12*57'32.63" S                           :LATITUDE
LONG .DEG     124*26'50.07" E                          :LONGITUDE
GDAT .                                                 :GeoDetic Datum
#-----------------------------------------------------------------------------
~PARAMETER INFORMATION
#MNEM.UNIT    VALUE                      DESCRIPTION
#---- -----   --------------------       ------------------------
RUN  .          1                        :RUN NUMBER
PDAT .        LAT                        :Permanent Datum
EPD  .M           0.000000               :Elevation of Permanent Datum above Mean Sea Level
EPD  .M           0.000000               :Elevation of tool zero above Mean Sea Level
LMF  .          DF                       :Logging Measured From (Name of Logging Elevation Reference)
APD  .M          26.400000               :Elevation of Depth Reference (LMF) above Permanent Datum
#-----------------------------------------------------------------------------
~CURVE INFORMATION
#MNEM.UNIT   API CODE                                  DESCRIPTION
#---- -----  --------                                  -----------------------
TIME .S                                                :TIME {F10.1}
TENS_SL.LBF                                            :Cable Tension {F13.4}
DEPT_SL..1IN                                           :Station logging depth {F13.4}
PDEP_XPT.M                                             :XPT Probe Depth {F13.4}
MTEP_SAP.DEGC                                          :Sapphire Gauge Manometer Temperature {F13.4}
MTEP_HYD.DEGC                                          :Hydrostatic Sapphire Gauge Manometer Temperature {F13.4}
PCO_HYD.PSI                                            :Hydrostatic Sapphire Dynamic Compensation {F13.4}
PND_HYD.PSI                                            :Hydrostatic Sapphire Pressure Without Dynamic Compensation {F13.4}
CP_HYD.PSI                                             :Hydrostatic Sapphire Pressure With Dynamic Compensation {F13.4}
MTEP_QG.DEGC                                           :CQG Manometer Temperature {F13.4}
PTNO_XPT.                                              :XPT Pretest Number {I11}
ETIM_XPT.S                                             :Elapsed Logging Time {F13.4}
PCO_SAP.PSI                                            :Sapphire Dynamic Compensation {F13.4}
PND_SAP.PSI                                            :Sapphire Pressure Without Dynamic Compensation {F13.4}
CP_SAP.PSI                                             :Sapphire Pressure With Dynamic Compensation {F13.4}
QNDP .PSI                                              :CQG Pressure Without Dynamic Compensation {F13.4}
QCP  .PSI                                              :CQG Pressure With Dynamic Compensation {F13.4}
QPCO .PSI                                              :CQG Dynamic Compensation {F13.4}
#-----------------------------------------------------------------------------
# 
#     TIME      TENS_SL      DEPT_SL      PDEP_XPT     MTEP_SAP     MTEP_HYD     PCO_HYD      PND_HYD       CP_HYD      MTEP_QG       PTNO_XPT       ETIM_XPT     PCO_SAP      PND_SAP       CP_SAP        QNDP         QCP          QPCO
#
~A  
# ...
    1165.0    4637.6012 1451040.0000    3684.0325     122.3360     122.9047       0.0142    5998.5088    5998.5233     122.8771         14     350.4819       0.0123    5534.2433    5534.2555    5531.5422    5531.6413       0.0992
    1166.0    4673.5756 1451040.0000    3684.0325     122.3371     122.9037       0.0172    5998.3862    5998.4034     122.8772         14     351.4819       0.0112    5534.3344    5534.3458    5531.5407    5531.6395       0.0989
    1167.0    4733.7312 1451040.0000    3684.0325     122.3371     122.9032       0.0195    5998.4179    5998.4374     122.8775         14     352.4819       0.0109    5534.2446    5534.2553    5531.5367    5531.6349       0.0983
    1168.0    4770.4819 1451040.0000    3684.0325     122.3386     122.9048       0.0217    5998.3735    5998.3953     122.8777         14     353.4819       0.0115    5534.3769    5534.3887    5531.5353    5531.6336       0.0983
    1169.0    4757.0256 1451040.0000    3684.0325     122.3383     122.9046       0.0248    5998.2641    5998.2891     122.8783         14     354.4819       0.0119    5534.2731    5534.2850    5531.5397    5531.6383       0.0986
    1170.0    4738.6269 1451040.0000    3684.0325     122.3363     122.9077       0.0275    5998.3520    5998.3793     122.8785         14     355.4819       0.0121    5534.2562    5534.2684    5531.5386    5531.6368       0.0983
    1171.0    4729.2175 1451040.0000    3684.0325     122.3370     122.9063       0.0271    5998.3301    5998.3572     122.8789         14     356.4819       0.0133    5534.2763    5534.2896    5531.5426    5531.6401       0.0975
    1172.0    4688.3050 1451040.0000    3684.0325     122.3381     122.9070       0.0225    5998.4575    5998.4798     122.8793         14     357.4819       0.0154    5534.2157    5534.2311    5531.5432    5531.6403       0.0971
    1173.0    4660.1556 1451040.0000    3684.0325     122.3371     122.9070       0.0165    5998.4552    5998.4719     122.8795         14     358.4819       0.0154    5534.2055    5534.2211    5531.5430    5531.6407       0.0978
    1174.0    4654.0981 1451040.0000    3684.0325     122.3381     122.9079       0.0119    5998.3713    5998.3832     122.8797         14     359.4819       0.0128    5534.2454    5534.2583    5531.5444    5531.6427       0.0984
    1175.0    4626.3988 1451040.0000    3684.0325     122.3390     122.9078       0.0093    5998.4834    5998.4929     122.8801         14     360.4819       0.0096    5534.2484    5534.2580    5531.5450    5531.6434       0.0984
    1176.0    4640.0575 1451040.0000    3684.0325     122.3390     122.9078       0.0083    5998.4671    5998.4754     122.8804         14     361.4819       0.0083    5534.2763    5534.2846    5531.5477    5531.6458       0.0979
    1177.0    4691.0938 1451040.0000    3684.0325     122.3387     122.9086       0.0104    5998.5251    5998.5356     122.8810         14     362.4819       0.0082    5534.2461    5534.2544    5531.5461    5531.6438       0.0976
    1178.0    4723.2644 1451040.0000    3684.0325     122.3387     122.9070       0.0154    5998.4148    5998.4302     122.8811         14     363.4819       0.0083    5534.3489    5534.3572    5531.5454    5531.6430       0.0975
    1179.0    4730.4819 1451040.0000    3684.0325     122.3392     122.9081       0.0210    5998.4892    5998.5101     122.8813         14     364.4819       0.0092    5534.2396    5534.2489    5531.5495    5531.6467       0.0970
    1180.0    4746.9019 1451040.0000    3684.0325     122.3414     122.9088       0.0249    5998.3558    5998.3808     122.8816         14     365.4819       0.0113    5534.3615    5534.3729    5531.5497    5531.6459       0.0963
    1181.0    4765.9275 1451040.0000    3684.0325     122.3393     122.9092       0.0266    5998.2774    5998.3041     122.8820         14     366.4819       0.0136    5534.3066    5534.3200    5531.5489    5531.6446       0.0958
    1182.0    4749.2069 1451040.0000    3684.0325     122.3400     122.9111       0.0256    5998.3761    5998.4016     122.8823         14     367.4819       0.0142    5534.3055    5534.3197    5531.5518    5531.6475       0.0959
    1183.0    4685.1494 1451040.0000    3684.0325     122.3405     122.9101       0.0208    5998.4729    5998.4938     122.8826         14     368.4819       0.0138    5534.3537    5534.3674    5531.5518    5531.6481       0.0963
    1184.0    4637.5181 1451040.0000    3684.0325     122.3408     122.9105       0.0147    5998.5539    5998.5686     122.8829         14     369.4819       0.0132    5534.3082    5534.3214    5531.5517    5531.6481       0.0964
    1185.0    4646.1556 1451040.0000    3684.0325     122.3432     122.9116       0.0112    5998.5654    5998.5767     122.8830         14     370.4819       0.0126    5534.4425    5534.4551    5531.5588    5531.6550       0.0960
    1186.0    4659.8550 1451040.0000    3684.0325     122.3391     122.9114       0.0109    5998.6388    5998.6496     122.8837         14     371.4819       0.0117    5534.1738    5534.1855    5531.5540    5531.6497       0.0958
    1187.0    4641.8337 1451040.0000    3684.0325     122.3399     122.9104       0.0120    5998.5160    5998.5280     122.8839         14     372.4819       0.0116    5534.1343    5534.1459    5531.5546    5531.6508       0.0960
    1188.0    4640.1663 1451040.0000    3684.0325     122.3420     122.9112       0.0137    5998.5324    5998.5460     122.8842         14     373.4819       0.0134    5534.2977    5534.3114    5531.5581    5531.6538       0.0957
    1189.0    4706.8869 1451040.0000    3684.0325     122.3407     122.9123       0.0156    5998.4372    5998.4530     122.8843         14     374.4819       0.0153    5534.3173    5534.3325    5531.5506    5531.6458       0.0951
    1190.0    4757.8188 1451040.0000    3684.0325     122.3421     122.9116       0.0161    5998.4893    5998.5054     122.8849         14     375.4819       0.0156    5534.2463    5534.2620    5531.5567    5531.6514       0.0948
    1191.0    4760.1088 1451040.0000    3684.0325     122.3409     122.9120       0.0145    5998.4215    5998.4361     122.8850         14     376.4819       0.0141    5534.1808    5534.1950    5531.5547    5531.6499       0.0954
    1192.0    4742.0619 1451040.0000    3684.0325     122.3424     122.9134       0.0131    5998.4042    5998.4174     122.8852         14     377.4819       0.0123    5534.2432    5534.2556    5531.5543    5531.6505       0.0961
    1193.0    4742.3838 1451040.0000    3684.0325     122.3424     122.9125       0.0135    5998.3356    5998.3491     122.8857         14     378.4819       0.0111    5534.1739    5534.1851    5531.5573    5531.6540       0.0965
    1194.0    4748.4350 1451040.0000    3684.0325     122.3433     122.9124       0.0151    5998.3345    5998.3496     122.8861         14     379.4819       0.0105    5534.1894    5534.1996    5531.5614    5531.6581       0.0967
    1195.0    4684.4394 1451040.0000    3684.0325     122.3428     122.9123       0.0172    5998.3936    5998.4108     122.8863         14     380.4819       0.0105    5534.2571    5534.2674    5531.5635    5531.6606       0.0970
    1196.0    4638.6375 1451040.0000    3684.0325     122.3417     122.9131       0.0198    5998.4614    5998.4811     122.8866         14     381.4819       0.0107    5534.2510    5534.2617    5531.5579    5531.6546       0.0968
    1197.0    4645.6269 1451040.0000    3684.0325     122.3436     122.9146       0.0219    5998.4175    5998.4394     122.8871         14     382.4819       0.0111    5534.2745    5534.2857    5531.5683    5531.6645       0.0961
    1198.0    4631.3988 1451040.0000    3684.0325     122.3440     122.9146       0.0217    5998.5967    5998.6185     122.8873         14     383.4819       0.0116    5534.1898    5534.2015    5531.5659    5531.6610       0.0951
    1199.0    4626.7463 1451040.0000    3684.0325     122.3437     122.9145       0.0202    5998.4840    5998.5042     122.8875         14     384.4819       0.0131    5534.3383    5534.3513    5531.5592    5531.6540       0.0946
