~VERSION INFORMATION
VERS.           2.0   :CWLS Log ASCII Standard - VERSION 2.0
WRAP.           NO    :One Line per depth step
PROD.  Schlumberger   :LAS Producer
PROG.  DLIS to ASCII 2.2                               :LAS Program name and version
CREA.        2020/10/30 12:18                          :LAS Creation date {YYYY/MM/DD hh:mm}
SOURCE.     XPT_HRLA_TLD_MCFL_046LTP.DLIS              :DLIS File Name
FILE-ID.     XPT_HRLA_TLD_MCFL_046LTP                  :File Identification Number
#--------------------------------------------------
~WELL INFORMATION
#MNEM.UNIT      DATA             DESCRIPTION
#---- ------ --------------   -----------------------------
STRT .S         4617.0       :START TIME      
STOP .S         5507.0       :STOP TIME      
STEP .S            1.0       :STEP     
NULL .          -999.25      :NULL VALUE
COMP .        Nexus Energy                             :COMPANY
WELL .        Crux-3                                   :WELL
FLD  .        Crux                                     :FIELD
LOC  .        Easting: 656981.7mE                      :LOCATION
CNTY .        Sedco-703                                :COUNTY
STAT .        Northern Territory                       :STATE
CTRY .        Australia                                :COUNTRY
API  .                                                 :API NUMBER
UWI  .                                                 :UNIQUE WELL ID
DATE .        31-Dec-2007                              :LOG DATE {DD-MMM-YYYY}
SRVC .        Schlumberger                             :SERVICE COMPANY
LATI .DEG     12*57'32.63" S                           :LATITUDE
LONG .DEG     124*26'50.07" E                          :LONGITUDE
GDAT .                                                 :GeoDetic Datum
#-----------------------------------------------------------------------------
~PARAMETER INFORMATION
#MNEM.UNIT    VALUE                      DESCRIPTION
#---- -----   --------------------       ------------------------
RUN  .          1                        :RUN NUMBER
PDAT .        LAT                        :Permanent Datum
EPD  .M           0.000000               :Elevation of Permanent Datum above Mean Sea Level
EPD  .M           0.000000               :Elevation of tool zero above Mean Sea Level
LMF  .          DF                       :Logging Measured From (Name of Logging Elevation Reference)
APD  .M          26.400000               :Elevation of Depth Reference (LMF) above Permanent Datum
#-----------------------------------------------------------------------------
~CURVE INFORMATION
#MNEM.UNIT   API CODE                                  DESCRIPTION
#---- -----  --------                                  -----------------------
TIME .S                                                :TIME {F10.1}
TENS_SL.LBF                                            :Cable Tension {F13.4}
DEPT_SL..1IN                                           :Station logging depth {F13.4}
PDEP_XPT.M                                             :XPT Probe Depth {F13.4}
MTEP_SAP.DEGC                                          :Sapphire Gauge Manometer Temperature {F13.4}
MTEP_HYD.DEGC                                          :Hydrostatic Sapphire Gauge Manometer Temperature {F13.4}
PCO_HYD.PSI                                            :Hydrostatic Sapphire Dynamic Compensation {F13.4}
PND_HYD.PSI                                            :Hydrostatic Sapphire Pressure Without Dynamic Compensation {F13.4}
CP_HYD.PSI                                             :Hydrostatic Sapphire Pressure With Dynamic Compensation {F13.4}
MTEP_QG.DEGC                                           :CQG Manometer Temperature {F13.4}
PTNO_XPT.                                              :XPT Pretest Number {I11}
ETIM_XPT.S                                             :Elapsed Logging Time {F13.4}
PCO_SAP.PSI                                            :Sapphire Dynamic Compensation {F13.4}
PND_SAP.PSI                                            :Sapphire Pressure Without Dynamic Compensation {F13.4}
CP_SAP.PSI                                             :Sapphire Pressure With Dynamic Compensation {F13.4}
QNDP .PSI                                              :CQG Pressure Without Dynamic Compensation {F13.4}
QCP  .PSI                                              :CQG Pressure With Dynamic Compensation {F13.4}
QPCO .PSI                                              :CQG Dynamic Compensation {F13.4}
#-----------------------------------------------------------------------------
# 
#     TIME      TENS_SL      DEPT_SL      PDEP_XPT     MTEP_SAP     MTEP_HYD     PCO_HYD      PND_HYD       CP_HYD      MTEP_QG       PTNO_XPT       ETIM_XPT     PCO_SAP      PND_SAP       CP_SAP        QNDP         QCP          QPCO
#
~A  
# ...
    4687.0    4784.9070 1443523.0000    3664.9392     121.8401     122.3918       0.0000    5967.4287    5967.4287     122.4652          8      69.6870       0.0033    5965.7031    5965.7063    5963.0659    5963.0776       0.0115
    4688.0    4839.0370 1443523.0000    3664.9392     121.8395     122.3920      -0.0016    5967.5502    5967.5484     122.4653          8      70.6870       0.0079    5965.6855    5965.6936    5963.0231    5963.0351       0.0119
    4689.0    4852.2520 1443523.0000    3664.9392     121.8409     122.3918      -0.0031    5967.5444    5967.5415     122.4653          8      71.6870       0.0124    5965.6838    5965.6964    5962.9961    5963.0083       0.0124
    4690.0    4851.0000 1443523.0000    3664.9392     121.8393     122.3917      -0.0038    5967.4189    5967.4150     122.4654          8      72.6870       0.0137    5965.6024    5965.6160    5962.9578    5962.9710       0.0130
    4691.0    4855.1220 1443523.0000    3664.9392     121.8394     122.3918      -0.0023    5967.3680    5967.3656     122.4655          8      73.6870       0.0119    5965.6111    5965.6230    5962.9204    5962.9339       0.0134
    4692.0    4828.1460 1443523.0000    3664.9392     121.8423     122.3919       0.0013    5967.3690    5967.3704     122.4657          8      74.6870       0.0103    5965.7205    5965.7308    5962.9626    5962.9763       0.0136
    4693.0    4767.5970 1443523.0000    3664.9392     121.8412     122.3924       0.0042    5967.4938    5967.4979     122.4656          8      75.6870       0.0104    5965.7648    5965.7752    5963.0245    5963.0377       0.0133
    4694.0    4734.3210 1443523.0000    3664.9392     121.8409     122.3908       0.0042    5967.3948    5967.3989     122.4656          8      76.6870       0.0109    5965.7105    5965.7212    5963.0153    5963.0280       0.0128
    4695.0    4730.3740 1443523.0000    3664.9392     121.8403     122.3911       0.0026    5967.4224    5967.4248     122.4658          8      77.6870       0.0103    5965.8514    5965.8616    5963.1282    5963.1404       0.0121
    4696.0    4715.1990 1443523.0000    3664.9392     121.8417     122.3934       0.0019    5967.6662    5967.6681     122.4657          8      78.6870       0.0099    5965.8887    5965.8985    5963.1740    5963.1857       0.0117
    4697.0    4731.3580 1443523.0000    3664.9392     121.8422     122.3924       0.0015    5967.5347    5967.5361     122.4657          8      79.6870       0.0110    5965.8350    5965.8460    5963.1067    5963.1179       0.0112
    4698.0    4818.2570 1443523.0000    3664.9392     121.8434     122.3918      -0.0001    5967.4287    5967.4287     122.4657          8      80.6870       0.0122    5965.7670    5965.7792    5963.0672    5963.0784       0.0110
    4699.0    4848.8780 1443523.0000    3664.9392     121.8414     122.3918      -0.0021    5967.4033    5967.4012     122.4657          8      81.6870       0.0104    5965.7665    5965.7770    5963.0277    5963.0391       0.0114
    4700.0    4833.2600 1443523.0000    3664.9392     121.8422     122.3918      -0.0014    5967.4137    5967.4124     122.4659          8      82.6870       0.0061    5965.5892    5965.5952    5962.9040    5962.9160       0.0120
    4701.0    4840.7400 1443523.0000    3664.9392     121.8425     122.3926       0.0025    5967.2858    5967.2882     122.4657          8      83.6870       0.0030    5965.5235    5965.5265    5962.8475    5962.8602       0.0124
    4702.0    4862.8010 1443523.0000    3664.9392     121.8430     122.3919       0.0068    5967.2855    5967.2921     122.4660          8      84.6870       0.0030    5965.7058    5965.7088    5962.9749    5962.9876       0.0126
    4703.0    4810.9180 1443523.0000    3664.9392     121.8424     122.3916       0.0086    5967.4165    5967.4251     122.4659          8      85.6870       0.0033    5965.7849    5965.7883    5963.0349    5963.0481       0.0131
    4704.0    4781.9390 1443523.0000    3664.9392     121.8417     122.3922       0.0082    5967.4920    5967.5003     122.4660          8      86.6870       0.0012    5965.7472    5965.7482    5963.0691    5963.0828       0.0136
    4705.0    4745.9630 1443523.0000    3664.9392     121.8421     122.3931       0.0075    5967.5612    5967.5685     122.4661          8      87.6870      -0.0016    5965.9055    5965.9039    5963.1555    5963.1695       0.0140
    4706.0    4723.8170 1443523.0000    3664.9392     121.8426     122.3927       0.0076    5967.6992    5967.7069     122.4663          8      88.6870      -0.0021    5965.9748    5965.9727    5963.2653    5963.2791       0.0138
    4707.0    4717.5650 1443523.0000    3664.9392     121.8439     122.3937       0.0082    5967.6588    5967.6671     122.4664          8      89.6870      -0.0008    5965.9166    5965.9156    5963.1710    5963.1847       0.0136
    4708.0    4724.2440 1443523.0000    3664.9392     121.8411     122.3921       0.0079    5967.5122    5967.5200     122.4660          8      90.6870      -0.0003    5965.7211    5965.7207    5963.1124    5963.1256       0.0133
    4709.0    4801.5090 1443523.0000    3664.9392     121.8413     122.3935       0.0069    5967.5656    5967.5726     122.4662          8      91.6870       0.0002    5965.7615    5965.7618    5963.0717    5963.0848       0.0131
    4710.0    4832.2520 1443523.0000    3664.9392     121.8424     122.3926       0.0058    5967.4395    5967.4453     122.4661          8      92.6870       0.0033    5965.7800    5965.7833    5963.0351    5963.0483       0.0131
    4711.0    4831.0000 1443523.0000    3664.9392     121.8438     122.3949       0.0057    5967.4004    5967.4063     122.4664          8      93.6870       0.0081    5965.6705    5965.6786    5962.9198    5962.9329       0.0131
    4712.0    4814.5120 1443523.0000    3664.9392     121.8427     122.3933       0.0060    5967.2280    5967.2342     122.4663          8      94.6870       0.0106    5965.6441    5965.6548    5962.8879    5962.9010       0.0132
    4713.0    4798.7560 1443523.0000    3664.9392     121.8432     122.3934       0.0061    5967.3285    5967.3348     122.4665          8      95.6870       0.0095    5965.5600    5965.5693    5962.9563    5962.9695       0.0132
    4714.0    4773.7030 1443523.0000    3664.9392     121.8432     122.3926       0.0063    5967.3169    5967.3232     122.4662          8      96.6870       0.0076    5965.7239    5965.7316    5963.0124    5963.0256       0.0132
    4715.0    4750.2600 1443523.0000    3664.9392     121.8435     122.3935       0.0070    5967.5059    5967.5130     122.4664          8      97.6870       0.0072    5965.7936    5965.8009    5963.0466    5963.0600       0.0135
    4716.0    4725.4510 1443523.0000    3664.9392     121.8425     122.3941       0.0085    5967.5692    5967.5775     122.4664          8      98.6870       0.0069    5965.7884    5965.7952    5963.0385    5963.0522       0.0137
    4717.0    4739.6710 1443523.0000    3664.9392     121.8424     122.3948       0.0082    5967.6299    5967.6380     122.4665          8      99.6870       0.0047    5965.8404    5965.8450    5963.1802    5963.1938       0.0135
    4718.0    4720.4590 1443523.0000    3664.9392     121.8430     122.3953       0.0055    5967.6208    5967.6262     122.4667          8     100.6870       0.0018    5965.8241    5965.8258    5963.1279    5963.1416       0.0135
    4719.0    4728.9840 1443523.0000    3664.9392     121.8446     122.3941       0.0021    5967.5716    5967.5736     122.4669          8     101.6870       0.0004    5965.8683    5965.8688    5963.1076    5963.1213       0.0136
    4720.0    4776.0980 1443523.0000    3664.9392     121.8442     122.3962      -0.0002    5967.5337    5967.5336     122.4668          8     102.6870      -0.0000    5965.8181    5965.8181    5963.0647    5963.0783       0.0138
    4721.0    4811.5490 1443523.0000    3664.9392     121.8426     122.3933      -0.0015    5967.4919    5967.4905     122.4669          8     103.6870      -0.0008    5965.7010    5965.7000    5963.0488    5963.0626       0.0139
