~VERSION INFORMATION
VERS.           2.0   :CWLS Log ASCII Standard - VERSION 2.0
WRAP.           NO    :One Line per depth step
PROD.  Schlumberger   :LAS Producer
PROG.  DLIS to ASCII 2.2                               :LAS Program name and version
CREA.        2020/10/30 12:18                          :LAS Creation date {YYYY/MM/DD hh:mm}
SOURCE.     XPT_HRLA_TLD_MCFL_059LTP.DLIS              :DLIS File Name
FILE-ID.     XPT_HRLA_TLD_MCFL_059LTP                  :File Identification Number
#--------------------------------------------------
~WELL INFORMATION
#MNEM.UNIT      DATA             DESCRIPTION
#---- ------ --------------   -----------------------------
STRT .S         8390.0       :START TIME      
STOP .S         8580.0       :STOP TIME      
STEP .S            1.0       :STEP     
NULL .          -999.25      :NULL VALUE
COMP .        Nexus Energy                             :COMPANY
WELL .        Crux-3                                   :WELL
FLD  .        Crux                                     :FIELD
LOC  .        Easting: 656981.7mE                      :LOCATION
CNTY .        Sedco-703                                :COUNTY
STAT .        Northern Territory                       :STATE
CTRY .        Australia                                :COUNTRY
API  .                                                 :API NUMBER
UWI  .                                                 :UNIQUE WELL ID
DATE .        31-Dec-2007                              :LOG DATE {DD-MMM-YYYY}
SRVC .        Schlumberger                             :SERVICE COMPANY
LATI .DEG     12*57'32.63" S                           :LATITUDE
LONG .DEG     124*26'50.07" E                          :LONGITUDE
GDAT .                                                 :GeoDetic Datum
#-----------------------------------------------------------------------------
~PARAMETER INFORMATION
#MNEM.UNIT    VALUE                      DESCRIPTION
#---- -----   --------------------       ------------------------
RUN  .          1                        :RUN NUMBER
PDAT .        LAT                        :Permanent Datum
EPD  .M           0.000000               :Elevation of Permanent Datum above Mean Sea Level
EPD  .M           0.000000               :Elevation of tool zero above Mean Sea Level
LMF  .          DF                       :Logging Measured From (Name of Logging Elevation Reference)
APD  .M          26.400000               :Elevation of Depth Reference (LMF) above Permanent Datum
#-----------------------------------------------------------------------------
~CURVE INFORMATION
#MNEM.UNIT   API CODE                                  DESCRIPTION
#---- -----  --------                                  -----------------------
TIME .S                                                :TIME {F10.1}
TENS_SL.LBF                                            :Cable Tension {F13.4}
DEPT_SL..1IN                                           :Station logging depth {F13.4}
PDEP_XPT.M                                             :XPT Probe Depth {F13.4}
MTEP_SAP.DEGC                                          :Sapphire Gauge Manometer Temperature {F13.4}
MTEP_HYD.DEGC                                          :Hydrostatic Sapphire Gauge Manometer Temperature {F13.4}
PCO_HYD.PSI                                            :Hydrostatic Sapphire Dynamic Compensation {F13.4}
PND_HYD.PSI                                            :Hydrostatic Sapphire Pressure Without Dynamic Compensation {F13.4}
CP_HYD.PSI                                             :Hydrostatic Sapphire Pressure With Dynamic Compensation {F13.4}
MTEP_QG.DEGC                                           :CQG Manometer Temperature {F13.4}
PTNO_XPT.                                              :XPT Pretest Number {I11}
ETIM_XPT.S                                             :Elapsed Logging Time {F13.4}
PCO_SAP.PSI                                            :Sapphire Dynamic Compensation {F13.4}
PND_SAP.PSI                                            :Sapphire Pressure Without Dynamic Compensation {F13.4}
CP_SAP.PSI                                             :Sapphire Pressure With Dynamic Compensation {F13.4}
QNDP .PSI                                              :CQG Pressure Without Dynamic Compensation {F13.4}
QCP  .PSI                                              :CQG Pressure With Dynamic Compensation {F13.4}
QPCO .PSI                                              :CQG Dynamic Compensation {F13.4}
#-----------------------------------------------------------------------------
# 
#     TIME      TENS_SL      DEPT_SL      PDEP_XPT     MTEP_SAP     MTEP_HYD     PCO_HYD      PND_HYD       CP_HYD      MTEP_QG       PTNO_XPT       ETIM_XPT     PCO_SAP      PND_SAP       CP_SAP        QNDP         QCP          QPCO
#
~A  
# ...
    8425.0    5066.4800 1535646.0000    3898.9316     128.9294     129.4907       0.0176    6339.2555    6339.2730     129.5704         22      35.0800       0.0191    6336.8255    6336.8445    6334.5590    6334.5888       0.0297
    8426.0    5118.5600 1535646.0000    3898.9316     128.9288     129.4915       0.0207    6339.2978    6339.3184     129.5706         22      36.0800       0.0191    6336.8109    6336.8299    6334.5549    6334.5842       0.0293
    8427.0    5124.8400 1535646.0000    3898.9316     128.9297     129.4900       0.0226    6339.2068    6339.2296     129.5706         22      37.0800       0.0190    6336.7075    6336.7264    6334.4777    6334.5070       0.0292
    8428.0    5125.4000 1535646.0000    3898.9316     128.9325     129.4930       0.0242    6339.2729    6339.2972     129.5707         22      38.0800       0.0202    6336.8176    6336.8376    6334.4219    6334.4517       0.0295
    8429.0    5152.5200 1535646.0000    3898.9316     128.9309     129.4931       0.0257    6339.2765    6339.3024     129.5709         22      39.0800       0.0210    6336.7930    6336.8140    6334.4994    6334.5297       0.0302
    8430.0    5141.6400 1535646.0000    3898.9316     128.9307     129.4913       0.0248    6339.2097    6339.2343     129.5709         22      40.0800       0.0202    6336.8024    6336.8227    6334.5118    6334.5429       0.0311
    8431.0    5073.0400 1535646.0000    3898.9316     128.9319     129.4952       0.0217    6339.3540    6339.3756     129.5712         22      41.0800       0.0178    6336.8802    6336.8979    6334.5012    6334.5329       0.0317
    8432.0    4991.1600 1535646.0000    3898.9316     128.9334     129.4944       0.0177    6339.4008    6339.4187     129.5709         22      42.0800       0.0155    6336.8347    6336.8502    6334.5349    6334.5666       0.0318
    8433.0    4969.5200 1535646.0000    3898.9316     128.9326     129.4938       0.0142    6339.3447    6339.3588     129.5712         22      43.0800       0.0141    6336.8991    6336.9133    6334.6150    6334.6468       0.0318
    8434.0    4960.3200 1535646.0000    3898.9316     128.9351     129.4945       0.0109    6339.4721    6339.4829     129.5716         22      44.0800       0.0142    6337.0213    6337.0354    6334.6162    6334.6479       0.0319
    8435.0    4919.2000 1535646.0000    3898.9316     128.9329     129.4944       0.0083    6339.4115    6339.4197     129.5715         22      45.0800       0.0157    6336.9228    6336.9385    6334.6944    6334.7262       0.0317
    8436.0    4941.2400 1535646.0000    3898.9316     128.9335     129.4942       0.0078    6339.4098    6339.4176     129.5716         22      46.0800       0.0169    6336.9563    6336.9731    6334.5954    6334.6267       0.0312
    8437.0    5042.4800 1535646.0000    3898.9316     128.9313     129.4946       0.0106    6339.3546    6339.3652     129.5716         22      47.0800       0.0167    6336.8750    6336.8916    6334.6335    6334.6647       0.0311
    8438.0    5115.4000 1535646.0000    3898.9316     128.9350     129.4945       0.0159    6339.4576    6339.4736     129.5716         22      48.0800       0.0156    6336.9694    6336.9850    6334.6080    6334.6397       0.0317
    8439.0    5098.7600 1535646.0000    3898.9316     128.9358     129.4948       0.0211    6339.3017    6339.3228     129.5718         22      49.0800       0.0151    6336.7988    6336.8140    6334.4781    6334.5104       0.0324
    8440.0    5119.4800 1535646.0000    3898.9316     128.9352     129.4950       0.0248    6339.2160    6339.2408     129.5720         22      50.0800       0.0151    6336.7465    6336.7616    6334.4207    6334.4534       0.0325
    8441.0    5115.8800 1535646.0000    3898.9316     128.9339     129.4960       0.0265    6339.2485    6339.2750     129.5720         22      51.0800       0.0149    6336.7518    6336.7670    6334.4864    6334.5191       0.0326
    8442.0    5005.5600 1535646.0000    3898.9316     128.9334     129.4981       0.0263    6339.3917    6339.4178     129.5722         22      52.0800       0.0145    6336.8291    6336.8438    6334.5532    6334.5864       0.0332
    8443.0    4943.6400 1535646.0000    3898.9316     128.9356     129.4963       0.0232    6339.3719    6339.3949     129.5721         22      53.0800       0.0144    6336.9008    6336.9150    6334.5676    6334.6018       0.0340
    8444.0    4948.3600 1535646.0000    3898.9316     128.9355     129.4981       0.0185    6339.4080    6339.4266     129.5724         22      54.0800       0.0141    6336.9597    6336.9739    6334.6731    6334.7073       0.0341
    8445.0    4920.4000 1535646.0000    3898.9316     128.9362     129.4976       0.0151    6339.5427    6339.5577     129.5723         22      55.0800       0.0127    6337.0252    6337.0381    6334.7086    6334.7423       0.0336
    8446.0    4956.0800 1535646.0000    3898.9316     128.9377     129.4985       0.0139    6339.5168    6339.5305     129.5726         22      56.0800       0.0095    6337.0301    6337.0395    6334.6541    6334.6873       0.0334
    8447.0    5055.7200 1535646.0000    3898.9316     128.9365     129.4978       0.0131    6339.4924    6339.5055     129.5725         22      57.0800       0.0070    6336.9036    6336.9108    6334.6257    6334.6594       0.0337
    8448.0    5132.8400 1535646.0000    3898.9316     128.9352     129.4985       0.0112    6339.4438    6339.4550     129.5728         22      58.0800       0.0091    6336.7861    6336.7952    6334.6004    6334.6346       0.0342
    8449.0    5131.7200 1535646.0000    3898.9316     128.9372     129.4988       0.0107    6339.3617    6339.3724     129.5728         22      59.0800       0.0136    6336.7997    6336.8133    6334.5201    6334.5548       0.0344
    8450.0    5139.2800 1535646.0000    3898.9316     128.9342     129.4996       0.0116    6339.2261    6339.2375     129.5730         22      60.0800       0.0204    6336.6783    6336.6987    6334.4569    6334.4922       0.0351
    8451.0    5123.2400 1535646.0000    3898.9316     128.9373     129.4991       0.0122    6339.2572    6339.2694     129.5729         22      61.0800       0.0256    6336.8316    6336.8574    6334.5067    6334.5435       0.0368
    8452.0    5027.7600 1535646.0000    3898.9316     128.9380     129.4983       0.0119    6339.2734    6339.2852     129.5731         22      62.0800       0.0271    6336.9098    6336.9371    6334.5533    6334.5909       0.0377
    8453.0    4955.6000 1535646.0000    3898.9316     128.9384     129.4993       0.0128    6339.3057    6339.3185     129.5733         22      63.0800       0.0254    6336.8919    6336.9174    6334.5657    6334.6036       0.0380
    8454.0    4950.2800 1535646.0000    3898.9316     128.9388     129.5002       0.0160    6339.4619    6339.4779     129.5734         22      64.0800       0.0208    6336.9723    6336.9931    6334.6411    6334.6779       0.0369
    8455.0    4940.7200 1535646.0000    3898.9316     128.9391     129.4999       0.0198    6339.4707    6339.4907     129.5736         22      65.0800       0.0155    6337.0677    6337.0834    6334.7118    6334.7474       0.0356
    8456.0    4930.9600 1535646.0000    3898.9316     128.9379     129.4991       0.0218    6339.5229    6339.5446     129.5737         22      66.0800       0.0127    6336.9919    6337.0046    6334.7054    6334.7399       0.0346
    8457.0    4993.9200 1535646.0000    3898.9316     128.9397     129.5013       0.0219    6339.4855    6339.5075     129.5736         22      67.0800       0.0129    6337.0230    6337.0360    6334.6521    6334.6852       0.0332
    8458.0    5065.6000 1535646.0000    3898.9316     128.9389     129.5000       0.0204    6339.4153    6339.4358     129.5738         22      68.0800       0.0125    6336.9349    6336.9476    6334.6449    6334.6701       0.0253
    8459.0    5108.5200 1535646.0000    3898.9316     128.9406     129.5014       0.0176    6339.4873    6339.5051     129.5737         22      69.0800       0.0045    6336.8438    6336.8483    6334.5511    6334.5524       0.0014
