~VERSION INFORMATION
VERS.           2.0   :CWLS Log ASCII Standard - VERSION 2.0
WRAP.           NO    :One Line per depth step
PROD.  Schlumberger   :LAS Producer
PROG.  DLIS to ASCII 2.2                               :LAS Program name and version
CREA.        2020/10/30 12:18                          :LAS Creation date {YYYY/MM/DD hh:mm}
SOURCE.     XPT_HRLA_TLD_MCFL_039LTP.DLIS              :DLIS File Name
FILE-ID.     XPT_HRLA_TLD_MCFL_039LTP                  :File Identification Number
#--------------------------------------------------
~WELL INFORMATION
#MNEM.UNIT      DATA             DESCRIPTION
#---- ------ --------------   -----------------------------
STRT .S          109.0       :START TIME      
STOP .S          613.0       :STOP TIME      
STEP .S            1.0       :STEP     
NULL .          -999.25      :NULL VALUE
COMP .        Nexus Energy                             :COMPANY
WELL .        Crux-3                                   :WELL
FLD  .        Crux                                     :FIELD
LOC  .        Easting: 656981.7mE                      :LOCATION
CNTY .        Sedco-703                                :COUNTY
STAT .        Northern Territory                       :STATE
CTRY .        Australia                                :COUNTRY
API  .                                                 :API NUMBER
UWI  .                                                 :UNIQUE WELL ID
DATE .        31-Dec-2007                              :LOG DATE {DD-MMM-YYYY}
SRVC .        Schlumberger                             :SERVICE COMPANY
LATI .DEG     12*57'32.63" S                           :LATITUDE
LONG .DEG     124*26'50.07" E                          :LONGITUDE
GDAT .                                                 :GeoDetic Datum
#-----------------------------------------------------------------------------
~PARAMETER INFORMATION
#MNEM.UNIT    VALUE                      DESCRIPTION
#---- -----   --------------------       ------------------------
RUN  .          1                        :RUN NUMBER
PDAT .        LAT                        :Permanent Datum
EPD  .M           0.000000               :Elevation of Permanent Datum above Mean Sea Level
EPD  .M           0.000000               :Elevation of tool zero above Mean Sea Level
LMF  .          DF                       :Logging Measured From (Name of Logging Elevation Reference)
APD  .M          26.400000               :Elevation of Depth Reference (LMF) above Permanent Datum
#-----------------------------------------------------------------------------
~CURVE INFORMATION
#MNEM.UNIT   API CODE                                  DESCRIPTION
#---- -----  --------                                  -----------------------
TIME .S                                                :TIME {F10.1}
TENS_SL.LBF                                            :Cable Tension {F13.4}
DEPT_SL..1IN                                           :Station logging depth {F13.4}
PDEP_XPT.M                                             :XPT Probe Depth {F13.4}
MTEP_SAP.DEGC                                          :Sapphire Gauge Manometer Temperature {F13.4}
MTEP_HYD.DEGC                                          :Hydrostatic Sapphire Gauge Manometer Temperature {F13.4}
PCO_HYD.PSI                                            :Hydrostatic Sapphire Dynamic Compensation {F13.4}
PND_HYD.PSI                                            :Hydrostatic Sapphire Pressure Without Dynamic Compensation {F13.4}
CP_HYD.PSI                                             :Hydrostatic Sapphire Pressure With Dynamic Compensation {F13.4}
MTEP_QG.DEGC                                           :CQG Manometer Temperature {F13.4}
PTNO_XPT.                                              :XPT Pretest Number {I11}
ETIM_XPT.S                                             :Elapsed Logging Time {F13.4}
PCO_SAP.PSI                                            :Sapphire Dynamic Compensation {F13.4}
PND_SAP.PSI                                            :Sapphire Pressure Without Dynamic Compensation {F13.4}
CP_SAP.PSI                                             :Sapphire Pressure With Dynamic Compensation {F13.4}
QNDP .PSI                                              :CQG Pressure Without Dynamic Compensation {F13.4}
QCP  .PSI                                              :CQG Pressure With Dynamic Compensation {F13.4}
QPCO .PSI                                              :CQG Dynamic Compensation {F13.4}
#-----------------------------------------------------------------------------
# 
#     TIME      TENS_SL      DEPT_SL      PDEP_XPT     MTEP_SAP     MTEP_HYD     PCO_HYD      PND_HYD       CP_HYD      MTEP_QG       PTNO_XPT       ETIM_XPT     PCO_SAP      PND_SAP       CP_SAP        QNDP         QCP          QPCO
#
~A  
# ...
     564.0    4779.8687 1418545.0000    3601.4951     119.0699     119.5982       0.0138    5866.6104    5866.6241     119.6311          4     455.2610      -0.1288    5865.0457    5864.9170    5862.0642    5862.4409       0.3767
     565.0    4771.7828 1418545.0000    3601.4951     119.0685     119.6005       0.0162    5866.6343    5866.6503     119.6321          4     456.2610      -0.1142    5865.0125    5864.8982    5862.0528    5862.3643       0.3115
     566.0    4781.0453 1418545.0000    3601.4951     119.0661     119.5987       0.0167    5866.4725    5866.4891     119.6331          4     457.2610      -0.1015    5864.8446    5864.7433    5862.0416    5862.2951       0.2536
     567.0    4797.6078 1418545.0000    3601.4951     119.0660     119.5986       0.0161    5866.6148    5866.6309     119.6337          4     458.2610      -0.0919    5864.8494    5864.7575    5862.1251    5862.3280       0.2027
     568.0    4770.7781 1418545.0000    3601.4951     119.0638     119.5997       0.0169    5866.6006    5866.6176     119.6345          4     459.2610      -0.0865    5864.9926    5864.9060    5862.2121    5862.3705       0.1586
     569.0    4712.6062 1418545.0000    3601.4951     119.0620     119.5990       0.0189    5866.5711    5866.5902     119.6349          4     460.2610      -0.0829    5864.9677    5864.8850    5862.2799    5862.4008       0.1208
     570.0    4681.8250 1418545.0000    3601.4951     119.0615     119.6001       0.0195    5866.7168    5866.7363     119.6350          4     461.2610      -0.0770    5864.9625    5864.8854    5862.3025    5862.3910       0.0884
     571.0    4673.3922 1418545.0000    3601.4951     119.0599     119.6013       0.0177    5866.7607    5866.7784     119.6353          4     462.2610      -0.0682    5864.9310    5864.8628    5862.3111    5862.3717       0.0607
     572.0    4686.3922 1418545.0000    3601.4951     119.0567     119.6009       0.0148    5866.8483    5866.8632     119.6353          4     463.2610      -0.0586    5864.9295    5864.8710    5862.4415    5862.4783       0.0366
     573.0    4695.2172 1418545.0000    3601.4951     119.0576     119.6012       0.0125    5866.8197    5866.8322     119.6354          4     464.2610      -0.0490    5864.9154    5864.8665    5862.4079    5862.4246       0.0165
     574.0    4694.3047 1418545.0000    3601.4951     119.0577     119.6009       0.0110    5866.7060    5866.7168     119.6355          4     465.2610      -0.0401    5864.9500    5864.9097    5862.3777    5862.3778       0.0000
     575.0    4713.9172 1418545.0000    3601.4951     119.0562     119.6017       0.0100    5866.6786    5866.6888     119.6353          4     466.2610      -0.0330    5864.7743    5864.7414    5862.3355    5862.3226      -0.0131
     576.0    4759.0000 1418545.0000    3601.4951     119.0544     119.6013       0.0094    5866.6150    5866.6245     119.6353          4     467.2610      -0.0282    5864.7853    5864.7573    5862.3104    5862.2869      -0.0236
     577.0    4762.9141 1418545.0000    3601.4951     119.0559     119.6025       0.0085    5866.6987    5866.7071     119.6352          4     468.2610      -0.0242    5864.9056    5864.8815    5862.4019    5862.3696      -0.0322
     578.0    4781.0453 1418545.0000    3601.4951     119.0560     119.6022       0.0073    5866.5919    5866.5991     119.6351          4     469.2610      -0.0201    5864.8608    5864.8405    5862.3768    5862.3383      -0.0386
     579.0    4796.5641 1418545.0000    3601.4951     119.0524     119.6024       0.0055    5866.5070    5866.5126     119.6350          4     470.2610      -0.0174    5864.7955    5864.7781    5862.3385    5862.2949      -0.0435
     580.0    4777.9984 1418545.0000    3601.4951     119.0526     119.6026       0.0039    5866.5366    5866.5406     119.6350          4     471.2610      -0.0157    5864.6891    5864.6734    5862.3569    5862.3091      -0.0477
     581.0    4764.9141 1418545.0000    3601.4951     119.0542     119.6022       0.0044    5866.5682    5866.5727     119.6345          4     472.2610      -0.0134    5864.8044    5864.7910    5862.3764    5862.3250      -0.0516
     582.0    4751.9937 1418545.0000    3601.4951     119.0543     119.6016       0.0082    5866.6319    5866.6400     119.6344          4     473.2610      -0.0108    5864.9520    5864.9410    5862.4253    5862.3709      -0.0544
     583.0    4686.8703 1418545.0000    3601.4951     119.0524     119.6021       0.0135    5866.6505    5866.6640     119.6345          4     474.2610      -0.0104    5864.8800    5864.8697    5862.4919    5862.4363      -0.0556
     584.0    4690.0422 1418545.0000    3601.4951     119.0527     119.6024       0.0172    5866.7651    5866.7823     119.6339          4     475.2610      -0.0115    5864.9175    5864.9062    5862.4710    5862.4153      -0.0557
     585.0    4670.7813 1418545.0000    3601.4951     119.0521     119.6032       0.0182    5866.7992    5866.8173     119.6338          4     476.2610      -0.0113    5865.0301    5865.0189    5862.5598    5862.5041      -0.0557
     586.0    4654.1734 1418545.0000    3601.4951     119.0524     119.6035       0.0178    5866.7943    5866.8119     119.6335          4     477.2610      -0.0082    5864.9235    5864.9155    5862.5443    5862.4881      -0.0560
     587.0    4645.8687 1418545.0000    3601.4951     119.0504     119.6050       0.0167    5866.7998    5866.8163     119.6334          4     478.2610      -0.0044    5864.7606    5864.7564    5862.4748    5862.4187      -0.0559
     588.0    4658.9187 1418545.0000    3601.4951     119.0524     119.6035       0.0144    5866.7251    5866.7395     119.6335          4     479.2610      -0.0019    5864.9284    5864.9264    5862.4671    5862.4122      -0.0549
     589.0    4729.3500 1418545.0000    3601.4951     119.0511     119.6049       0.0120    5866.8034    5866.8153     119.6332          4     480.2610      -0.0010    5864.7697    5864.7687    5862.4228    5862.3691      -0.0537
     590.0    4763.9594 1418545.0000    3601.4951     119.0533     119.6048       0.0116    5866.6628    5866.6745     119.6327          4     481.2610      -0.0011    5864.8078    5864.8068    5862.3534    5862.3008      -0.0528
     591.0    4796.8266 1418545.0000    3601.4951     119.0524     119.6050       0.0135    5866.6221    5866.6355     119.6326          4     482.2610      -0.0013    5864.6729    5864.6715    5862.2413    5862.1898      -0.0515
     592.0    4795.4766 1418545.0000    3601.4951     119.0539     119.6043       0.0155    5866.6086    5866.6242     119.6328          4     483.2610      -0.0019    5864.7112    5864.7092    5862.2734    5862.2235      -0.0498
     593.0    4773.3469 1418545.0000    3601.4951     119.0532     119.6051       0.0157    5866.6232    5866.6388     119.6325          4     484.2610      -0.0024    5864.7160    5864.7136    5862.2931    5862.2454      -0.0478
     594.0    4745.5172 1418545.0000    3601.4951     119.0513     119.6050       0.0141    5866.5785    5866.5926     119.6323          4     485.2610      -0.0023    5864.7104    5864.7082    5862.2817    5862.2356      -0.0460
     595.0    4697.5656 1418545.0000    3601.4951     119.0530     119.6065       0.0114    5866.6940    5866.7054     119.6322          4     486.2610      -0.0006    5864.9245    5864.9240    5862.3873    5862.3428      -0.0445
     596.0    4700.6953 1418545.0000    3601.4951     119.0508     119.6064       0.0084    5866.7461    5866.7547     119.6319          4     487.2610       0.0025    5864.8676    5864.8703    5862.4167    5862.3737      -0.0431
     597.0    4695.9563 1418545.0000    3601.4951     119.0520     119.6060       0.0068    5866.8102    5866.8170     119.6318          4     488.2610       0.0045    5864.8966    5864.9010    5862.4939    5862.4521      -0.0418
     598.0    4694.0437 1418545.0000    3601.4951     119.0528     119.6062       0.0077    5866.7867    5866.7944     119.6317          4     489.2610       0.0034    5864.8731    5864.8766    5862.4665    5862.4264      -0.0402
