~VERSION INFORMATION
VERS.           2.0   :CWLS Log ASCII Standard - VERSION 2.0
WRAP.           NO    :One Line per depth step
PROD.  Schlumberger   :LAS Producer
PROG.  DLIS to ASCII 2.2                               :LAS Program name and version
CREA.        2020/10/30 12:18                          :LAS Creation date {YYYY/MM/DD hh:mm}
SOURCE.     XPT_HRLA_TLD_MCFL_056LTP.DLIS              :DLIS File Name
FILE-ID.     XPT_HRLA_TLD_MCFL_056LTP                  :File Identification Number
#--------------------------------------------------
~WELL INFORMATION
#MNEM.UNIT      DATA             DESCRIPTION
#---- ------ --------------   -----------------------------
STRT .S         6532.0       :START TIME      
STOP .S         6757.0       :STOP TIME      
STEP .S            1.0       :STEP     
NULL .          -999.25      :NULL VALUE
COMP .        Nexus Energy                             :COMPANY
WELL .        Crux-3                                   :WELL
FLD  .        Crux                                     :FIELD
LOC  .        Easting: 656981.7mE                      :LOCATION
CNTY .        Sedco-703                                :COUNTY
STAT .        Northern Territory                       :STATE
CTRY .        Australia                                :COUNTRY
API  .                                                 :API NUMBER
UWI  .                                                 :UNIQUE WELL ID
DATE .        31-Dec-2007                              :LOG DATE {DD-MMM-YYYY}
SRVC .        Schlumberger                             :SERVICE COMPANY
LATI .DEG     12*57'32.63" S                           :LATITUDE
LONG .DEG     124*26'50.07" E                          :LONGITUDE
GDAT .                                                 :GeoDetic Datum
#-----------------------------------------------------------------------------
~PARAMETER INFORMATION
#MNEM.UNIT    VALUE                      DESCRIPTION
#---- -----   --------------------       ------------------------
RUN  .          1                        :RUN NUMBER
PDAT .        LAT                        :Permanent Datum
EPD  .M           0.000000               :Elevation of Permanent Datum above Mean Sea Level
EPD  .M           0.000000               :Elevation of tool zero above Mean Sea Level
LMF  .          DF                       :Logging Measured From (Name of Logging Elevation Reference)
APD  .M          26.400000               :Elevation of Depth Reference (LMF) above Permanent Datum
#-----------------------------------------------------------------------------
~CURVE INFORMATION
#MNEM.UNIT   API CODE                                  DESCRIPTION
#---- -----  --------                                  -----------------------
TIME .S                                                :TIME {F10.1}
TENS_SL.LBF                                            :Cable Tension {F13.4}
DEPT_SL..1IN                                           :Station logging depth {F13.4}
PDEP_XPT.M                                             :XPT Probe Depth {F13.4}
MTEP_SAP.DEGC                                          :Sapphire Gauge Manometer Temperature {F13.4}
MTEP_HYD.DEGC                                          :Hydrostatic Sapphire Gauge Manometer Temperature {F13.4}
PCO_HYD.PSI                                            :Hydrostatic Sapphire Dynamic Compensation {F13.4}
PND_HYD.PSI                                            :Hydrostatic Sapphire Pressure Without Dynamic Compensation {F13.4}
CP_HYD.PSI                                             :Hydrostatic Sapphire Pressure With Dynamic Compensation {F13.4}
MTEP_QG.DEGC                                           :CQG Manometer Temperature {F13.4}
PTNO_XPT.                                              :XPT Pretest Number {I11}
ETIM_XPT.S                                             :Elapsed Logging Time {F13.4}
PCO_SAP.PSI                                            :Sapphire Dynamic Compensation {F13.4}
PND_SAP.PSI                                            :Sapphire Pressure Without Dynamic Compensation {F13.4}
CP_SAP.PSI                                             :Sapphire Pressure With Dynamic Compensation {F13.4}
QNDP .PSI                                              :CQG Pressure Without Dynamic Compensation {F13.4}
QCP  .PSI                                              :CQG Pressure With Dynamic Compensation {F13.4}
QPCO .PSI                                              :CQG Dynamic Compensation {F13.4}
#-----------------------------------------------------------------------------
# 
#     TIME      TENS_SL      DEPT_SL      PDEP_XPT     MTEP_SAP     MTEP_HYD     PCO_HYD      PND_HYD       CP_HYD      MTEP_QG       PTNO_XPT       ETIM_XPT     PCO_SAP      PND_SAP       CP_SAP        QNDP         QCP          QPCO
#
~A  
# ...
    6707.0    5013.0500 1525238.0000    3872.4954     129.6858     130.1682      -0.0736    6296.4922    6296.4185     130.2488         18     174.9950      -0.0672    6293.9498    6293.8827    6292.1270    6292.0259      -0.1011
    6708.0    5002.0550 1525238.0000    3872.4954     129.6846     130.1687      -0.0743    6296.4846    6296.4105     130.2484         18     175.9950      -0.0640    6293.9881    6293.9240    6292.2236    6292.1212      -0.1023
    6709.0    4969.1650 1525238.0000    3872.4954     129.6841     130.1651      -0.0765    6296.5797    6296.5031     130.2485         18     176.9950      -0.0621    6294.1821    6294.1201    6292.3079    6292.2044      -0.1035
    6710.0    4916.2650 1525238.0000    3872.4954     129.6829     130.1644      -0.0800    6296.5309    6296.4510     130.2480         18     177.9950      -0.0630    6294.0480    6293.9849    6292.2396    6292.1349      -0.1046
    6711.0    4874.2100 1525238.0000    3872.4954     129.6808     130.1628      -0.0831    6296.5823    6296.4992     130.2476         18     178.9950      -0.0662    6294.1563    6294.0903    6292.3051    6292.1989      -0.1063
    6712.0    4937.6800 1525238.0000    3872.4954     129.6800     130.1606      -0.0843    6296.6520    6296.5675     130.2473         18     179.9950      -0.0700    6294.2319    6294.1621    6292.4365    6292.3291      -0.1076
    6713.0    4874.3200 1525238.0000    3872.4954     129.6804     130.1605      -0.0832    6296.7720    6296.6887     130.2469         18     180.9950      -0.0723    6294.2177    6294.1452    6292.4229    6292.3145      -0.1083
    6714.0    4876.9850 1525238.0000    3872.4954     129.6765     130.1583      -0.0810    6296.6689    6296.5876     130.2466         18     181.9950      -0.0733    6294.1528    6294.0796    6292.3648    6292.2564      -0.1083
    6715.0    4866.0550 1525238.0000    3872.4954     129.6763     130.1560      -0.0793    6296.6034    6296.5243     130.2460         18     182.9950      -0.0731    6294.1937    6294.1205    6292.3831    6292.2747      -0.1084
    6716.0    4861.0250 1525238.0000    3872.4954     129.6739     130.1563      -0.0792    6296.7495    6296.6704     130.2459         18     183.9950      -0.0718    6294.1823    6294.1104    6292.3794    6292.2706      -0.1088
    6717.0    4865.9750 1525238.0000    3872.4954     129.6732     130.1524      -0.0799    6296.5848    6296.5049     130.2455         18     184.9950      -0.0697    6294.1396    6294.0699    6292.3447    6292.2353      -0.1095
    6718.0    4898.8350 1525238.0000    3872.4954     129.6718     130.1537      -0.0800    6296.6396    6296.5596     130.2451         18     185.9950      -0.0678    6294.1823    6294.1144    6292.3524    6292.2416      -0.1106
    6719.0    4962.6800 1525238.0000    3872.4954     129.6705     130.1520      -0.0784    6296.6810    6296.6025     130.2449         18     186.9950      -0.0677    6294.1284    6294.0609    6292.3665    6292.2545      -0.1119
    6720.0    5026.6800 1525238.0000    3872.4954     129.6702     130.1488      -0.0760    6296.6214    6296.5453     130.2445         18     187.9950      -0.0691    6294.0952    6294.0260    6292.3142    6292.2006      -0.1135
    6721.0    5016.0550 1525238.0000    3872.4954     129.6662     130.1472      -0.0739    6296.5995    6296.5258     130.2438         18     188.9950      -0.0712    6293.8901    6293.8188    6292.2815    6292.1673      -0.1144
    6722.0    5016.0000 1525238.0000    3872.4954     129.6672     130.1469      -0.0721    6296.5851    6296.5130     130.2439         18     189.9950      -0.0714    6293.9765    6293.9052    6292.2859    6292.1712      -0.1147
    6723.0    5023.9600 1525238.0000    3872.4954     129.6659     130.1457      -0.0710    6296.4852    6296.4144     130.2434         18     190.9950      -0.0694    6294.0339    6293.9647    6292.2319    6292.1172      -0.1147
    6724.0    5011.0650 1525238.0000    3872.4954     129.6657     130.1453      -0.0715    6296.6104    6296.5391     130.2431         18     191.9950      -0.0662    6294.1811    6294.1147    6292.2906    6292.1759      -0.1149
    6725.0    4911.5000 1525238.0000    3872.4954     129.6634     130.1438      -0.0749    6296.6735    6296.5988     130.2425         18     192.9950      -0.0644    6294.1296    6294.0652    6292.3378    6292.2220      -0.1157
    6726.0    4912.9900 1525238.0000    3872.4954     129.6627     130.1413      -0.0805    6296.5884    6296.5080     130.2423         18     193.9950      -0.0645    6294.1701    6294.1057    6292.3337    6292.2171      -0.1166
    6727.0    4897.0800 1525238.0000    3872.4954     129.6605     130.1404      -0.0856    6296.6771    6296.5917     130.2421         18     194.9950      -0.0659    6294.2222    6294.1563    6292.4139    6292.2962      -0.1177
    6728.0    4867.1500 1525238.0000    3872.4954     129.6610     130.1378      -0.0880    6296.6913    6296.6034     130.2418         18     195.9950      -0.0673    6294.2082    6294.1408    6292.4120    6292.2926      -0.1195
    6729.0    4847.1000 1525238.0000    3872.4954     129.6597     130.1380      -0.0871    6296.7341    6296.6470     130.2411         18     196.9950      -0.0687    6294.2094    6294.1407    6292.4040    6292.2825      -0.1212
    6730.0    4914.6600 1525238.0000    3872.4954     129.6568     130.1347      -0.0847    6296.6173    6296.5323     130.2409         18     197.9950      -0.0704    6294.1560    6294.0857    6292.3841    6292.2615      -0.1224
    6731.0    5035.3950 1525238.0000    3872.4954     129.6559     130.1347      -0.0821    6296.7378    6296.6556     130.2405         18     198.9950      -0.0713    6294.0643    6293.9930    6292.3669    6292.2442      -0.1227
    6732.0    4998.1900 1525238.0000    3872.4954     129.6551     130.1319      -0.0792    6296.6478    6296.5683     130.2401         18     199.9950      -0.0712    6294.0744    6294.0031    6292.3132    6292.1901      -0.1230
    6733.0    5008.9450 1525238.0000    3872.4954     129.6534     130.1324      -0.0761    6296.4119    6296.3357     130.2402         18     200.9950      -0.0707    6293.9408    6293.8700    6292.2094    6292.0864      -0.1228
    6734.0    4975.1700 1525238.0000    3872.4954     129.6524     130.1286      -0.0732    6296.1284    6296.0553     130.2394         18     201.9950      -0.0709    6294.1800    6294.1091    6292.3638    6292.2408      -0.1230
    6735.0    4967.0400 1525238.0000    3872.4954     129.6528     130.1293      -0.0710    6296.4175    6296.3465     130.2389         18     202.9950      -0.0721    6294.0827    6294.0106    6292.2739    6292.1500      -0.1237
    6736.0    4861.5300 1525238.0000    3872.4954     129.6482     130.1278      -0.0693    6296.4223    6296.3529     130.2384         18     203.9950      -0.0737    6294.1007    6294.0269    6292.4022    6292.2777      -0.1247
    6737.0    4927.6650 1525238.0000    3872.4954     129.6475     130.1262      -0.0690    6296.4750    6296.4060     130.2383         18     204.9950      -0.0745    6294.0667    6293.9922    6292.3514    6292.2257      -0.1258
    6738.0    4886.2100 1525238.0000    3872.4954     129.6464     130.1246      -0.0705    6296.6217    6296.5511     130.2378         18     205.9950      -0.0734    6294.2434    6294.1700    6292.4735    6292.3462      -0.1271
    6739.0    4874.0600 1525238.0000    3872.4954     129.6456     130.1233      -0.0728    6296.7358    6296.6631     130.2377         18     206.9950      -0.0713    6294.1657    6294.0944    6292.4377    6292.3093      -0.1286
    6740.0    4940.6650 1525238.0000    3872.4954     129.6428     130.1230      -0.0737    6296.6131    6296.5394     130.2371         18     207.9950      -0.0699    6294.1993    6294.1295    6292.3870    6292.2570      -0.1299
    6741.0    5012.6400 1525238.0000    3872.4954     129.6439     130.1210      -0.0731    6296.6514    6296.5781     130.2365         18     208.9950      -0.0695    6294.1487    6294.0793    6292.3651    6292.2343      -0.1308
