~VERSION INFORMATION
VERS.           2.0   :CWLS Log ASCII Standard - VERSION 2.0
WRAP.           NO    :One Line per depth step
PROD.  Schlumberger   :LAS Producer
PROG.  DLIS to ASCII 2.2                               :LAS Program name and version
CREA.        2020/10/30 12:18                          :LAS Creation date {YYYY/MM/DD hh:mm}
SOURCE.     XPT_HRLA_TLD_MCFL_064LTP.DLIS              :DLIS File Name
FILE-ID.     XPT_HRLA_TLD_MCFL_064LTP                  :File Identification Number
#--------------------------------------------------
~WELL INFORMATION
#MNEM.UNIT      DATA             DESCRIPTION
#---- ------ --------------   -----------------------------
STRT .S         1332.0       :START TIME      
STOP .S         1827.0       :STOP TIME      
STEP .S            1.0       :STEP     
NULL .          -999.25      :NULL VALUE
COMP .        Nexus Energy                             :COMPANY
WELL .        Crux-3                                   :WELL
FLD  .        Crux                                     :FIELD
LOC  .        Easting: 656981.7mE                      :LOCATION
CNTY .        Sedco-703                                :COUNTY
STAT .        Northern Territory                       :STATE
CTRY .        Australia                                :COUNTRY
API  .                                                 :API NUMBER
UWI  .                                                 :UNIQUE WELL ID
DATE .        31-Dec-2007                              :LOG DATE {DD-MMM-YYYY}
SRVC .        Schlumberger                             :SERVICE COMPANY
LATI .DEG     12*57'32.63" S                           :LATITUDE
LONG .DEG     124*26'50.07" E                          :LONGITUDE
GDAT .                                                 :GeoDetic Datum
#-----------------------------------------------------------------------------
~PARAMETER INFORMATION
#MNEM.UNIT    VALUE                      DESCRIPTION
#---- -----   --------------------       ------------------------
RUN  .          1                        :RUN NUMBER
PDAT .        LAT                        :Permanent Datum
EPD  .M           0.000000               :Elevation of Permanent Datum above Mean Sea Level
EPD  .M           0.000000               :Elevation of tool zero above Mean Sea Level
LMF  .          DF                       :Logging Measured From (Name of Logging Elevation Reference)
APD  .M          26.400000               :Elevation of Depth Reference (LMF) above Permanent Datum
#-----------------------------------------------------------------------------
~CURVE INFORMATION
#MNEM.UNIT   API CODE                                  DESCRIPTION
#---- -----  --------                                  -----------------------
TIME .S                                                :TIME {F10.1}
TENS_SL.LBF                                            :Cable Tension {F13.4}
DEPT_SL..1IN                                           :Station logging depth {F13.4}
PDEP_XPT.M                                             :XPT Probe Depth {F13.4}
MTEP_SAP.DEGC                                          :Sapphire Gauge Manometer Temperature {F13.4}
MTEP_HYD.DEGC                                          :Hydrostatic Sapphire Gauge Manometer Temperature {F13.4}
PCO_HYD.PSI                                            :Hydrostatic Sapphire Dynamic Compensation {F13.4}
PND_HYD.PSI                                            :Hydrostatic Sapphire Pressure Without Dynamic Compensation {F13.4}
CP_HYD.PSI                                             :Hydrostatic Sapphire Pressure With Dynamic Compensation {F13.4}
MTEP_QG.DEGC                                           :CQG Manometer Temperature {F13.4}
PTNO_XPT.                                              :XPT Pretest Number {I11}
ETIM_XPT.S                                             :Elapsed Logging Time {F13.4}
PCO_SAP.PSI                                            :Sapphire Dynamic Compensation {F13.4}
PND_SAP.PSI                                            :Sapphire Pressure Without Dynamic Compensation {F13.4}
CP_SAP.PSI                                             :Sapphire Pressure With Dynamic Compensation {F13.4}
QNDP .PSI                                              :CQG Pressure Without Dynamic Compensation {F13.4}
QCP  .PSI                                              :CQG Pressure With Dynamic Compensation {F13.4}
QPCO .PSI                                              :CQG Dynamic Compensation {F13.4}
#-----------------------------------------------------------------------------
# 
#     TIME      TENS_SL      DEPT_SL      PDEP_XPT     MTEP_SAP     MTEP_HYD     PCO_HYD      PND_HYD       CP_HYD      MTEP_QG       PTNO_XPT       ETIM_XPT     PCO_SAP      PND_SAP       CP_SAP        QNDP         QCP          QPCO
#
~A  
# ...
    1612.0    4865.3415 1496483.0000    3799.4575     128.2958     128.6992      -0.1080    6181.8647    6181.7567     129.3149         29     280.1646      -0.1078    5572.8354    5572.7275    5571.5204    5571.0922      -0.4282
    1613.0    4856.4028 1496483.0000    3799.4575     128.2957     128.6962      -0.1069    6181.8429    6181.7361     129.3134         29     281.1646      -0.1063    5572.8053    5572.6989    5571.5406    5571.1119      -0.4285
    1614.0    4820.2626 1496483.0000    3799.4575     128.2935     128.6939      -0.1052    6181.8559    6181.7507     129.3122         29     282.1646      -0.1040    5572.9837    5572.8795    5571.5520    5571.1232      -0.4289
    1615.0    4776.3905 1496483.0000    3799.4575     128.2900     128.6913      -0.1033    6181.8413    6181.7381     129.3110         29     283.1646      -0.1039    5572.8758    5572.7719    5571.5579    5571.1291      -0.4289
    1616.0    4753.1646 1496483.0000    3799.4575     128.2884     128.6910      -0.1003    6181.9013    6181.8010     129.3096         29     284.1646      -0.1057    5572.9083    5572.8027    5571.5716    5571.1424      -0.4292
    1617.0    4757.6218 1496483.0000    3799.4575     128.2862     128.6897      -0.0976    6181.9320    6181.8346     129.3083         29     285.1646      -0.1065    5572.8898    5572.7834    5571.5935    5571.1640      -0.4294
    1618.0    4787.5238 1496483.0000    3799.4575     128.2867     128.6863      -0.0978    6181.9126    6181.8150     129.3068         29     286.1646      -0.1049    5573.0043    5572.8992    5571.6013    5571.1716      -0.4297
    1619.0    4841.7198 1496483.0000    3799.4575     128.2830     128.6852      -0.1014    6181.9484    6181.8472     129.3055         29     287.1646      -0.1038    5572.9751    5572.8711    5571.6185    5571.1883      -0.4301
    1620.0    4818.0245 1496483.0000    3799.4575     128.2813     128.6840      -0.1041    6181.9150    6181.8107     129.3041         29     288.1646      -0.1052    5572.9581    5572.8528    5571.6342    5571.2032      -0.4310
    1621.0    4803.8844 1496483.0000    3799.4575     128.2785     128.6833      -0.1039    6181.9409    6181.8369     129.3031         29     289.1646      -0.1068    5572.9889    5572.8820    5571.6508    5571.2188      -0.4323
    1622.0    4783.0000 1496483.0000    3799.4575     128.2782     128.6797      -0.1029    6181.9506    6181.8475     129.3014         29     290.1646      -0.1063    5573.0871    5572.9807    5571.6690    5571.2358      -0.4334
    1623.0    4785.6340 1496483.0000    3799.4575     128.2753     128.6771      -0.1030    6181.9362    6181.8332     129.3001         29     291.1646      -0.1048    5573.0932    5572.9885    5571.6868    5571.2525      -0.4344
    1624.0    4800.6462 1496483.0000    3799.4575     128.2725     128.6758      -0.1027    6181.8947    6181.7921     129.2986         29     292.1646      -0.1044    5573.0501    5572.9456    5571.7007    5571.2657      -0.4353
    1625.0    4808.1769 1496483.0000    3799.4575     128.2716     128.6749      -0.1007    6181.9727    6181.8718     129.2976         29     293.1646      -0.1058    5573.0791    5572.9734    5571.7179    5571.2823      -0.4358
    1626.0    4814.8652 1496483.0000    3799.4575     128.2681     128.6714      -0.0987    6181.9026    6181.8040     129.2960         29     294.1646      -0.1080    5573.0240    5572.9158    5571.7282    5571.2922      -0.4359
    1627.0    4863.0858 1496483.0000    3799.4575     128.2681     128.6710      -0.0985    6181.9377    6181.8391     129.2946         29     295.1646      -0.1104    5573.0510    5572.9407    5571.7421    5571.3065      -0.4358
    1628.0    4829.3170 1496483.0000    3799.4575     128.2655     128.6687      -0.0999    6181.9069    6181.8071     129.2932         29     296.1646      -0.1120    5573.1818    5573.0699    5571.7522    5571.3166      -0.4356
    1629.0    4841.2680 1496483.0000    3799.4575     128.2649     128.6668      -0.1020    6181.7659    6181.6640     129.2918         29     297.1646      -0.1121    5573.0965    5572.9844    5571.7628    5571.3270      -0.4359
    1630.0    4860.7565 1496483.0000    3799.4575     128.2616     128.6651      -0.1034    6181.8015    6181.6980     129.2908         29     298.1646      -0.1107    5573.0845    5572.9736    5571.7791    5571.3430      -0.4362
    1631.0    4814.4518 1496483.0000    3799.4575     128.2593     128.6635      -0.1040    6181.8521    6181.7480     129.2893         29     299.1646      -0.1083    5573.1619    5573.0537    5571.7795    5571.3429      -0.4368
    1632.0    4763.3660 1496483.0000    3799.4575     128.2573     128.6627      -0.1038    6181.9043    6181.8003     129.2879         29     300.1646      -0.1046    5573.1514    5573.0467    5571.7850    5571.3475      -0.4375
    1633.0    4749.0122 1496483.0000    3799.4575     128.2567     128.6595      -0.1028    6181.8702    6181.7676     129.2868         29     301.1646      -0.1001    5573.1584    5573.0582    5571.8030    5571.3651      -0.4378
    1634.0    4740.0490 1496483.0000    3799.4575     128.2550     128.6574      -0.1004    6182.0894    6181.9890     129.2853         29     302.1646      -0.0968    5573.1734    5573.0769    5571.8141    5571.3756      -0.4385
    1635.0    4734.1578 1496483.0000    3799.4575     128.2521     128.6559      -0.0957    6182.0219    6181.9261     129.2836         29     303.1646      -0.0958    5573.1484    5573.0527    5571.8222    5571.3827      -0.4393
    1636.0    4813.7374 1496483.0000    3799.4575     128.2520     128.6525      -0.0905    6181.9765    6181.8860     129.2825         29     304.1646      -0.0976    5573.3133    5573.2157    5571.8290    5571.3890      -0.4398
    1637.0    4853.4939 1496483.0000    3799.4575     128.2501     128.6521      -0.0876    6181.9791    6181.8913     129.2811         29     305.1646      -0.1008    5573.1672    5573.0664    5571.8434    5571.4034      -0.4399
    1638.0    4857.8109 1496483.0000    3799.4575     128.2462     128.6515      -0.0887    6181.9745    6181.8858     129.2795         29     306.1646      -0.1047    5573.1991    5573.0946    5571.8431    5571.4036      -0.4395
    1639.0    4862.8844 1496483.0000    3799.4575     128.2470     128.6491      -0.0925    6181.7597    6181.6671     129.2784         29     307.1646      -0.1078    5573.2928    5573.1849    5571.8599    5571.4204      -0.4396
    1640.0    4828.6654 1496483.0000    3799.4575     128.2430     128.6483      -0.0963    6181.9862    6181.8898     129.2767         29     308.1646      -0.1084    5573.2529    5573.1446    5571.8742    5571.4348      -0.4396
    1641.0    4766.4326 1496483.0000    3799.4575     128.2417     128.6464      -0.0991    6181.9234    6181.8242     129.2755         29     309.1646      -0.1064    5573.1713    5573.0649    5571.8834    5571.4442      -0.4393
    1642.0    4794.4939 1496483.0000    3799.4575     128.2402     128.6445      -0.1014    6181.9527    6181.8512     129.2743         29     310.1646      -0.1034    5573.2432    5573.1396    5571.8927    5571.4533      -0.4396
    1643.0    4789.7565 1496483.0000    3799.4575     128.2362     128.6409      -0.1033    6181.9943    6181.8911     129.2725         29     311.1646      -0.1014    5573.2359    5573.1345    5571.9103    5571.4694      -0.4409
    1644.0    4758.4326 1496483.0000    3799.4575     128.2354     128.6398      -0.1035    6182.1324    6182.0289     129.2714         29     312.1646      -0.1004    5573.2304    5573.1301    5571.9146    5571.4725      -0.4423
    1645.0    4797.3591 1496483.0000    3799.4575     128.2365     128.6392      -0.1021    6182.0166    6181.9145     129.2698         29     313.1646      -0.1005    5573.3676    5573.2671    5571.9178    5571.4750      -0.4430
    1646.0    4850.8844 1496483.0000    3799.4575     128.2319     128.6351      -0.1015    6181.8918    6181.7903     129.2685         29     314.1646      -0.1027    5573.2476    5573.1449    5571.9265    5571.4832      -0.4433
