~VERSION INFORMATION
VERS.           2.0   :CWLS Log ASCII Standard - VERSION 2.0
WRAP.           NO    :One Line per depth step
PROD.  Schlumberger   :LAS Producer
PROG.  DLIS to ASCII 2.2                               :LAS Program name and version
CREA.        2020/10/30 12:18                          :LAS Creation date {YYYY/MM/DD hh:mm}
SOURCE.     XPT_HRLA_TLD_MCFL_064LTP.DLIS              :DLIS File Name
FILE-ID.     XPT_HRLA_TLD_MCFL_064LTP                  :File Identification Number
#--------------------------------------------------
~WELL INFORMATION
#MNEM.UNIT      DATA             DESCRIPTION
#---- ------ --------------   -----------------------------
STRT .S         1332.0       :START TIME      
STOP .S         1827.0       :STOP TIME      
STEP .S            1.0       :STEP     
NULL .          -999.25      :NULL VALUE
COMP .        Nexus Energy                             :COMPANY
WELL .        Crux-3                                   :WELL
FLD  .        Crux                                     :FIELD
LOC  .        Easting: 656981.7mE                      :LOCATION
CNTY .        Sedco-703                                :COUNTY
STAT .        Northern Territory                       :STATE
CTRY .        Australia                                :COUNTRY
API  .                                                 :API NUMBER
UWI  .                                                 :UNIQUE WELL ID
DATE .        31-Dec-2007                              :LOG DATE {DD-MMM-YYYY}
SRVC .        Schlumberger                             :SERVICE COMPANY
LATI .DEG     12*57'32.63" S                           :LATITUDE
LONG .DEG     124*26'50.07" E                          :LONGITUDE
GDAT .                                                 :GeoDetic Datum
#-----------------------------------------------------------------------------
~PARAMETER INFORMATION
#MNEM.UNIT    VALUE                      DESCRIPTION
#---- -----   --------------------       ------------------------
RUN  .          1                        :RUN NUMBER
PDAT .        LAT                        :Permanent Datum
EPD  .M           0.000000               :Elevation of Permanent Datum above Mean Sea Level
EPD  .M           0.000000               :Elevation of tool zero above Mean Sea Level
LMF  .          DF                       :Logging Measured From (Name of Logging Elevation Reference)
APD  .M          26.400000               :Elevation of Depth Reference (LMF) above Permanent Datum
#-----------------------------------------------------------------------------
~CURVE INFORMATION
#MNEM.UNIT   API CODE                                  DESCRIPTION
#---- -----  --------                                  -----------------------
TIME .S                                                :TIME {F10.1}
TENS_SL.LBF                                            :Cable Tension {F13.4}
DEPT_SL..1IN                                           :Station logging depth {F13.4}
PDEP_XPT.M                                             :XPT Probe Depth {F13.4}
MTEP_SAP.DEGC                                          :Sapphire Gauge Manometer Temperature {F13.4}
MTEP_HYD.DEGC                                          :Hydrostatic Sapphire Gauge Manometer Temperature {F13.4}
PCO_HYD.PSI                                            :Hydrostatic Sapphire Dynamic Compensation {F13.4}
PND_HYD.PSI                                            :Hydrostatic Sapphire Pressure Without Dynamic Compensation {F13.4}
CP_HYD.PSI                                             :Hydrostatic Sapphire Pressure With Dynamic Compensation {F13.4}
MTEP_QG.DEGC                                           :CQG Manometer Temperature {F13.4}
PTNO_XPT.                                              :XPT Pretest Number {I11}
ETIM_XPT.S                                             :Elapsed Logging Time {F13.4}
PCO_SAP.PSI                                            :Sapphire Dynamic Compensation {F13.4}
PND_SAP.PSI                                            :Sapphire Pressure Without Dynamic Compensation {F13.4}
CP_SAP.PSI                                             :Sapphire Pressure With Dynamic Compensation {F13.4}
QNDP .PSI                                              :CQG Pressure Without Dynamic Compensation {F13.4}
QCP  .PSI                                              :CQG Pressure With Dynamic Compensation {F13.4}
QPCO .PSI                                              :CQG Dynamic Compensation {F13.4}
#-----------------------------------------------------------------------------
# 
#     TIME      TENS_SL      DEPT_SL      PDEP_XPT     MTEP_SAP     MTEP_HYD     PCO_HYD      PND_HYD       CP_HYD      MTEP_QG       PTNO_XPT       ETIM_XPT     PCO_SAP      PND_SAP       CP_SAP        QNDP         QCP          QPCO
#
~A  
# ...
    1437.0    4762.9265 1496483.0000    3799.4575     128.6662     129.0510      -0.1127    6182.0909    6181.9781     129.5741         27     105.1646      -0.1690    6186.3881    6186.2190    6184.1524    6184.0583      -0.0943
    1438.0    4807.6516 1496483.0000    3799.4575     128.6640     129.0493      -0.1159    6182.0799    6181.9642     129.5734         27     106.1646      -0.1790    6184.1014    6183.9225    6181.9545    6181.8278      -0.1268
    1439.0    4876.8966 1496483.0000    3799.4575     128.6594     129.0473      -0.1182    6182.0863    6181.9680     129.5733         27     107.1646      -0.1846    6179.3525    6179.1677    6177.4191    6177.2518      -0.1672
    1440.0    4841.7810 1496483.0000    3799.4575     128.6558     129.0454      -0.1190    6181.9707    6181.8516     129.5728         27     108.1646      -0.1873    6175.3621    6175.1748    6173.5974    6173.3883      -0.2091
    1441.0    4800.5972 1496483.0000    3799.4575     128.6517     129.0439      -0.1180    6181.8945    6181.7763     129.5718         27     109.1646      -0.1863    6171.5702    6171.3840    6169.8921    6169.6434      -0.2487
    1442.0    4837.7251 1496483.0000    3799.4575     128.6489     129.0397      -0.1157    6181.8505    6181.7350     129.5712         27     110.1646      -0.1808    6168.1099    6167.9292    6166.5420    6166.2576      -0.2843
    1443.0    4876.0735 1496483.0000    3799.4575     128.6463     129.0387      -0.1128    6181.8395    6181.7267     129.5701         27     111.1646      -0.1728    6164.3673    6164.1943    6162.7756    6162.4589      -0.3165
    1444.0    4839.5796 1496483.0000    3799.4575     128.6416     129.0370      -0.1105    6181.9429    6181.8325     129.5690         27     112.1646      -0.1652    6161.0273    6160.8620    6159.5986    6159.2534      -0.3453
    1445.0    4805.0245 1496483.0000    3799.4575     128.6391     129.0358      -0.1090    6182.0845    6181.9756     129.5679         27     113.1646      -0.1574    6158.3287    6158.1711    6156.9107    6156.5405      -0.3702
    1446.0    4789.2381 1496483.0000    3799.4575     128.6381     129.0322      -0.1082    6181.9857    6181.8775     129.5668         27     114.1646      -0.1479    6155.0752    6154.9274    6153.7455    6153.3551      -0.3904
    1447.0    4757.0368 1496483.0000    3799.4575     128.6354     129.0314      -0.1077    6182.0034    6181.8959     129.5654         27     115.1646      -0.1378    6152.0107    6151.8728    6150.6198    6150.2145      -0.4052
    1448.0    4740.5184 1496483.0000    3799.4575     128.6313     129.0294      -0.1080    6182.1041    6181.9961     129.5641         27     116.1646      -0.1297    6149.1214    6148.9916    6147.8519    6147.4358      -0.4158
    1449.0    4735.6340 1496483.0000    3799.4575     128.6300     129.0256      -0.1098    6181.9595    6181.8498     129.5628         27     117.1646      -0.1234    6147.8675    6147.7441    6146.5149    6146.0919      -0.4229
    1450.0    4753.9388 1496483.0000    3799.4575     128.6279     129.0248      -0.1116    6182.0481    6181.9363     129.5616         27     118.1646      -0.1173    6147.5465    6147.4291    6146.1656    6145.7384      -0.4270
    1451.0    4783.9388 1496483.0000    3799.4575     128.6260     129.0237      -0.1130    6182.0121    6181.8992     129.5601         27     119.1646      -0.1116    6147.2572    6147.1456    6145.8321    6145.4034      -0.4288
    1452.0    4816.7374 1496483.0000    3799.4575     128.6230     129.0210      -0.1144    6182.0425    6181.9279     129.5587         27     120.1646      -0.1081    6146.9443    6146.8361    6145.6316    6145.2029      -0.4288
    1453.0    4858.1401 1496483.0000    3799.4575     128.6211     129.0180      -0.1165    6181.9829    6181.8663     129.5573         27     121.1646      -0.1078    6146.8387    6146.7308    6145.4453    6145.0148      -0.4306
    1454.0    4866.3660 1496483.0000    3799.4575     128.6198     129.0176      -0.1171    6181.9155    6181.7985     129.5561         27     122.1646      -0.1371    6146.6667    6146.5293    6145.2740    6144.7813      -0.4928
    1455.0    4854.6462 1496483.0000    3799.4575     128.6183     129.0137      -0.1149    6181.9376    6181.8226     129.5546         27     123.1646      -0.2418    6146.6175    6146.3756    6145.1051    6144.4134      -0.6918
    1456.0    4862.6708 1496483.0000    3799.4575     128.6166     129.0127      -0.1107    6181.8662    6181.7554     129.5534         27     124.1646      -0.5104    6146.3253    6145.8151    6144.9244    6143.7550      -1.1696
    1457.0    4849.8055 1496483.0000    3799.4575     128.6133     129.0093      -0.1074    6181.9409    6181.8333     129.5520         27     125.1646      -0.9020    6146.1137    6145.2116    6144.7638    6142.9132      -1.8506
    1458.0    4792.6708 1496483.0000    3799.4575     128.6128     129.0080      -0.1060    6181.9243    6181.8181     129.5506         27     126.1646      -1.2461    6146.0212    6144.7751    6144.5766    6142.0953      -2.4813
    1459.0    4789.0245 1496483.0000    3799.4575     128.5992     129.0060      -0.1059    6181.8559    6181.7499     129.5453         27     127.1646      -1.4768    6052.5881    6051.1110    6053.5176    6050.4873      -3.0301
    1460.0    4773.7320 1496483.0000    3799.4575     128.5178     129.0056      -0.1067    6182.0741    6181.9675     129.5207         28     128.1646      -1.4752    5560.6518    5559.1765    5568.2211    5564.9119      -3.3092
    1461.0    4753.4204 1496483.0000    3799.4575     128.4600     129.0019      -0.1075    6181.9941    6181.8867     129.5048         28     129.1646      -1.2300    5310.9201    5309.6901    5319.6330    5316.3311      -3.3020
    1462.0    4788.3048 1496483.0000    3799.4575     128.4370     129.0013      -0.1080    6182.0433    6181.9354     129.4944         28     130.1646      -0.7570    5226.3540    5225.5968    5234.6111    5231.6384      -2.9728
    1463.0    4809.2190 1496483.0000    3799.4575     128.4350     128.9981      -0.1088    6181.8977    6181.7887     129.4869         28     131.1646      -0.1627    5215.6078    5215.4452    5222.5790    5220.1525      -2.4264
    1464.0    4853.3660 1496483.0000    3799.4575     128.4482     128.9967      -0.1104    6181.9385    6181.8281     129.4804         28     132.1646       0.3717    5259.9579    5260.3295    5264.4255    5262.5575      -1.8681
    1465.0    4841.4816 1496483.0000    3799.4575     128.4913     128.9952      -0.1124    6181.9129    6181.8007     129.4819         28     133.1646       0.7082    5471.8974    5472.6056    5472.4842    5471.0395      -1.4447
    1466.0    4848.5061 1496483.0000    3799.4575     128.5136     128.9942      -0.1141    6181.7916    6181.6773     129.4781         28     134.1646       0.8091    5526.9277    5527.7366    5525.9815    5524.7924      -1.1891
    1467.0    4837.6041 1496483.0000    3799.4575     128.5273     128.9913      -0.1156    6181.8218    6181.7063     129.4732         28     135.1646       0.7277    5546.8498    5547.5777    5545.3497    5544.2914      -1.0584
    1468.0    4789.8966 1496483.0000    3799.4575     128.5337     128.9876      -0.1159    6181.9006    6181.7848     129.4691         28     136.1646       0.5522    5555.1436    5555.6958    5553.4322    5552.4460      -0.9861
    1469.0    4766.1401 1496483.0000    3799.4575     128.5403     128.9859      -0.1150    6181.9456    6181.8305     129.4661         28     137.1646       0.3670    5559.7621    5560.1290    5557.9327    5557.0236      -0.9089
    1470.0    4781.1156 1496483.0000    3799.4575     128.5425     128.9839      -0.1141    6181.9240    6181.8100     129.4636         28     138.1646       0.2278    5563.2345    5563.4624    5561.4775    5560.6828      -0.7947
    1471.0    4802.3292 1496483.0000    3799.4575     128.5469     128.9808      -0.1142    6182.0071    6181.8929     129.4616         28     139.1646       0.1420    5565.9326    5566.0747    5564.0506    5563.3891      -0.6614
