~VERSION INFORMATION
VERS.           2.0   :CWLS Log ASCII Standard - VERSION 2.0
WRAP.           NO    :One Line per depth step
PROD.  Schlumberger   :LAS Producer
PROG.  DLIS to ASCII 2.2                               :LAS Program name and version
CREA.        2020/10/30 12:18                          :LAS Creation date {YYYY/MM/DD hh:mm}
SOURCE.     XPT_HRLA_TLD_MCFL_037LTP.DLIS              :DLIS File Name
FILE-ID.     XPT_HRLA_TLD_MCFL_037LTP                  :File Identification Number
#--------------------------------------------------
~WELL INFORMATION
#MNEM.UNIT      DATA             DESCRIPTION
#---- ------ --------------   -----------------------------
STRT .S        35745.0       :START TIME      
STOP .S        36558.0       :STOP TIME      
STEP .S            1.0       :STEP     
NULL .          -999.25      :NULL VALUE
COMP .        Nexus Energy                             :COMPANY
WELL .        Crux-3                                   :WELL
FLD  .        Crux                                     :FIELD
LOC  .        Easting: 656981.7mE                      :LOCATION
CNTY .        Sedco-703                                :COUNTY
STAT .        Northern Territory                       :STATE
CTRY .        Australia                                :COUNTRY
API  .                                                 :API NUMBER
UWI  .                                                 :UNIQUE WELL ID
DATE .        31-Dec-2007                              :LOG DATE {DD-MMM-YYYY}
SRVC .        Schlumberger                             :SERVICE COMPANY
LATI .DEG     12*57'32.63" S                           :LATITUDE
LONG .DEG     124*26'50.07" E                          :LONGITUDE
GDAT .                                                 :GeoDetic Datum
#-----------------------------------------------------------------------------
~PARAMETER INFORMATION
#MNEM.UNIT    VALUE                      DESCRIPTION
#---- -----   --------------------       ------------------------
RUN  .          1                        :RUN NUMBER
PDAT .        LAT                        :Permanent Datum
EPD  .M           0.000000               :Elevation of Permanent Datum above Mean Sea Level
EPD  .M           0.000000               :Elevation of tool zero above Mean Sea Level
LMF  .          DF                       :Logging Measured From (Name of Logging Elevation Reference)
APD  .M          26.400000               :Elevation of Depth Reference (LMF) above Permanent Datum
#-----------------------------------------------------------------------------
~CURVE INFORMATION
#MNEM.UNIT   API CODE                                  DESCRIPTION
#---- -----  --------                                  -----------------------
TIME .S                                                :TIME {F10.1}
TENS_SL.LBF                                            :Cable Tension {F13.4}
DEPT_SL..1IN                                           :Station logging depth {F13.4}
PDEP_XPT.M                                             :XPT Probe Depth {F13.4}
MTEP_SAP.DEGC                                          :Sapphire Gauge Manometer Temperature {F13.4}
MTEP_HYD.DEGC                                          :Hydrostatic Sapphire Gauge Manometer Temperature {F13.4}
PCO_HYD.PSI                                            :Hydrostatic Sapphire Dynamic Compensation {F13.4}
PND_HYD.PSI                                            :Hydrostatic Sapphire Pressure Without Dynamic Compensation {F13.4}
CP_HYD.PSI                                             :Hydrostatic Sapphire Pressure With Dynamic Compensation {F13.4}
MTEP_QG.DEGC                                           :CQG Manometer Temperature {F13.4}
PTNO_XPT.                                              :XPT Pretest Number {I11}
ETIM_XPT.S                                             :Elapsed Logging Time {F13.4}
PCO_SAP.PSI                                            :Sapphire Dynamic Compensation {F13.4}
PND_SAP.PSI                                            :Sapphire Pressure Without Dynamic Compensation {F13.4}
CP_SAP.PSI                                             :Sapphire Pressure With Dynamic Compensation {F13.4}
QNDP .PSI                                              :CQG Pressure Without Dynamic Compensation {F13.4}
QCP  .PSI                                              :CQG Pressure With Dynamic Compensation {F13.4}
QPCO .PSI                                              :CQG Dynamic Compensation {F13.4}
#-----------------------------------------------------------------------------
# 
#     TIME      TENS_SL      DEPT_SL      PDEP_XPT     MTEP_SAP     MTEP_HYD     PCO_HYD      PND_HYD       CP_HYD      MTEP_QG       PTNO_XPT       ETIM_XPT     PCO_SAP      PND_SAP       CP_SAP        QNDP         QCP          QPCO
#
~A  
# ...
   35780.0    4738.4560 1417595.0000    3599.0823     118.7105     119.2594       0.0077    5862.4716    5862.4795     118.7456          0      34.7480       0.0020    5860.8240    5860.8261    5857.6608    5857.9728       0.3119
   35781.0    4732.0320 1417595.0000    3599.0823     118.7102     119.2602       0.0047    5862.4404    5862.4452     118.7466          0      35.7480       0.0008    5860.9056    5860.9065    5857.7382    5858.0492       0.3109
   35782.0    4693.5920 1417595.0000    3599.0823     118.7098     119.2594       0.0010    5862.4326    5862.4336     118.7479          0      36.7480      -0.0006    5860.9031    5860.9026    5857.7627    5858.0726       0.3097
   35783.0    4666.2920 1417595.0000    3599.0823     118.7111     119.2614      -0.0019    5862.6166    5862.6148     118.7489          0      37.7480      -0.0003    5861.0028    5861.0027    5857.8254    5858.1341       0.3087
   35784.0    4655.7640 1417595.0000    3599.0823     118.7106     119.2588      -0.0038    5862.6048    5862.6009     118.7498          0      38.7480       0.0023    5861.0877    5861.0898    5857.8489    5858.1569       0.3080
   35785.0    4650.2600 1417595.0000    3599.0823     118.7100     119.2591      -0.0043    5862.5876    5862.5832     118.7510          0      39.7480       0.0050    5861.1318    5861.1369    5857.9178    5858.2254       0.3076
   35786.0    4621.3240 1417595.0000    3599.0823     118.7098     119.2594      -0.0028    5862.6165    5862.6139     118.7518          0      40.7480       0.0072    5860.9034    5860.9107    5857.8805    5858.1882       0.3075
   35787.0    4669.5960 1417595.0000    3599.0823     118.7108     119.2588       0.0005    5862.6048    5862.6054     118.7530          0      41.7480       0.0102    5861.0558    5861.0662    5857.8702    5858.1778       0.3077
   35788.0    4702.4640 1417595.0000    3599.0823     118.7111     119.2588       0.0035    5862.5459    5862.5495     118.7538          0      42.7480       0.0130    5861.0130    5861.0260    5857.8014    5858.1087       0.3074
   35789.0    4733.9280 1417595.0000    3599.0823     118.7110     119.2594       0.0041    5862.6062    5862.6102     118.7548          0      43.7480       0.0129    5860.9343    5860.9470    5857.7237    5858.0303       0.3065
   35790.0    4743.7480 1417595.0000    3599.0823     118.7105     119.2589       0.0018    5862.4368    5862.4386     118.7561          0      44.7480       0.0098    5860.8451    5860.8547    5857.7450    5858.0506       0.3056
   35791.0    4735.7720 1417595.0000    3599.0823     118.7121     119.2607      -0.0010    5862.4324    5862.4314     118.7570          0      45.7480       0.0068    5860.9486    5860.9554    5857.7615    5858.0666       0.3052
   35792.0    4698.5920 1417595.0000    3599.0823     118.7132     119.2602      -0.0025    5862.5000    5862.4976     118.7577          0      46.7480       0.0067    5861.0316    5861.0383    5857.7633    5858.0685       0.3050
   35793.0    4649.6000 1417595.0000    3599.0823     118.7114     119.2593      -0.0030    5862.4504    5862.4475     118.7591          0      47.7480       0.0078    5860.8938    5860.9017    5857.8242    5858.1288       0.3045
   35794.0    4626.5280 1417595.0000    3599.0823     118.7123     119.2594      -0.0032    5862.5511    5862.5481     118.7599          0      48.7480       0.0087    5860.9763    5860.9851    5857.8557    5858.1597       0.3040
   35795.0    4637.9600 1417595.0000    3599.0823     118.7117     119.2585      -0.0026    5862.5076    5862.5051     118.7611          0      49.7480       0.0087    5861.0294    5861.0382    5857.8429    5858.1466       0.3035
   35796.0    4681.1480 1417595.0000    3599.0823     118.7133     119.2595      -0.0013    5862.5625    5862.5612     118.7622          0      50.7480       0.0080    5861.0344    5861.0422    5857.8452    5858.1485       0.3033
   35797.0    4728.4080 1417595.0000    3599.0823     118.7127     119.2598      -0.0003    5862.5850    5862.5845     118.7631          0      51.7480       0.0069    5861.0477    5861.0548    5857.8494    5858.1521       0.3028
   35798.0    4754.9600 1417595.0000    3599.0823     118.7138     119.2594      -0.0009    5862.5414    5862.5405     118.7639          0      52.7480       0.0046    5860.9990    5861.0036    5857.7990    5858.1008       0.3018
   35799.0    4732.3240 1417595.0000    3599.0823     118.7125     119.2590      -0.0023    5862.4877    5862.4852     118.7649          0      53.7480       0.0002    5860.9725    5860.9728    5857.7996    5858.0998       0.3004
   35800.0    4672.1360 1417595.0000    3599.0823     118.7122     119.2597      -0.0019    5862.5140    5862.5123     118.7660          0      54.7480      -0.0050    5860.9838    5860.9787    5857.8166    5858.1154       0.2989
   35801.0    4637.0480 1417595.0000    3599.0823     118.7137     119.2587       0.0008    5862.4598    5862.4606     118.7672          0      55.7480      -0.0071    5860.9785    5860.9712    5857.8251    5858.1235       0.2982
   35802.0    4631.0000 1417595.0000    3599.0823     118.7130     119.2591       0.0045    5862.5235    5862.5280     118.7681          0      56.7480      -0.0041    5860.9663    5860.9622    5857.8562    5858.1540       0.2977
   35803.0    4654.9360 1417595.0000    3599.0823     118.7107     119.2582       0.0066    5862.5590    5862.5656     118.7689          0      57.7480       0.0018    5861.0932    5861.0949    5857.9321    5858.2289       0.2968
   35804.0    4638.3160 1417595.0000    3599.0823     118.7118     119.2603       0.0066    5862.6697    5862.6762     118.7699          0      58.7480       0.0067    5860.9668    5860.9735    5857.8725    5858.1680       0.2955
   35805.0    4682.3600 1417595.0000    3599.0823     118.7115     119.2587       0.0046    5862.4844    5862.4888     118.7710          0      59.7480       0.0106    5860.9436    5860.9543    5857.8088    5858.1032       0.2944
   35806.0    4705.9840 1417595.0000    3599.0823     118.7129     119.2609       0.0036    5862.5674    5862.5710     118.7721          0      60.7480       0.0122    5860.9270    5860.9392    5857.7985    5858.0930       0.2945
   35807.0    4696.7800 1417595.0000    3599.0823     118.7140     119.2589       0.0033    5862.4871    5862.4905     118.7727          0      61.7480       0.0131    5860.9230    5860.9362    5857.7566    5858.0506       0.2940
   35808.0    4710.2040 1417595.0000    3599.0823     118.7128     119.2602       0.0038    5862.3218    5862.3257     118.7739          0      62.7480       0.0103    5860.7726    5860.7829    5857.6152    5857.9082       0.2931
   35809.0    4723.4800 1417595.0000    3599.0823     118.7128     119.2585       0.0038    5862.3040    5862.3079     118.7749          0      63.7480       0.0066    5860.8625    5860.8691    5857.7251    5858.0181       0.2930
   35810.0    4742.4560 1417595.0000    3599.0823     118.7149     119.2608       0.0032    5862.5013    5862.5043     118.7758          0      64.7480       0.0022    5860.9994    5861.0015    5857.8098    5858.1031       0.2933
   35811.0    4687.4120 1417595.0000    3599.0823     118.7126     119.2616       0.0026    5862.5746    5862.5770     118.7769          0      65.7480       0.0002    5860.9188    5860.9189    5857.8376    5858.1315       0.2938
   35812.0    4655.0320 1417595.0000    3599.0823     118.7132     119.2607       0.0010    5862.5398    5862.5407     118.7778          0      66.7480       0.0009    5861.0482    5861.0490    5857.8911    5858.1850       0.2938
   35813.0    4642.7720 1417595.0000    3599.0823     118.7129     119.2608      -0.0024    5862.6800    5862.6777     118.7786          0      67.7480       0.0019    5861.0758    5861.0777    5857.9769    5858.2703       0.2933
   35814.0    4628.7800 1417595.0000    3599.0823     118.7139     119.2601      -0.0058    5862.6822    5862.6763     118.7798          0      68.7480       0.0016    5861.1987    5861.2001    5858.0107    5858.3031       0.2923
