~VERSION INFORMATION
VERS.           2.0   :CWLS Log ASCII Standard - VERSION 2.0
WRAP.           NO    :One Line per depth step
PROD.  Schlumberger   :LAS Producer
PROG.  DLIS to ASCII 2.2                               :LAS Program name and version
CREA.        2020/10/30 12:18                          :LAS Creation date {YYYY/MM/DD hh:mm}
SOURCE.     XPT_HRLA_TLD_MCFL_049LTP.DLIS              :DLIS File Name
FILE-ID.     XPT_HRLA_TLD_MCFL_049LTP                  :File Identification Number
#--------------------------------------------------
~WELL INFORMATION
#MNEM.UNIT      DATA             DESCRIPTION
#---- ------ --------------   -----------------------------
STRT .S          815.0       :START TIME      
STOP .S         1341.0       :STOP TIME      
STEP .S            1.0       :STEP     
NULL .          -999.25      :NULL VALUE
COMP .        Nexus Energy                             :COMPANY
WELL .        Crux-3                                   :WELL
FLD  .        Crux                                     :FIELD
LOC  .        Easting: 656981.7mE                      :LOCATION
CNTY .        Sedco-703                                :COUNTY
STAT .        Northern Territory                       :STATE
CTRY .        Australia                                :COUNTRY
API  .                                                 :API NUMBER
UWI  .                                                 :UNIQUE WELL ID
DATE .        31-Dec-2007                              :LOG DATE {DD-MMM-YYYY}
SRVC .        Schlumberger                             :SERVICE COMPANY
LATI .DEG     12*57'32.63" S                           :LATITUDE
LONG .DEG     124*26'50.07" E                          :LONGITUDE
GDAT .                                                 :GeoDetic Datum
#-----------------------------------------------------------------------------
~PARAMETER INFORMATION
#MNEM.UNIT    VALUE                      DESCRIPTION
#---- -----   --------------------       ------------------------
RUN  .          1                        :RUN NUMBER
PDAT .        LAT                        :Permanent Datum
EPD  .M           0.000000               :Elevation of Permanent Datum above Mean Sea Level
EPD  .M           0.000000               :Elevation of tool zero above Mean Sea Level
LMF  .          DF                       :Logging Measured From (Name of Logging Elevation Reference)
APD  .M          26.400000               :Elevation of Depth Reference (LMF) above Permanent Datum
#-----------------------------------------------------------------------------
~CURVE INFORMATION
#MNEM.UNIT   API CODE                                  DESCRIPTION
#---- -----  --------                                  -----------------------
TIME .S                                                :TIME {F10.1}
TENS_SL.LBF                                            :Cable Tension {F13.4}
DEPT_SL..1IN                                           :Station logging depth {F13.4}
PDEP_XPT.M                                             :XPT Probe Depth {F13.4}
MTEP_SAP.DEGC                                          :Sapphire Gauge Manometer Temperature {F13.4}
MTEP_HYD.DEGC                                          :Hydrostatic Sapphire Gauge Manometer Temperature {F13.4}
PCO_HYD.PSI                                            :Hydrostatic Sapphire Dynamic Compensation {F13.4}
PND_HYD.PSI                                            :Hydrostatic Sapphire Pressure Without Dynamic Compensation {F13.4}
CP_HYD.PSI                                             :Hydrostatic Sapphire Pressure With Dynamic Compensation {F13.4}
MTEP_QG.DEGC                                           :CQG Manometer Temperature {F13.4}
PTNO_XPT.                                              :XPT Pretest Number {I11}
ETIM_XPT.S                                             :Elapsed Logging Time {F13.4}
PCO_SAP.PSI                                            :Sapphire Dynamic Compensation {F13.4}
PND_SAP.PSI                                            :Sapphire Pressure Without Dynamic Compensation {F13.4}
CP_SAP.PSI                                             :Sapphire Pressure With Dynamic Compensation {F13.4}
QNDP .PSI                                              :CQG Pressure Without Dynamic Compensation {F13.4}
QCP  .PSI                                              :CQG Pressure With Dynamic Compensation {F13.4}
QPCO .PSI                                              :CQG Dynamic Compensation {F13.4}
#-----------------------------------------------------------------------------
# 
#     TIME      TENS_SL      DEPT_SL      PDEP_XPT     MTEP_SAP     MTEP_HYD     PCO_HYD      PND_HYD       CP_HYD      MTEP_QG       PTNO_XPT       ETIM_XPT     PCO_SAP      PND_SAP       CP_SAP        QNDP         QCP          QPCO
#
~A  
     815.0    4782.0575 1451040.0000    3684.0325     122.2286     122.7961       0.0000    5998.1426    5998.1426     122.7933         12       0.4819       0.0000    5996.1144    5996.1144    5993.3431    5993.3431       0.0000
     816.0    4801.2900 1451040.0000    3684.0325     122.2294     122.7940       0.0000    5998.0005    5998.0005     122.7934         12       1.4819       0.0000    5996.1483    5996.1483    5993.3741    5993.3741       0.0000
     817.0    4784.8081 1451040.0000    3684.0325     122.2291     122.7946       0.0000    5998.0669    5998.0669     122.7937         12       2.4819       0.0000    5996.1485    5996.1485    5993.3391    5993.3391       0.0000
     818.0    4789.4925 1451040.0000    3684.0325     122.2311     122.7953       0.0000    5998.0151    5998.0151     122.7939         12       3.4819       0.0000    5996.1570    5996.1570    5993.3577    5993.3577       0.0000
     819.0    4787.1344 1451040.0000    3684.0325     122.2301     122.7961       0.0000    5998.0784    5998.0784     122.7941         12       4.4819       0.0000    5996.2461    5996.2461    5993.4425    5993.4425       0.0000
     820.0    4738.6419 1451040.0000    3684.0325     122.2293     122.7962       0.0000    5998.1518    5998.1518     122.7944         12       5.4819       0.0000    5996.1992    5996.1992    5993.4911    5993.4911       0.0000
     821.0    4703.5906 1451040.0000    3684.0325     122.2314     122.7969       0.0185    5998.0908    5998.1094     122.7948         12       6.4819       0.0238    5996.2537    5996.2774    5993.4828    5993.5641       0.0812
     822.0    4687.5075 1451040.0000    3684.0325     122.2312     122.7947       0.0183    5998.2450    5998.2631     122.7949         12       7.4819       0.0260    5996.3177    5996.3435    5993.5845    5993.6651       0.0808
     823.0    4662.3988 1451040.0000    3684.0325     122.2317     122.7976       0.0183    5998.3215    5998.3397     122.7954         12       8.4819       0.0281    5996.4274    5996.4553    5993.5966    5993.6771       0.0804
     824.0    4658.7100 1451040.0000    3684.0325     122.2318     122.7979       0.0200    5998.2802    5998.3003     122.7955         12       9.4819       0.0281    5996.3836    5996.4116    5993.5961    5993.6762       0.0802
     825.0    4705.5500 1451040.0000    3684.0325     122.2322     122.7979       0.0216    5998.2999    5998.3214     122.7959         12      10.4819       0.0260    5996.4272    5996.4531    5993.6497    5993.7302       0.0804
     826.0    4782.1769 1451040.0000    3684.0325     122.2339     122.7976       0.0215    5998.2778    5998.2993     122.7961         12      11.4819       0.0245    5996.4191    5996.4435    5993.6381    5993.7187       0.0805
     827.0    4805.0619 1451040.0000    3684.0325     122.2343     122.7991       0.0210    5998.2339    5998.2549     122.7964         12      12.4819       0.0238    5996.4480    5996.4720    5993.5828    5993.6639       0.0808
     828.0    4775.5075 1451040.0000    3684.0325     122.2342     122.7989       0.0221    5998.2495    5998.2714     122.7964         12      13.4819       0.0230    5996.3131    5996.3361    5993.5558    5993.6369       0.0812
     829.0    4751.8444 1451040.0000    3684.0325     122.2341     122.8004       0.0230    5998.2306    5998.2536     122.7970         12      14.4819       0.0215    5996.3015    5996.3228    5993.5357    5993.6169       0.0813
     830.0    4724.6525 1451040.0000    3684.0325     122.2352     122.7999       0.0213    5998.1821    5998.2036     122.7969         12      15.4819       0.0200    5996.2832    5996.3032    5993.5633    5993.6448       0.0814
     831.0    4727.2025 1451040.0000    3684.0325     122.2357     122.7999       0.0182    5998.2615    5998.2796     122.7974         12      16.4819       0.0200    5996.4146    5996.4346    5993.6117    5993.6928       0.0813
     832.0    4749.5181 1451040.0000    3684.0325     122.2369     122.8018       0.0155    5998.3810    5998.3965     122.7978         12      17.4819       0.0200    5996.4985    5996.5185    5993.6823    5993.7639       0.0814
     833.0    4741.2900 1451040.0000    3684.0325     122.2353     122.8013       0.0147    5998.3163    5998.3309     122.7977         12      18.4819       0.0195    5996.4279    5996.4474    5993.7229    5993.8044       0.0815
     834.0    4708.4244 1451040.0000    3684.0325     122.2371     122.8011       0.0151    5998.3966    5998.4118     122.7983         12      19.4819       0.0191    5996.4006    5996.4196    5993.6657    5993.7477       0.0818
     835.0    4674.7719 1451040.0000    3684.0325     122.2374     122.8009       0.0160    5998.3341    5998.3498     122.7985         12      20.4819       0.0203    5996.5363    5996.5565    5993.7050    5993.7875       0.0824
     836.0    4661.6994 1451040.0000    3684.0325     122.2357     122.8011       0.0176    5998.3871    5998.4048     122.7988         12      21.4819       0.0231    5996.4142    5996.4373    5993.6995    5993.7821       0.0826
     837.0    4678.1663 1451040.0000    3684.0325     122.2375     122.8014       0.0208    5998.3495    5998.3704     122.7987         12      22.4819       0.0266    5996.4303    5996.4571    5993.6616    5993.7437       0.0822
     838.0    4720.7931 1451040.0000    3684.0325     122.2387     122.8027       0.0237    5998.3909    5998.4146     122.7992         12      23.4819       0.0294    5996.4862    5996.5156    5993.6994    5993.7810       0.0817
     839.0    4762.6844 1451040.0000    3684.0325     122.2389     122.8027       0.0243    5998.4197    5998.4441     122.7996         12      24.4819       0.0301    5996.4984    5996.5284    5993.7280    5993.8100       0.0819
     840.0    4792.2644 1451040.0000    3684.0325     122.2403     122.8030       0.0225    5998.3940    5998.4165     122.7997         12      25.4819       0.0288    5996.4859    5996.5147    5993.6672    5993.7497       0.0824
     841.0    4786.9531 1451040.0000    3684.0325     122.2399     122.8042       0.0208    5998.2867    5998.3076     122.8001         12      26.4819       0.0270    5996.4409    5996.4681    5993.6575    5993.7405       0.0828
     842.0    4769.1812 1451040.0000    3684.0325     122.2406     122.8033       0.0201    5998.2937    5998.3137     122.8002         12      27.4819       0.0260    5996.5176    5996.5437    5993.7081    5993.7914       0.0833
     843.0    4765.9275 1451040.0000    3684.0325     122.2409     122.8045       0.0201    5998.2937    5998.3137     122.8006         12      28.4819       0.0255    5996.4623    5996.4877    5993.6880    5993.7719       0.0838
     844.0    4768.4819 1451040.0000    3684.0325     122.2397     122.8044       0.0206    5998.2300    5998.2505     122.8009         12      29.4819       0.0245    5996.4663    5996.4907    5993.6822    5993.7662       0.0841
     845.0    4758.3988 1451040.0000    3684.0325     122.2406     122.8063       0.0222    5998.3171    5998.3392     122.8011         12      30.4819       0.0254    5996.4502    5996.4755    5993.6875    5993.7715       0.0839
     846.0    4727.2431 1451040.0000    3684.0325     122.2424     122.8053       0.0234    5998.3020    5998.3254     122.8014         12      31.4819       0.0279    5996.5385    5996.5663    5993.7216    5993.8051       0.0834
     847.0    4689.1344 1451040.0000    3684.0325     122.2427     122.8071       0.0245    5998.4125    5998.4369     122.8017         12      32.4819       0.0314    5996.5116    5996.5430    5993.7161    5993.7991       0.0832
     848.0    4675.3369 1451040.0000    3684.0325     122.2439     122.8077       0.0255    5998.3682    5998.3936     122.8020         12      33.4819       0.0322    5996.4769    5996.5091    5993.7131    5993.7966       0.0834
     849.0    4695.9019 1451040.0000    3684.0325     122.2451     122.8067       0.0270    5998.3153    5998.3421     122.8021         12      34.4819       0.0300    5996.5604    5996.5903    5993.7550    5993.8385       0.0836
