~VERSION INFORMATION
VERS.           2.0   :CWLS Log ASCII Standard - VERSION 2.0
WRAP.           NO    :One Line per depth step
PROD.  Schlumberger   :LAS Producer
PROG.  DLIS to ASCII 2.2                               :LAS Program name and version
CREA.        2020/10/30 12:18                          :LAS Creation date {YYYY/MM/DD hh:mm}
SOURCE.     XPT_HRLA_TLD_MCFL_048LTP.DLIS              :DLIS File Name
FILE-ID.     XPT_HRLA_TLD_MCFL_048LTP                  :File Identification Number
#--------------------------------------------------
~WELL INFORMATION
#MNEM.UNIT      DATA             DESCRIPTION
#---- ------ --------------   -----------------------------
STRT .S           91.0       :START TIME      
STOP .S          545.0       :STOP TIME      
STEP .S            1.0       :STEP     
NULL .          -999.25      :NULL VALUE
COMP .        Nexus Energy                             :COMPANY
WELL .        Crux-3                                   :WELL
FLD  .        Crux                                     :FIELD
LOC  .        Easting: 656981.7mE                      :LOCATION
CNTY .        Sedco-703                                :COUNTY
STAT .        Northern Territory                       :STATE
CTRY .        Australia                                :COUNTRY
API  .                                                 :API NUMBER
UWI  .                                                 :UNIQUE WELL ID
DATE .        31-Dec-2007                              :LOG DATE {DD-MMM-YYYY}
SRVC .        Schlumberger                             :SERVICE COMPANY
LATI .DEG     12*57'32.63" S                           :LATITUDE
LONG .DEG     124*26'50.07" E                          :LONGITUDE
GDAT .                                                 :GeoDetic Datum
#-----------------------------------------------------------------------------
~PARAMETER INFORMATION
#MNEM.UNIT    VALUE                      DESCRIPTION
#---- -----   --------------------       ------------------------
RUN  .          1                        :RUN NUMBER
PDAT .        LAT                        :Permanent Datum
EPD  .M           0.000000               :Elevation of Permanent Datum above Mean Sea Level
EPD  .M           0.000000               :Elevation of tool zero above Mean Sea Level
LMF  .          DF                       :Logging Measured From (Name of Logging Elevation Reference)
APD  .M          26.400000               :Elevation of Depth Reference (LMF) above Permanent Datum
#-----------------------------------------------------------------------------
~CURVE INFORMATION
#MNEM.UNIT   API CODE                                  DESCRIPTION
#---- -----  --------                                  -----------------------
TIME .S                                                :TIME {F10.1}
TENS_SL.LBF                                            :Cable Tension {F13.4}
DEPT_SL..1IN                                           :Station logging depth {F13.4}
PDEP_XPT.M                                             :XPT Probe Depth {F13.4}
MTEP_SAP.DEGC                                          :Sapphire Gauge Manometer Temperature {F13.4}
MTEP_HYD.DEGC                                          :Hydrostatic Sapphire Gauge Manometer Temperature {F13.4}
PCO_HYD.PSI                                            :Hydrostatic Sapphire Dynamic Compensation {F13.4}
PND_HYD.PSI                                            :Hydrostatic Sapphire Pressure Without Dynamic Compensation {F13.4}
CP_HYD.PSI                                             :Hydrostatic Sapphire Pressure With Dynamic Compensation {F13.4}
MTEP_QG.DEGC                                           :CQG Manometer Temperature {F13.4}
PTNO_XPT.                                              :XPT Pretest Number {I11}
ETIM_XPT.S                                             :Elapsed Logging Time {F13.4}
PCO_SAP.PSI                                            :Sapphire Dynamic Compensation {F13.4}
PND_SAP.PSI                                            :Sapphire Pressure Without Dynamic Compensation {F13.4}
CP_SAP.PSI                                             :Sapphire Pressure With Dynamic Compensation {F13.4}
QNDP .PSI                                              :CQG Pressure Without Dynamic Compensation {F13.4}
QCP  .PSI                                              :CQG Pressure With Dynamic Compensation {F13.4}
QPCO .PSI                                              :CQG Dynamic Compensation {F13.4}
#-----------------------------------------------------------------------------
# 
#     TIME      TENS_SL      DEPT_SL      PDEP_XPT     MTEP_SAP     MTEP_HYD     PCO_HYD      PND_HYD       CP_HYD      MTEP_QG       PTNO_XPT       ETIM_XPT     PCO_SAP      PND_SAP       CP_SAP        QNDP         QCP          QPCO
#
~A  
# ...
     301.0    4788.8025 1445909.0000    3671.0000     122.1151     122.6716       0.0065    5977.6740    5977.6806     122.6602         11     209.8206       0.0094    5529.9746    5529.9840    5527.1374    5527.2741       0.1367
     302.0    4810.8475 1445909.0000    3671.0000     122.1157     122.6743       0.0054    5977.6904    5977.6958     122.6607         11     210.8206       0.0148    5529.9720    5529.9867    5527.1339    5527.2696       0.1357
     303.0    4805.6144 1445909.0000    3671.0000     122.1126     122.6721       0.0056    5977.6629    5977.6684     122.6611         11     211.8206       0.0197    5529.8994    5529.9190    5527.1279    5527.2627       0.1349
     304.0    4796.6144 1445909.0000    3671.0000     122.1165     122.6735       0.0064    5977.6387    5977.6452     122.6616         11     212.8206       0.0208    5530.0526    5530.0734    5527.1229    5527.2572       0.1343
     305.0    4804.0269 1445909.0000    3671.0000     122.1164     122.6743       0.0076    5977.8101    5977.8177     122.6622         11     213.8206       0.0185    5529.9851    5530.0034    5527.1178    5527.2516       0.1339
     306.0    4732.1438 1445909.0000    3671.0000     122.1185     122.6721       0.0085    5977.5521    5977.5604     122.6628         11     214.8206       0.0150    5530.0127    5530.0277    5527.1159    5527.2492       0.1331
     307.0    4689.7400 1445909.0000    3671.0000     122.1182     122.6737       0.0081    5977.7442    5977.7523     122.6628         11     215.8206       0.0121    5529.9666    5529.9786    5527.1116    5527.2431       0.1313
     308.0    4672.5112 1445909.0000    3671.0000     122.1182     122.6736       0.0067    5977.7483    5977.7548     122.6632         11     216.8206       0.0083    5529.9720    5529.9802    5527.1108    5527.2399       0.1291
     309.0    4665.8969 1445909.0000    3671.0000     122.1185     122.6746       0.0055    5977.7772    5977.7826     122.6640         11     217.8206       0.0044    5530.0106    5530.0149    5527.1060    5527.2334       0.1273
     310.0    4701.9281 1445909.0000    3671.0000     122.1174     122.6754       0.0063    5977.8055    5977.8115     122.6642         11     218.8206       0.0022    5529.9652    5529.9672    5527.0981    5527.2244       0.1263
     311.0    4778.9325 1445909.0000    3671.0000     122.1156     122.6736       0.0082    5977.8242    5977.8323     122.6648         11     219.8206       0.0034    5529.7713    5529.7746    5527.1009    5527.2266       0.1256
     312.0    4807.1300 1445909.0000    3671.0000     122.1168     122.6735       0.0096    5977.6549    5977.6646     122.6649         11     220.8206       0.0068    5529.8751    5529.8820    5527.0903    5527.2153       0.1249
     313.0    4826.4125 1445909.0000    3671.0000     122.1182     122.6734       0.0099    5977.6330    5977.6428     122.6652         11     221.8206       0.0105    5529.9685    5529.9792    5527.0864    5527.2108       0.1242
     314.0    4797.9956 1445909.0000    3671.0000     122.1182     122.6747       0.0094    5977.5751    5977.5843     122.6658         11     222.8206       0.0137    5529.8396    5529.8535    5527.0875    5527.2111       0.1235
     315.0    4779.5112 1445909.0000    3671.0000     122.1196     122.6766       0.0088    5977.7421    5977.7508     122.6661         11     223.8206       0.0166    5529.9824    5529.9990    5527.0855    5527.2080       0.1223
     316.0    4746.6369 1445909.0000    3671.0000     122.1193     122.6747       0.0073    5977.6595    5977.6666     122.6664         11     224.8206       0.0185    5529.9088    5529.9274    5527.0868    5527.2077       0.1209
     317.0    4713.7400 1445909.0000    3671.0000     122.1187     122.6753       0.0050    5977.7287    5977.7337     122.6670         11     225.8206       0.0188    5529.9609    5529.9795    5527.0832    5527.2029       0.1195
     318.0    4690.7669 1445909.0000    3671.0000     122.1185     122.6728       0.0036    5977.6147    5977.6182     122.6675         11     226.8206       0.0181    5529.9892    5530.0073    5527.0782    5527.1964       0.1184
     319.0    4673.8700 1445909.0000    3671.0000     122.1193     122.6759       0.0053    5977.8687    5977.8740     122.6679         11     227.8206       0.0174    5529.7802    5529.7976    5527.0845    5527.2021       0.1177
     320.0    4711.2106 1445909.0000    3671.0000     122.1190     122.6753       0.0089    5977.8199    5977.8290     122.6683         11     228.8206       0.0160    5529.8966    5529.9129    5527.0772    5527.1944       0.1173
     321.0    4696.2019 1445909.0000    3671.0000     122.1215     122.6759       0.0109    5977.8239    5977.8346     122.6683         11     229.8206       0.0132    5529.8924    5529.9055    5527.0726    5527.1888       0.1163
     322.0    4768.9594 1445909.0000    3671.0000     122.1204     122.6755       0.0100    5977.7630    5977.7730     122.6688         11     230.8206       0.0094    5529.8757    5529.8851    5527.0706    5527.1861       0.1154
     323.0    4793.3856 1445909.0000    3671.0000     122.1209     122.6752       0.0078    5977.7072    5977.7151     122.6692         11     231.8206       0.0064    5529.9054    5529.9119    5527.0693    5527.1837       0.1143
     324.0    4795.8206 1445909.0000    3671.0000     122.1212     122.6773       0.0069    5977.6600    5977.6668     122.6697         11     232.8206       0.0054    5529.9728    5529.9782    5527.0638    5527.1766       0.1129
     325.0    4780.4081 1445909.0000    3671.0000     122.1208     122.6753       0.0069    5977.5395    5977.5463     122.6698         11     233.8206       0.0052    5529.8224    5529.8276    5527.0618    5527.1719       0.1101
     326.0    4778.6412 1445909.0000    3671.0000     122.1208     122.6765       0.0067    5977.7491    5977.7560     122.6704         11     234.8206      -0.0009    5529.8540    5529.8529    5527.0652    5527.1617       0.0966
     327.0    4715.8119 1445909.0000    3671.0000     122.1202     122.6765       0.0064    5977.6561    5977.6624     122.6706         11     235.8206      -0.0215    5529.8992    5529.8776    5527.0645    5527.1244       0.0602
     328.0    4712.6681 1445909.0000    3671.0000     122.1204     122.6766       0.0071    5977.7144    5977.7214     122.6710         11     236.8206      -0.0563    5529.8491    5529.7928    5527.0669    5527.0683       0.0014
     329.0    4681.3544 1445909.0000    3671.0000     122.1218     122.6773       0.0081    5977.6025    5977.6107     122.6714         11     237.8206      -0.0914    5529.9785    5529.8872    5527.0648    5527.0035      -0.0613
     330.0    4668.2556 1445909.0000    3671.0000     122.1199     122.6773       0.0082    5977.8926    5977.9009     122.6717         11     238.8206      -0.1127    5529.7453    5529.6328    5527.0619    5526.9522      -0.1097
     331.0    4668.6412 1445909.0000    3671.0000     122.1137     122.6760       0.0071    5977.7201    5977.7272     122.6698         11     239.8206      -0.1165    5476.0583    5475.9417    5474.4978    5474.3562      -0.1417
     332.0    4728.9056 1445909.0000    3671.0000     122.1083     122.6781       0.0069    5977.7300    5977.7368     122.6684         12     240.8206      -0.1053    5443.9045    5443.7992    5442.1140    5441.9556      -0.1585
     333.0    4774.0044 1445909.0000    3671.0000     122.1057     122.6767       0.0087    5977.6636    5977.6725     122.6683         12     241.8206      -0.0781    5448.5114    5448.4331    5446.6004    5446.4466      -0.1541
     334.0    4792.4888 1445909.0000    3671.0000     122.1084     122.6775       0.0107    5977.6998    5977.7102     122.6683         12     242.8206      -0.0364    5450.5180    5450.4815    5448.3746    5448.2472      -0.1274
     335.0    4807.3094 1445909.0000    3671.0000     122.1096     122.6764       0.0111    5977.6303    5977.6416     122.6679         12     243.8206       0.0061    5451.8685    5451.8747    5449.6297    5449.5357      -0.0939
