~VERSION INFORMATION
VERS.           2.0   :CWLS Log ASCII Standard - VERSION 2.0
WRAP.           NO    :One Line per depth step
PROD.  Schlumberger   :LAS Producer
PROG.  DLIS to ASCII 2.2                               :LAS Program name and version
CREA.        2020/10/30 12:18                          :LAS Creation date {YYYY/MM/DD hh:mm}
SOURCE.     XPT_HRLA_TLD_MCFL_068LTP.DLIS              :DLIS File Name
FILE-ID.     XPT_HRLA_TLD_MCFL_068LTP                  :File Identification Number
#--------------------------------------------------
~WELL INFORMATION
#MNEM.UNIT      DATA             DESCRIPTION
#---- ------ --------------   -----------------------------
STRT .S           82.0       :START TIME      
STOP .S          488.0       :STOP TIME      
STEP .S            1.0       :STEP     
NULL .          -999.25      :NULL VALUE
COMP .        Nexus Energy                             :COMPANY
WELL .        Crux-3                                   :WELL
FLD  .        Crux                                     :FIELD
LOC  .        Easting: 656981.7mE                      :LOCATION
CNTY .        Sedco-703                                :COUNTY
STAT .        Northern Territory                       :STATE
CTRY .        Australia                                :COUNTRY
API  .                                                 :API NUMBER
UWI  .                                                 :UNIQUE WELL ID
DATE .        31-Dec-2007                              :LOG DATE {DD-MMM-YYYY}
SRVC .        Schlumberger                             :SERVICE COMPANY
LATI .DEG     12*57'32.63" S                           :LATITUDE
LONG .DEG     124*26'50.07" E                          :LONGITUDE
GDAT .                                                 :GeoDetic Datum
#-----------------------------------------------------------------------------
~PARAMETER INFORMATION
#MNEM.UNIT    VALUE                      DESCRIPTION
#---- -----   --------------------       ------------------------
RUN  .          1                        :RUN NUMBER
PDAT .        LAT                        :Permanent Datum
EPD  .M           0.000000               :Elevation of Permanent Datum above Mean Sea Level
EPD  .M           0.000000               :Elevation of tool zero above Mean Sea Level
LMF  .          DF                       :Logging Measured From (Name of Logging Elevation Reference)
APD  .M          26.400000               :Elevation of Depth Reference (LMF) above Permanent Datum
#-----------------------------------------------------------------------------
~CURVE INFORMATION
#MNEM.UNIT   API CODE                                  DESCRIPTION
#---- -----  --------                                  -----------------------
TIME .S                                                :TIME {F10.1}
TENS_SL.LBF                                            :Cable Tension {F13.4}
DEPT_SL..1IN                                           :Station logging depth {F13.4}
PDEP_XPT.M                                             :XPT Probe Depth {F13.4}
MTEP_SAP.DEGC                                          :Sapphire Gauge Manometer Temperature {F13.4}
MTEP_HYD.DEGC                                          :Hydrostatic Sapphire Gauge Manometer Temperature {F13.4}
PCO_HYD.PSI                                            :Hydrostatic Sapphire Dynamic Compensation {F13.4}
PND_HYD.PSI                                            :Hydrostatic Sapphire Pressure Without Dynamic Compensation {F13.4}
CP_HYD.PSI                                             :Hydrostatic Sapphire Pressure With Dynamic Compensation {F13.4}
MTEP_QG.DEGC                                           :CQG Manometer Temperature {F13.4}
PTNO_XPT.                                              :XPT Pretest Number {I11}
ETIM_XPT.S                                             :Elapsed Logging Time {F13.4}
PCO_SAP.PSI                                            :Sapphire Dynamic Compensation {F13.4}
PND_SAP.PSI                                            :Sapphire Pressure Without Dynamic Compensation {F13.4}
CP_SAP.PSI                                             :Sapphire Pressure With Dynamic Compensation {F13.4}
QNDP .PSI                                              :CQG Pressure Without Dynamic Compensation {F13.4}
QCP  .PSI                                              :CQG Pressure With Dynamic Compensation {F13.4}
QPCO .PSI                                              :CQG Dynamic Compensation {F13.4}
#-----------------------------------------------------------------------------
# 
#     TIME      TENS_SL      DEPT_SL      PDEP_XPT     MTEP_SAP     MTEP_HYD     PCO_HYD      PND_HYD       CP_HYD      MTEP_QG       PTNO_XPT       ETIM_XPT     PCO_SAP      PND_SAP       CP_SAP        QNDP         QCP          QPCO
#
~A  
# ...
     187.0    4918.9779 1566781.0000    3978.0146     132.8305     133.4807       0.0561    6464.8787    6464.9346     133.1945         31     105.1413       0.0317    6371.6574    6371.6891    6369.1220    6369.3176       0.1957
     188.0    4932.5541 1566781.0000    3978.0146     132.8318     133.4819       0.0527    6464.8427    6464.8956     133.1956         31     106.1413       0.0096    6371.6289    6371.6385    6369.0652    6369.2316       0.1663
     189.0    4951.8897 1566781.0000    3978.0146     132.8316     133.4823       0.0484    6464.6697    6464.7179     133.1959         31     107.1413      -0.0119    6359.1989    6359.1869    6356.8171    6356.9489       0.1319
     190.0    5018.9228 1566781.0000    3978.0146     132.8315     133.4837       0.0452    6464.8614    6464.9066     133.1959         31     108.1413      -0.0222    6344.1751    6344.1529    6341.8909    6342.0001       0.1092
     191.0    5061.2826 1566781.0000    3978.0146     132.8306     133.4843       0.0444    6464.7475    6464.7920     133.1960         31     109.1413      -0.0018    6330.2584    6330.2566    6328.1774    6328.3123       0.1351
     192.0    5065.8256 1566781.0000    3978.0146     132.8282     133.4837       0.0451    6464.6690    6464.7140     133.1965         31     110.1413       0.0648    6316.1400    6316.2048    6314.1438    6314.3805       0.2367
     193.0    5077.2075 1566781.0000    3978.0146     132.8273     133.4853       0.0464    6464.5862    6464.6326     133.1962         31     111.1413       0.1644    6301.3630    6301.5273    6299.4532    6299.8429       0.3897
     194.0    5038.8918 1566781.0000    3978.0146     132.8285     133.4858       0.0482    6464.6799    6464.7281     133.1964         31     112.1413       0.2608    6291.9447    6292.2054    6289.9213    6290.4629       0.5414
     195.0    5011.5231 1566781.0000    3978.0146     132.8270     133.4883       0.0508    6464.7793    6464.8302     133.1965         31     113.1413       0.3241    6285.0201    6285.3441    6282.9226    6283.5836       0.6610
     196.0    4962.9669 1566781.0000    3978.0146     132.8553     133.4884       0.0524    6464.7196    6464.7719     133.2051         31     114.1413       0.3466    6457.7431    6458.0895    6452.9265    6453.6763       0.7499
     197.0    4970.6865 1566781.0000    3978.0146     132.8619     133.4883       0.0511    6464.7183    6464.7692     133.2065         31     115.1413       0.3258    6463.1865    6463.5121    6458.7006    6459.4994       0.7989
     198.0    4918.7374 1566781.0000    3978.0146     132.8657     133.4899       0.0484    6464.9181    6464.9664     133.2083         31     116.1413       0.2580    6462.8677    6463.1256    6458.5396    6459.3257       0.7859
     199.0    4980.6093 1566781.0000    3978.0146     132.8676     133.4910       0.0468    6464.8695    6464.9164     133.2101         31     117.1413       0.1611    6463.1165    6463.2778    6458.9350    6459.6609       0.7259
     200.0    4960.0000 1566781.0000    3978.0146     132.8664     133.4921       0.0462    6464.8809    6464.9269     133.2121         31     118.1413       0.0717    6462.9591    6463.0306    6459.1119    6459.7753       0.6634
     201.0    4964.6623 1566781.0000    3978.0146     132.8653     133.4923       0.0456    6464.9358    6464.9816     133.2144         31     119.1413       0.0161    6462.9486    6462.9648    6459.3114    6459.9384       0.6271
     202.0    4999.7815 1566781.0000    3978.0146     132.8659     133.4936       0.0455    6464.8786    6464.9240     133.2161         31     120.1413      -0.0096    6462.5940    6462.5843    6459.0451    6459.6517       0.6066
     203.0    5043.4018 1566781.0000    3978.0146     132.8649     133.4939       0.0459    6464.8281    6464.8740     133.2180         31     121.1413      -0.0226    6460.4489    6460.4265    6457.0966    6457.6788       0.5822
     204.0    5058.9890 1566781.0000    3978.0146     132.8667     133.4949       0.0458    6464.8164    6464.8622     133.2200         31     122.1413      -0.0304    6456.5521    6456.5216    6453.4365    6453.9844       0.5480
     205.0    5066.9779 1566781.0000    3978.0146     132.8660     133.4946       0.0448    6464.7452    6464.7899     133.2213         31     123.1413      -0.0326    6453.0454    6453.0127    6449.9309    6450.4444       0.5133
     206.0    5078.8587 1566781.0000    3978.0146     132.8638     133.4977       0.0442    6464.6989    6464.7434     133.2229         31     124.1413      -0.0309    6448.8271    6448.7964    6445.8279    6446.3030       0.4751
     207.0    5079.5541 1566781.0000    3978.0146     132.8642     133.4979       0.0450    6464.7962    6464.8412     133.2244         31     125.1413      -0.0277    6445.1593    6445.1317    6442.3784    6442.8206       0.4419
     208.0    5085.7505 1566781.0000    3978.0146     132.8625     133.4979       0.0458    6464.7007    6464.7466     133.2255         31     126.1413      -0.0238    6441.8270    6441.8033    6439.1247    6439.5369       0.4122
     209.0    5060.0662 1566781.0000    3978.0146     132.8632     133.4983       0.0465    6464.7295    6464.7759     133.2268         31     127.1413      -0.0178    6438.9617    6438.9436    6436.2470    6436.6298       0.3826
     210.0    5016.9359 1566781.0000    3978.0146     132.8625     133.5000       0.0478    6464.7767    6464.8246     133.2279         31     128.1413      -0.0105    6435.3846    6435.3742    6432.6201    6432.9806       0.3605
     211.0    4972.4459 1566781.0000    3978.0146     132.8631     133.5001       0.0498    6464.7566    6464.8065     133.2290         31     129.1413      -0.0021    6432.4956    6432.4934    6429.8032    6430.1452       0.3420
     212.0    4959.3267 1566781.0000    3978.0146     132.8617     133.5021       0.0500    6464.8569    6464.9068     133.2300         31     130.1413       0.0061    6429.3958    6429.4020    6426.7608    6427.0895       0.3287
     213.0    4934.8808 1566781.0000    3978.0146     132.8592     133.5035       0.0475    6464.8228    6464.8704     133.2309         31     131.1413       0.0151    6426.3849    6426.4000    6423.9149    6424.2349       0.3199
     214.0    4922.0000 1566781.0000    3978.0146     132.8628     133.5032       0.0434    6464.8959    6464.9394     133.2318         31     132.1413       0.0256    6424.1036    6424.1291    6421.4845    6421.7993       0.3148
     215.0    4922.1413 1566781.0000    3978.0146     132.8627     133.5043       0.0403    6464.8192    6464.8594     133.2327         31     133.1413       0.0369    6423.7400    6423.7770    6421.0633    6421.3754       0.3120
     216.0    4927.2384 1566781.0000    3978.0146     132.8623     133.5050       0.0391    6464.8304    6464.8695     133.2336         31     134.1413       0.0466    6423.6716    6423.7183    6421.0281    6421.3391       0.3108
     217.0    4960.2053 1566781.0000    3978.0146     132.8671     133.5048       0.0395    6464.7602    6464.7998     133.2347         31     135.1413       0.0537    6423.7401    6423.7940    6421.0018    6421.3123       0.3106
     218.0    5011.2053 1566781.0000    3978.0146     132.8664     133.5066       0.0402    6464.7954    6464.8358     133.2357         31     136.1413       0.0536    6423.6000    6423.6537    6420.9575    6421.2597       0.3020
     219.0    5060.9338 1566781.0000    3978.0146     132.8672     133.5074       0.0410    6464.7390    6464.7801     133.2364         31     137.1413       0.0100    6423.5731    6423.5830    6420.9015    6421.1129       0.2113
     220.0    5092.6203 1566781.0000    3978.0146     132.8698     133.5075       0.0421    6464.6394    6464.6817     133.2374         31     138.1413      -0.1523    6423.5454    6423.3932    6420.7675    6420.6706      -0.0967
     221.0    5063.3157 1566781.0000    3978.0146     132.8700     133.5102       0.0437    6464.6519    6464.6958     133.2385         31     139.1413      -0.4734    6423.4619    6422.9885    6420.6688    6419.9891      -0.6795
