~VERSION INFORMATION
VERS.           2.0   :CWLS Log ASCII Standard - VERSION 2.0
WRAP.           NO    :One Line per depth step
PROD.  Schlumberger   :LAS Producer
PROG.  DLIS to ASCII 2.2                               :LAS Program name and version
CREA.        2020/10/30 12:18                          :LAS Creation date {YYYY/MM/DD hh:mm}
SOURCE.     XPT_HRLA_TLD_MCFL_039LTP.DLIS              :DLIS File Name
FILE-ID.     XPT_HRLA_TLD_MCFL_039LTP                  :File Identification Number
#--------------------------------------------------
~WELL INFORMATION
#MNEM.UNIT      DATA             DESCRIPTION
#---- ------ --------------   -----------------------------
STRT .S          109.0       :START TIME      
STOP .S          613.0       :STOP TIME      
STEP .S            1.0       :STEP     
NULL .          -999.25      :NULL VALUE
COMP .        Nexus Energy                             :COMPANY
WELL .        Crux-3                                   :WELL
FLD  .        Crux                                     :FIELD
LOC  .        Easting: 656981.7mE                      :LOCATION
CNTY .        Sedco-703                                :COUNTY
STAT .        Northern Territory                       :STATE
CTRY .        Australia                                :COUNTRY
API  .                                                 :API NUMBER
UWI  .                                                 :UNIQUE WELL ID
DATE .        31-Dec-2007                              :LOG DATE {DD-MMM-YYYY}
SRVC .        Schlumberger                             :SERVICE COMPANY
LATI .DEG     12*57'32.63" S                           :LATITUDE
LONG .DEG     124*26'50.07" E                          :LONGITUDE
GDAT .                                                 :GeoDetic Datum
#-----------------------------------------------------------------------------
~PARAMETER INFORMATION
#MNEM.UNIT    VALUE                      DESCRIPTION
#---- -----   --------------------       ------------------------
RUN  .          1                        :RUN NUMBER
PDAT .        LAT                        :Permanent Datum
EPD  .M           0.000000               :Elevation of Permanent Datum above Mean Sea Level
EPD  .M           0.000000               :Elevation of tool zero above Mean Sea Level
LMF  .          DF                       :Logging Measured From (Name of Logging Elevation Reference)
APD  .M          26.400000               :Elevation of Depth Reference (LMF) above Permanent Datum
#-----------------------------------------------------------------------------
~CURVE INFORMATION
#MNEM.UNIT   API CODE                                  DESCRIPTION
#---- -----  --------                                  -----------------------
TIME .S                                                :TIME {F10.1}
TENS_SL.LBF                                            :Cable Tension {F13.4}
DEPT_SL..1IN                                           :Station logging depth {F13.4}
PDEP_XPT.M                                             :XPT Probe Depth {F13.4}
MTEP_SAP.DEGC                                          :Sapphire Gauge Manometer Temperature {F13.4}
MTEP_HYD.DEGC                                          :Hydrostatic Sapphire Gauge Manometer Temperature {F13.4}
PCO_HYD.PSI                                            :Hydrostatic Sapphire Dynamic Compensation {F13.4}
PND_HYD.PSI                                            :Hydrostatic Sapphire Pressure Without Dynamic Compensation {F13.4}
CP_HYD.PSI                                             :Hydrostatic Sapphire Pressure With Dynamic Compensation {F13.4}
MTEP_QG.DEGC                                           :CQG Manometer Temperature {F13.4}
PTNO_XPT.                                              :XPT Pretest Number {I11}
ETIM_XPT.S                                             :Elapsed Logging Time {F13.4}
PCO_SAP.PSI                                            :Sapphire Dynamic Compensation {F13.4}
PND_SAP.PSI                                            :Sapphire Pressure Without Dynamic Compensation {F13.4}
CP_SAP.PSI                                             :Sapphire Pressure With Dynamic Compensation {F13.4}
QNDP .PSI                                              :CQG Pressure Without Dynamic Compensation {F13.4}
QCP  .PSI                                              :CQG Pressure With Dynamic Compensation {F13.4}
QPCO .PSI                                              :CQG Dynamic Compensation {F13.4}
#-----------------------------------------------------------------------------
# 
#     TIME      TENS_SL      DEPT_SL      PDEP_XPT     MTEP_SAP     MTEP_HYD     PCO_HYD      PND_HYD       CP_HYD      MTEP_QG       PTNO_XPT       ETIM_XPT     PCO_SAP      PND_SAP       CP_SAP        QNDP         QCP          QPCO
#
~A  
     109.0    4798.5638 1418545.0000    3601.4951     118.9802     119.5240       0.0000    5866.5132    5866.5132     119.5144          2       0.2610       0.0000    5864.9686    5864.9686    5862.1454    5862.1454       0.0000
     110.0    4783.3905 1418545.0000    3601.4951     118.9801     119.5249       0.0000    5866.4622    5866.4622     119.5148          2       1.2610       0.0000    5864.8804    5864.8804    5862.0414    5862.0414       0.0000
     111.0    4776.7829 1418545.0000    3601.4951     118.9795     119.5249       0.0000    5866.5131    5866.5131     119.5151          2       2.2610       0.0000    5864.8867    5864.8867    5862.0919    5862.0919       0.0000
     112.0    4760.4723 1418545.0000    3601.4951     118.9787     119.5255       0.0000    5866.5840    5866.5840     119.5150          2       3.2610       0.0000    5864.8936    5864.8936    5862.1576    5862.1576       0.0000
     113.0    4713.2191 1418545.0000    3601.4951     118.9783     119.5250       0.0000    5866.5938    5866.5938     119.5154          2       4.2610       0.0000    5864.8882    5864.8882    5862.2238    5862.2238       0.0000
     114.0    4723.0419 1418545.0000    3601.4951     118.9812     119.5254       0.0000    5866.6897    5866.6897     119.5157          2       5.2610       0.0000    5865.0238    5865.0238    5862.2371    5862.2371       0.0000
     115.0    4707.6952 1418545.0000    3601.4951     118.9796     119.5256       0.0128    5866.7594    5866.7721     119.5160          2       6.2610       0.0222    5865.0218    5865.0442    5862.3291    5862.3960       0.0667
     116.0    4706.3486 1418545.0000    3601.4951     118.9799     119.5250       0.0114    5866.7612    5866.7727     119.5162          2       7.2610       0.0204    5864.9802    5865.0005    5862.3142    5862.3806       0.0663
     117.0    4709.8686 1418545.0000    3601.4951     118.9818     119.5251       0.0088    5866.6530    5866.6620     119.5164          2       8.2610       0.0168    5865.1002    5865.1170    5862.2782    5862.3439       0.0657
     118.0    4723.9639 1418545.0000    3601.4951     118.9826     119.5278       0.0081    5866.7310    5866.7392     119.5166          2       9.2610       0.0132    5865.0861    5865.0994    5862.2321    5862.2970       0.0651
     119.0    4786.3905 1418545.0000    3601.4951     118.9816     119.5262       0.0092    5866.6296    5866.6389     119.5168          2      10.2610       0.0098    5864.8713    5864.8813    5862.1205    5862.1850       0.0646
     120.0    4784.2191 1418545.0000    3601.4951     118.9822     119.5268       0.0095    5866.5630    5866.5725     119.5171          2      11.2610       0.0067    5864.8185    5864.8253    5862.0953    5862.1597       0.0644
     121.0    4802.1314 1418545.0000    3601.4951     118.9819     119.5255       0.0090    5866.4097    5866.4185     119.5174          2      12.2610       0.0053    5864.6769    5864.6823    5861.9842    5862.0487       0.0647
     122.0    4805.7809 1418545.0000    3601.4951     118.9818     119.5260       0.0103    5866.5215    5866.5319     119.5175          2      13.2610       0.0069    5864.7729    5864.7799    5862.0339    5862.0989       0.0652
     123.0    4778.7352 1418545.0000    3601.4951     118.9814     119.5280       0.0140    5866.5543    5866.5683     119.5177          2      14.2610       0.0105    5864.8924    5864.9030    5862.1049    5862.1711       0.0662
     124.0    4736.9543 1418545.0000    3601.4951     118.9820     119.5274       0.0172    5866.5401    5866.5571     119.5179          2      15.2610       0.0137    5864.8146    5864.8281    5862.1672    5862.2341       0.0671
     125.0    4711.2590 1418545.0000    3601.4951     118.9834     119.5274       0.0163    5866.6430    5866.6594     119.5181          2      16.2610       0.0140    5865.0300    5865.0441    5862.1971    5862.2645       0.0673
     126.0    4693.4343 1418545.0000    3601.4951     118.9835     119.5279       0.0132    5866.6551    5866.6682     119.5185          2      17.2610       0.0132    5865.1067    5865.1199    5862.2926    5862.3597       0.0671
     127.0    4696.0457 1418545.0000    3601.4951     118.9839     119.5282       0.0110    5866.7862    5866.7970     119.5185          2      18.2610       0.0127    5865.0283    5865.0410    5862.3124    5862.3789       0.0666
     128.0    4711.0419 1418545.0000    3601.4951     118.9838     119.5298       0.0109    5866.7750    5866.7858     119.5189          2      19.2610       0.0132    5865.0761    5865.0893    5862.2800    5862.3463       0.0662
     129.0    4709.7867 1418545.0000    3601.4951     118.9829     119.5282       0.0108    5866.6390    5866.6497     119.5191          2      20.2610       0.0130    5864.9757    5864.9886    5862.2099    5862.2756       0.0657
     130.0    4750.4362 1418545.0000    3601.4951     118.9846     119.5279       0.0097    5866.5092    5866.5190     119.5191          2      21.2610       0.0108    5864.8943    5864.9051    5862.1526    5862.2180       0.0653
     131.0    4772.9162 1418545.0000    3601.4951     118.9836     119.5290       0.0098    5866.5173    5866.5272     119.5193          2      22.2610       0.0078    5864.8431    5864.8509    5862.1035    5862.1684       0.0650
     132.0    4803.0876 1418545.0000    3601.4951     118.9859     119.5294       0.0120    5866.5091    5866.5211     119.5197          2      23.2610       0.0067    5864.7486    5864.7554    5862.0127    5862.0776       0.0648
     133.0    4804.0419 1418545.0000    3601.4951     118.9851     119.5288       0.0140    5866.3398    5866.3539     119.5201          2      24.2610       0.0078    5864.8395    5864.8472    5862.0263    5862.0913       0.0649
     134.0    4795.2191 1418545.0000    3601.4951     118.9830     119.5301       0.0135    5866.4570    5866.4706     119.5201          2      25.2610       0.0096    5864.8188    5864.8282    5862.0783    5862.1433       0.0651
     135.0    4801.1276 1418545.0000    3601.4951     118.9836     119.5299       0.0102    5866.5324    5866.5427     119.5203          2      26.2610       0.0120    5864.7649    5864.7771    5862.0903    5862.1562       0.0658
     136.0    4768.9543 1418545.0000    3601.4951     118.9857     119.5307       0.0070    5866.5156    5866.5226     119.5205          2      27.2610       0.0139    5864.8744    5864.8884    5862.1488    5862.2147       0.0661
     137.0    4742.2152 1418545.0000    3601.4951     118.9850     119.5301       0.0039    5866.6413    5866.6451     119.5206          2      28.2610       0.0153    5864.9806    5864.9957    5862.2347    5862.3007       0.0661
     138.0    4717.7809 1418545.0000    3601.4951     118.9857     119.5301       0.0026    5866.6491    5866.6515     119.5211          2      29.2610       0.0149    5865.0164    5865.0315    5862.2916    5862.3570       0.0656
     139.0    4704.0438 1418545.0000    3601.4951     118.9871     119.5308       0.0038    5866.7060    5866.7098     119.5213          2      30.2610       0.0140    5865.0119    5865.0260    5862.2531    5862.3185       0.0652
     140.0    4704.3905 1418545.0000    3601.4951     118.9866     119.5287       0.0059    5866.6265    5866.6325     119.5215          2      31.2610       0.0134    5864.9815    5864.9947    5862.2523    5862.3172       0.0646
     141.0    4706.6553 1418545.0000    3601.4951     118.9855     119.5299       0.0085    5866.6930    5866.7016     119.5217          2      32.2610       0.0132    5864.9300    5864.9432    5862.2462    5862.3101       0.0639
     142.0    4753.8324 1418545.0000    3601.4951     118.9859     119.5308       0.0120    5866.6464    5866.6585     119.5215          2      33.2610       0.0148    5864.9657    5864.9803    5862.2113    5862.2748       0.0636
     143.0    4807.6514 1418545.0000    3601.4951     118.9865     119.5308       0.0163    5866.5364    5866.5527     119.5221          2      34.2610       0.0183    5864.8328    5864.8512    5862.1432    5862.2072       0.0639
