~VERSION INFORMATION
VERS.           2.0   :CWLS Log ASCII Standard - VERSION 2.0
WRAP.           NO    :One Line per depth step
PROD.  Schlumberger   :LAS Producer
PROG.  DLIS to ASCII 2.2                               :LAS Program name and version
CREA.        2020/10/30 12:18                          :LAS Creation date {YYYY/MM/DD hh:mm}
SOURCE.     XPT_HRLA_TLD_MCFL_049LTP.DLIS              :DLIS File Name
FILE-ID.     XPT_HRLA_TLD_MCFL_049LTP                  :File Identification Number
#--------------------------------------------------
~WELL INFORMATION
#MNEM.UNIT      DATA             DESCRIPTION
#---- ------ --------------   -----------------------------
STRT .S          815.0       :START TIME      
STOP .S         1341.0       :STOP TIME      
STEP .S            1.0       :STEP     
NULL .          -999.25      :NULL VALUE
COMP .        Nexus Energy                             :COMPANY
WELL .        Crux-3                                   :WELL
FLD  .        Crux                                     :FIELD
LOC  .        Easting: 656981.7mE                      :LOCATION
CNTY .        Sedco-703                                :COUNTY
STAT .        Northern Territory                       :STATE
CTRY .        Australia                                :COUNTRY
API  .                                                 :API NUMBER
UWI  .                                                 :UNIQUE WELL ID
DATE .        31-Dec-2007                              :LOG DATE {DD-MMM-YYYY}
SRVC .        Schlumberger                             :SERVICE COMPANY
LATI .DEG     12*57'32.63" S                           :LATITUDE
LONG .DEG     124*26'50.07" E                          :LONGITUDE
GDAT .                                                 :GeoDetic Datum
#-----------------------------------------------------------------------------
~PARAMETER INFORMATION
#MNEM.UNIT    VALUE                      DESCRIPTION
#---- -----   --------------------       ------------------------
RUN  .          1                        :RUN NUMBER
PDAT .        LAT                        :Permanent Datum
EPD  .M           0.000000               :Elevation of Permanent Datum above Mean Sea Level
EPD  .M           0.000000               :Elevation of tool zero above Mean Sea Level
LMF  .          DF                       :Logging Measured From (Name of Logging Elevation Reference)
APD  .M          26.400000               :Elevation of Depth Reference (LMF) above Permanent Datum
#-----------------------------------------------------------------------------
~CURVE INFORMATION
#MNEM.UNIT   API CODE                                  DESCRIPTION
#---- -----  --------                                  -----------------------
TIME .S                                                :TIME {F10.1}
TENS_SL.LBF                                            :Cable Tension {F13.4}
DEPT_SL..1IN                                           :Station logging depth {F13.4}
PDEP_XPT.M                                             :XPT Probe Depth {F13.4}
MTEP_SAP.DEGC                                          :Sapphire Gauge Manometer Temperature {F13.4}
MTEP_HYD.DEGC                                          :Hydrostatic Sapphire Gauge Manometer Temperature {F13.4}
PCO_HYD.PSI                                            :Hydrostatic Sapphire Dynamic Compensation {F13.4}
PND_HYD.PSI                                            :Hydrostatic Sapphire Pressure Without Dynamic Compensation {F13.4}
CP_HYD.PSI                                             :Hydrostatic Sapphire Pressure With Dynamic Compensation {F13.4}
MTEP_QG.DEGC                                           :CQG Manometer Temperature {F13.4}
PTNO_XPT.                                              :XPT Pretest Number {I11}
ETIM_XPT.S                                             :Elapsed Logging Time {F13.4}
PCO_SAP.PSI                                            :Sapphire Dynamic Compensation {F13.4}
PND_SAP.PSI                                            :Sapphire Pressure Without Dynamic Compensation {F13.4}
CP_SAP.PSI                                             :Sapphire Pressure With Dynamic Compensation {F13.4}
QNDP .PSI                                              :CQG Pressure Without Dynamic Compensation {F13.4}
QCP  .PSI                                              :CQG Pressure With Dynamic Compensation {F13.4}
QPCO .PSI                                              :CQG Dynamic Compensation {F13.4}
#-----------------------------------------------------------------------------
# 
#     TIME      TENS_SL      DEPT_SL      PDEP_XPT     MTEP_SAP     MTEP_HYD     PCO_HYD      PND_HYD       CP_HYD      MTEP_QG       PTNO_XPT       ETIM_XPT     PCO_SAP      PND_SAP       CP_SAP        QNDP         QCP          QPCO
#
~A  
# ...
    1130.0    4759.6375 1451040.0000    3684.0325     122.3289     122.8929       0.0239    5998.3927    5998.4166     122.8655         14     315.4819       0.0124    5534.2610    5534.2734    5531.4847    5531.5884       0.1038
    1131.0    4759.8806 1451040.0000    3684.0325     122.3296     122.8941       0.0269    5998.3218    5998.3486     122.8659         14     316.4819       0.0123    5534.2732    5534.2854    5531.4876    5531.5916       0.1038
    1132.0    4698.8850 1451040.0000    3684.0325     122.3283     122.8945       0.0253    5998.4145    5998.4400     122.8662         14     317.4819       0.0113    5534.2187    5534.2299    5531.4874    5531.5911       0.1037
    1133.0    4646.9275 1451040.0000    3684.0325     122.3302     122.8951       0.0206    5998.3681    5998.3887     122.8664         14     318.4819       0.0107    5534.3265    5534.3372    5531.4967    5531.6003       0.1035
    1134.0    4642.7356 1451040.0000    3684.0325     122.3299     122.8971       0.0152    5998.5359    5998.5511     122.8666         14     319.4819       0.0110    5534.3058    5534.3170    5531.4958    5531.5988       0.1032
    1135.0    4636.9637 1451040.0000    3684.0325     122.3305     122.8960       0.0100    5998.5665    5998.5764     122.8672         14     320.4819       0.0128    5534.2752    5534.2881    5531.4989    5531.6015       0.1025
    1136.0    4634.6269 1451040.0000    3684.0325     122.3287     122.8961       0.0054    5998.5819    5998.5872     122.8676         14     321.4819       0.0144    5534.2298    5534.2442    5531.5005    5531.6025       0.1021
    1137.0    4653.6481 1451040.0000    3684.0325     122.3307     122.8949       0.0032    5998.4533    5998.4567     122.8679         14     322.4819       0.0142    5534.2310    5534.2452    5531.4995    5531.6016       0.1019
    1138.0    4717.0319 1451040.0000    3684.0325     122.3303     122.8957       0.0060    5998.5067    5998.5126     122.8680         14     323.4819       0.0125    5534.3125    5534.3249    5531.5016    5531.6036       0.1020
    1139.0    4748.3988 1451040.0000    3684.0325     122.3306     122.8957       0.0127    5998.3496    5998.3623     122.8685         14     324.4819       0.0106    5534.2579    5534.2683    5531.5042    5531.6063       0.1020
    1140.0    4746.6375 1451040.0000    3684.0325     122.3331     122.8964       0.0194    5998.3531    5998.3726     122.8689         14     325.4819       0.0100    5534.3004    5534.3106    5531.5069    5531.6089       0.1021
    1141.0    4743.9894 1451040.0000    3684.0325     122.3312     122.8957       0.0229    5998.2845    5998.3075     122.8691         14     326.4819       0.0100    5534.2119    5534.2220    5531.5055    5531.6077       0.1023
    1142.0    4715.5437 1451040.0000    3684.0325     122.3309     122.8976       0.0235    5998.3109    5998.3343     122.8694         14     327.4819       0.0099    5534.2964    5534.3061    5531.5115    5531.6136       0.1019
    1143.0    4701.4456 1451040.0000    3684.0325     122.3301     122.8979       0.0224    5998.3615    5998.3840     122.8696         14     328.4819       0.0101    5534.3647    5534.3750    5531.5144    5531.6155       0.1012
    1144.0    4684.6888 1451040.0000    3684.0325     122.3334     122.8986       0.0192    5998.3682    5998.3873     122.8700         14     329.4819       0.0111    5534.3609    5534.3718    5531.5136    5531.6142       0.1007
    1145.0    4665.9637 1451040.0000    3684.0325     122.3330     122.8979       0.0152    5998.4814    5998.4965     122.8705         14     330.4819       0.0121    5534.3515    5534.3637    5531.5191    5531.6197       0.1008
    1146.0    4659.2900 1451040.0000    3684.0325     122.3325     122.8987       0.0128    5998.4297    5998.4424     122.8704         14     331.4819       0.0124    5534.3244    5534.3366    5531.5138    5531.6153       0.1013
    1147.0    4661.6012 1451040.0000    3684.0325     122.3342     122.8986       0.0133    5998.4879    5998.5012     122.8713         14     332.4819       0.0128    5534.3140    5534.3267    5531.5208    5531.6225       0.1018
    1148.0    4673.0000 1451040.0000    3684.0325     122.3317     122.8984       0.0156    5998.5042    5998.5200     122.8713         14     333.4819       0.0138    5534.2669    5534.2809    5531.5218    5531.6238       0.1020
    1149.0    4647.4606 1451040.0000    3684.0325     122.3326     122.8987       0.0181    5998.4906    5998.5087     122.8719         14     334.4819       0.0157    5534.2453    5534.2609    5531.5217    5531.6233       0.1018
    1150.0    4626.2644 1451040.0000    3684.0325     122.3317     122.9001       0.0203    5998.4443    5998.4645     122.8721         14     335.4819       0.0172    5534.2382    5534.2554    5531.5233    5531.6244       0.1011
    1151.0    4673.4775 1451040.0000    3684.0325     122.3338     122.9005       0.0210    5998.3888    5998.4098     122.8726         14     336.4819       0.0169    5534.2926    5534.3094    5531.5215    5531.6218       0.1003
    1152.0    4737.7206 1451040.0000    3684.0325     122.3329     122.9005       0.0201    5998.3589    5998.3789     122.8729         14     337.4819       0.0146    5534.2420    5534.2567    5531.5213    5531.6209       0.0996
    1153.0    4764.3369 1451040.0000    3684.0325     122.3359     122.9012       0.0185    5998.3960    5998.4144     122.8730         14     338.4819       0.0118    5534.3134    5534.3250    5531.5219    5531.6211       0.0991
    1154.0    4764.1812 1451040.0000    3684.0325     122.3346     122.9007       0.0185    5998.3673    5998.3859     122.8734         14     339.4819       0.0107    5534.2936    5534.3043    5531.5257    5531.6248       0.0993
    1155.0    4751.2900 1451040.0000    3684.0325     122.3340     122.9014       0.0200    5998.3381    5998.3581     122.8738         14     340.4819       0.0114    5534.2516    5534.2628    5531.5279    5531.6279       0.0999
    1156.0    4725.6525 1451040.0000    3684.0325     122.3345     122.9012       0.0205    5998.3090    5998.3295     122.8739         14     341.4819       0.0125    5534.3385    5534.3509    5531.5279    5531.6280       0.1002
    1157.0    4704.1088 1451040.0000    3684.0325     122.3343     122.9019       0.0190    5998.3906    5998.4095     122.8745         14     342.4819       0.0130    5534.3200    5534.3330    5531.5305    5531.6306       0.1000
    1158.0    4683.6525 1451040.0000    3684.0325     122.3355     122.9025       0.0166    5998.4097    5998.4263     122.8751         14     343.4819       0.0132    5534.3283    5534.3415    5531.5312    5531.6308       0.0996
    1159.0    4650.0619 1451040.0000    3684.0325     122.3355     122.9041       0.0147    5998.4107    5998.4253     122.8751         14     344.4819       0.0129    5534.3309    5534.3437    5531.5309    5531.6304       0.0994
    1160.0    4641.2281 1451040.0000    3684.0325     122.3357     122.9031       0.0133    5998.5120    5998.5254     122.8754         14     345.4819       0.0117    5534.2851    5534.2970    5531.5346    5531.6338       0.0993
    1161.0    4670.2025 1451040.0000    3684.0325     122.3349     122.9030       0.0115    5998.4743    5998.4860     122.8756         14     346.4819       0.0098    5534.1768    5534.1866    5531.5363    5531.6349       0.0989
    1162.0    4669.3881 1451040.0000    3684.0325     122.3341     122.9030       0.0099    5998.4964    5998.5061     122.8759         14     347.4819       0.0090    5534.2455    5534.2544    5531.5365    5531.6347       0.0984
    1163.0    4637.7356 1451040.0000    3684.0325     122.3358     122.9031       0.0097    5998.5119    5998.5217     122.8764         14     348.4819       0.0102    5534.3407    5534.3508    5531.5361    5531.6346       0.0984
    1164.0    4629.0725 1451040.0000    3684.0325     122.3361     122.9048       0.0113    5998.5532    5998.5644     122.8765         14     349.4819       0.0119    5534.2895    5534.3012    5531.5397    5531.6383       0.0988
