~VERSION INFORMATION
VERS.           2.0   :CWLS Log ASCII Standard - VERSION 2.0
WRAP.           NO    :One Line per depth step
PROD.  Schlumberger   :LAS Producer
PROG.  DLIS to ASCII 2.2                               :LAS Program name and version
CREA.        2020/10/30 12:18                          :LAS Creation date {YYYY/MM/DD hh:mm}
SOURCE.     XPT_HRLA_TLD_MCFL_048LTP.DLIS              :DLIS File Name
FILE-ID.     XPT_HRLA_TLD_MCFL_048LTP                  :File Identification Number
#--------------------------------------------------
~WELL INFORMATION
#MNEM.UNIT      DATA             DESCRIPTION
#---- ------ --------------   -----------------------------
STRT .S           91.0       :START TIME      
STOP .S          545.0       :STOP TIME      
STEP .S            1.0       :STEP     
NULL .          -999.25      :NULL VALUE
COMP .        Nexus Energy                             :COMPANY
WELL .        Crux-3                                   :WELL
FLD  .        Crux                                     :FIELD
LOC  .        Easting: 656981.7mE                      :LOCATION
CNTY .        Sedco-703                                :COUNTY
STAT .        Northern Territory                       :STATE
CTRY .        Australia                                :COUNTRY
API  .                                                 :API NUMBER
UWI  .                                                 :UNIQUE WELL ID
DATE .        31-Dec-2007                              :LOG DATE {DD-MMM-YYYY}
SRVC .        Schlumberger                             :SERVICE COMPANY
LATI .DEG     12*57'32.63" S                           :LATITUDE
LONG .DEG     124*26'50.07" E                          :LONGITUDE
GDAT .                                                 :GeoDetic Datum
#-----------------------------------------------------------------------------
~PARAMETER INFORMATION
#MNEM.UNIT    VALUE                      DESCRIPTION
#---- -----   --------------------       ------------------------
RUN  .          1                        :RUN NUMBER
PDAT .        LAT                        :Permanent Datum
EPD  .M           0.000000               :Elevation of Permanent Datum above Mean Sea Level
EPD  .M           0.000000               :Elevation of tool zero above Mean Sea Level
LMF  .          DF                       :Logging Measured From (Name of Logging Elevation Reference)
APD  .M          26.400000               :Elevation of Depth Reference (LMF) above Permanent Datum
#-----------------------------------------------------------------------------
~CURVE INFORMATION
#MNEM.UNIT   API CODE                                  DESCRIPTION
#---- -----  --------                                  -----------------------
TIME .S                                                :TIME {F10.1}
TENS_SL.LBF                                            :Cable Tension {F13.4}
DEPT_SL..1IN                                           :Station logging depth {F13.4}
PDEP_XPT.M                                             :XPT Probe Depth {F13.4}
MTEP_SAP.DEGC                                          :Sapphire Gauge Manometer Temperature {F13.4}
MTEP_HYD.DEGC                                          :Hydrostatic Sapphire Gauge Manometer Temperature {F13.4}
PCO_HYD.PSI                                            :Hydrostatic Sapphire Dynamic Compensation {F13.4}
PND_HYD.PSI                                            :Hydrostatic Sapphire Pressure Without Dynamic Compensation {F13.4}
CP_HYD.PSI                                             :Hydrostatic Sapphire Pressure With Dynamic Compensation {F13.4}
MTEP_QG.DEGC                                           :CQG Manometer Temperature {F13.4}
PTNO_XPT.                                              :XPT Pretest Number {I11}
ETIM_XPT.S                                             :Elapsed Logging Time {F13.4}
PCO_SAP.PSI                                            :Sapphire Dynamic Compensation {F13.4}
PND_SAP.PSI                                            :Sapphire Pressure Without Dynamic Compensation {F13.4}
CP_SAP.PSI                                             :Sapphire Pressure With Dynamic Compensation {F13.4}
QNDP .PSI                                              :CQG Pressure Without Dynamic Compensation {F13.4}
QCP  .PSI                                              :CQG Pressure With Dynamic Compensation {F13.4}
QPCO .PSI                                              :CQG Dynamic Compensation {F13.4}
#-----------------------------------------------------------------------------
# 
#     TIME      TENS_SL      DEPT_SL      PDEP_XPT     MTEP_SAP     MTEP_HYD     PCO_HYD      PND_HYD       CP_HYD      MTEP_QG       PTNO_XPT       ETIM_XPT     PCO_SAP      PND_SAP       CP_SAP        QNDP         QCP          QPCO
#
~A  
# ...
     441.0    4755.3813 1445909.0000    3671.0000     122.1382     122.6956       0.0136    5977.6778    5977.6915     122.7015         12     349.8206       0.0022    5529.6734    5529.6754    5526.9561    5527.0220       0.0661
     442.0    4721.2781 1445909.0000    3671.0000     122.1364     122.6963       0.0128    5977.7412    5977.7539     122.7018         12     350.8206       0.0030    5529.5860    5529.5891    5526.9523    5527.0180       0.0656
     443.0    4692.0225 1445909.0000    3671.0000     122.1372     122.6964       0.0120    5977.7344    5977.7462     122.7021         12     351.8206       0.0053    5529.6621    5529.6674    5526.9555    5527.0209       0.0653
     444.0    4689.4619 1445909.0000    3671.0000     122.1383     122.6969       0.0104    5977.8080    5977.8182     122.7023         12     352.8206       0.0089    5529.7177    5529.7266    5526.9585    5527.0239       0.0654
     445.0    4698.2063 1445909.0000    3671.0000     122.1375     122.6971       0.0086    5977.8091    5977.8177     122.7026         12     353.8206       0.0117    5529.7440    5529.7559    5526.9615    5527.0269       0.0653
     446.0    4686.8700 1445909.0000    3671.0000     122.1377     122.6971       0.0076    5977.8687    5977.8765     122.7027         12     354.8206       0.0121    5529.7427    5529.7549    5526.9571    5527.0225       0.0652
     447.0    4703.6950 1445909.0000    3671.0000     122.1383     122.6971       0.0083    5977.8096    5977.8180     122.7028         12     355.8206       0.0106    5529.7575    5529.7682    5526.9587    5527.0241       0.0652
     448.0    4763.8025 1445909.0000    3671.0000     122.1387     122.6971       0.0095    5977.8091    5977.8186     122.7032         12     356.8206       0.0098    5529.6656    5529.6754    5526.9577    5527.0227       0.0651
     449.0    4773.5381 1445909.0000    3671.0000     122.1381     122.6975       0.0107    5977.7545    5977.7651     122.7032         12     357.8206       0.0103    5529.7162    5529.7265    5526.9548    5527.0198       0.0651
     450.0    4795.1569 1445909.0000    3671.0000     122.1395     122.6978       0.0122    5977.7490    5977.7613     122.7035         12     358.8206       0.0100    5529.7114    5529.7216    5526.9560    5527.0209       0.0650
     451.0    4809.0269 1445909.0000    3671.0000     122.1395     122.6983       0.0137    5977.6903    5977.7041     122.7038         12     359.8206       0.0079    5529.6548    5529.6627    5526.9611    5527.0261       0.0648
     452.0    4812.6412 1445909.0000    3671.0000     122.1399     122.6976       0.0148    5977.7171    5977.7318     122.7041         12     360.8206       0.0055    5529.7219    5529.7274    5526.9658    5527.0306       0.0647
     453.0    4802.3319 1445909.0000    3671.0000     122.1398     122.6981       0.0150    5977.6178    5977.6329     122.7042         12     361.8206       0.0043    5529.7495    5529.7539    5526.9627    5527.0276       0.0650
     454.0    4795.0763 1445909.0000    3671.0000     122.1390     122.6989       0.0144    5977.7683    5977.7827     122.7044         12     362.8206       0.0041    5529.7044    5529.7083    5526.9657    5527.0313       0.0656
     455.0    4779.2288 1445909.0000    3671.0000     122.1380     122.6991       0.0132    5977.7490    5977.7623     122.7046         12     363.8206       0.0038    5529.6341    5529.6380    5526.9688    5527.0344       0.0656
     456.0    4760.4081 1445909.0000    3671.0000     122.1391     122.6988       0.0119    5977.7446    5977.7563     122.7051         12     364.8206       0.0036    5529.6445    5529.6480    5526.9597    5527.0251       0.0654
     457.0    4748.7937 1445909.0000    3671.0000     122.1402     122.6996       0.0107    5977.7165    5977.7273     122.7051         12     365.8206       0.0053    5529.6379    5529.6431    5526.9673    5527.0327       0.0653
     458.0    4746.1794 1445909.0000    3671.0000     122.1401     122.6999       0.0102    5977.7349    5977.7451     122.7054         12     366.8206       0.0082    5529.6841    5529.6921    5526.9652    5527.0303       0.0652
     459.0    4757.4888 1445909.0000    3671.0000     122.1412     122.6981       0.0109    5977.7006    5977.7113     122.7053         12     367.8206       0.0093    5529.7593    5529.7686    5526.9676    5527.0320       0.0645
     460.0    4773.9506 1445909.0000    3671.0000     122.1404     122.7007       0.0126    5977.8348    5977.8474     122.7058         12     368.8206       0.0070    5529.7702    5529.7771    5526.9633    5527.0271       0.0637
     461.0    4770.4350 1445909.0000    3671.0000     122.1413     122.6999       0.0139    5977.7355    5977.7495     122.7059         12     369.8206       0.0040    5529.7727    5529.7767    5526.9638    5527.0268       0.0628
     462.0    4741.0988 1445909.0000    3671.0000     122.1420     122.6997       0.0133    5977.7494    5977.7626     122.7060         12     370.8206       0.0030    5529.7686    5529.7715    5526.9715    5527.0340       0.0623
     463.0    4690.6862 1445909.0000    3671.0000     122.1401     122.7012       0.0119    5977.8159    5977.8279     122.7062         12     371.8206       0.0038    5529.6243    5529.6280    5526.9648    5527.0270       0.0623
     464.0    4698.2331 1445909.0000    3671.0000     122.1403     122.7010       0.0108    5977.6919    5977.7028     122.7066         12     372.8206       0.0050    5529.6119    5529.6168    5526.9692    5527.0317       0.0625
     465.0    4685.5875 1445909.0000    3671.0000     122.1396     122.7012       0.0091    5977.7662    5977.7754     122.7066         12     373.8206       0.0073    5529.6628    5529.6702    5526.9648    5527.0278       0.0628
     466.0    4682.8206 1445909.0000    3671.0000     122.1417     122.7006       0.0068    5977.8045    5977.8112     122.7069         12     374.8206       0.0106    5529.7937    5529.8043    5526.9671    5527.0301       0.0631
     467.0    4713.3631 1445909.0000    3671.0000     122.1410     122.7022       0.0048    5977.7543    5977.7593     122.7071         12     375.8206       0.0128    5529.8463    5529.8589    5526.9704    5527.0339       0.0636
     468.0    4769.2375 1445909.0000    3671.0000     122.1404     122.7023       0.0045    5977.7444    5977.7488     122.7074         12     376.8206       0.0122    5529.6155    5529.6277    5526.9643    5527.0282       0.0641
     469.0    4782.4619 1445909.0000    3671.0000     122.1429     122.7016       0.0047    5977.6772    5977.6821     122.7075         12     377.8206       0.0105    5529.7262    5529.7367    5526.9659    5527.0299       0.0642
     470.0    4796.9506 1445909.0000    3671.0000     122.1406     122.7027       0.0050    5977.6502    5977.6551     122.7078         12     378.8206       0.0091    5529.6358    5529.6447    5526.9659    5527.0299       0.0640
     471.0    4802.4619 1445909.0000    3671.0000     122.1412     122.7016       0.0054    5977.6776    5977.6830     122.7078         12     379.8206       0.0083    5529.6406    5529.6489    5526.9672    5527.0311       0.0639
     472.0    4790.6906 1445909.0000    3671.0000     122.1414     122.7008       0.0065    5977.6694    5977.6760     122.7081         12     380.8206       0.0079    5529.7140    5529.7219    5526.9685    5527.0320       0.0636
     473.0    4704.2963 1445909.0000    3671.0000     122.1430     122.7010       0.0089    5977.6763    5977.6853     122.7083         12     381.8206       0.0073    5529.7006    5529.7079    5526.9694    5527.0327       0.0633
     474.0    4684.3588 1445909.0000    3671.0000     122.1421     122.7037       0.0124    5977.8111    5977.8234     122.7087         12     382.8206       0.0054    5529.8245    5529.8298    5526.9713    5527.0343       0.0631
     475.0    4681.5381 1445909.0000    3671.0000     122.1426     122.7010       0.0156    5977.7306    5977.7461     122.7089         12     383.8206       0.0021    5529.7366    5529.7386    5526.9700    5527.0335       0.0635
