~VERSION INFORMATION
VERS.           2.0   :CWLS Log ASCII Standard - VERSION 2.0
WRAP.           NO    :One Line per depth step
PROD.  Schlumberger   :LAS Producer
PROG.  DLIS to ASCII 2.2                               :LAS Program name and version
CREA.        2020/10/30 12:18                          :LAS Creation date {YYYY/MM/DD hh:mm}
SOURCE.     XPT_HRLA_TLD_MCFL_066LTP.DLIS              :DLIS File Name
FILE-ID.     XPT_HRLA_TLD_MCFL_066LTP                  :File Identification Number
#--------------------------------------------------
~WELL INFORMATION
#MNEM.UNIT      DATA             DESCRIPTION
#---- ------ --------------   -----------------------------
STRT .S         3575.0       :START TIME      
STOP .S         3949.0       :STOP TIME      
STEP .S            1.0       :STEP     
NULL .          -999.25      :NULL VALUE
COMP .        Nexus Energy                             :COMPANY
WELL .        Crux-3                                   :WELL
FLD  .        Crux                                     :FIELD
LOC  .        Easting: 656981.7mE                      :LOCATION
CNTY .        Sedco-703                                :COUNTY
STAT .        Northern Territory                       :STATE
CTRY .        Australia                                :COUNTRY
API  .                                                 :API NUMBER
UWI  .                                                 :UNIQUE WELL ID
DATE .        31-Dec-2007                              :LOG DATE {DD-MMM-YYYY}
SRVC .        Schlumberger                             :SERVICE COMPANY
LATI .DEG     12*57'32.63" S                           :LATITUDE
LONG .DEG     124*26'50.07" E                          :LONGITUDE
GDAT .                                                 :GeoDetic Datum
#-----------------------------------------------------------------------------
~PARAMETER INFORMATION
#MNEM.UNIT    VALUE                      DESCRIPTION
#---- -----   --------------------       ------------------------
RUN  .          1                        :RUN NUMBER
PDAT .        LAT                        :Permanent Datum
EPD  .M           0.000000               :Elevation of Permanent Datum above Mean Sea Level
EPD  .M           0.000000               :Elevation of tool zero above Mean Sea Level
LMF  .          DF                       :Logging Measured From (Name of Logging Elevation Reference)
APD  .M          26.400000               :Elevation of Depth Reference (LMF) above Permanent Datum
#-----------------------------------------------------------------------------
~CURVE INFORMATION
#MNEM.UNIT   API CODE                                  DESCRIPTION
#---- -----  --------                                  -----------------------
TIME .S                                                :TIME {F10.1}
TENS_SL.LBF                                            :Cable Tension {F13.4}
DEPT_SL..1IN                                           :Station logging depth {F13.4}
PDEP_XPT.M                                             :XPT Probe Depth {F13.4}
MTEP_SAP.DEGC                                          :Sapphire Gauge Manometer Temperature {F13.4}
MTEP_HYD.DEGC                                          :Hydrostatic Sapphire Gauge Manometer Temperature {F13.4}
PCO_HYD.PSI                                            :Hydrostatic Sapphire Dynamic Compensation {F13.4}
PND_HYD.PSI                                            :Hydrostatic Sapphire Pressure Without Dynamic Compensation {F13.4}
CP_HYD.PSI                                             :Hydrostatic Sapphire Pressure With Dynamic Compensation {F13.4}
MTEP_QG.DEGC                                           :CQG Manometer Temperature {F13.4}
PTNO_XPT.                                              :XPT Pretest Number {I11}
ETIM_XPT.S                                             :Elapsed Logging Time {F13.4}
PCO_SAP.PSI                                            :Sapphire Dynamic Compensation {F13.4}
PND_SAP.PSI                                            :Sapphire Pressure Without Dynamic Compensation {F13.4}
CP_SAP.PSI                                             :Sapphire Pressure With Dynamic Compensation {F13.4}
QNDP .PSI                                              :CQG Pressure Without Dynamic Compensation {F13.4}
QCP  .PSI                                              :CQG Pressure With Dynamic Compensation {F13.4}
QPCO .PSI                                              :CQG Dynamic Compensation {F13.4}
#-----------------------------------------------------------------------------
# 
#     TIME      TENS_SL      DEPT_SL      PDEP_XPT     MTEP_SAP     MTEP_HYD     PCO_HYD      PND_HYD       CP_HYD      MTEP_QG       PTNO_XPT       ETIM_XPT     PCO_SAP      PND_SAP       CP_SAP        QNDP         QCP          QPCO
#
~A  
# ...
    3645.0    5024.8910 1556924.0000    3952.9780     132.4550     133.0120       0.0166    6424.7294    6424.7460     132.2772         29      70.4710      -0.0440    6422.1963    6422.1521    6419.0741    6419.5383       0.4640
    3646.0    5045.8910 1556924.0000    3952.9780     132.4570     133.0126       0.0169    6424.7847    6424.8016     132.2792         29      71.4710      -0.0655    6422.4991    6422.4336    6419.2494    6419.6720       0.4227
    3647.0    5035.3340 1556924.0000    3952.9780     132.4551     133.0117       0.0153    6424.7490    6424.7643     132.2799         29      72.4710      -0.0739    6402.4028    6402.3288    6399.5416    6399.9311       0.3895
    3648.0    5009.1160 1556924.0000    3952.9780     132.4475     133.0138       0.0138    6424.9074    6424.9212     132.2803         29      73.4710      -0.0715    6367.0151    6366.9436    6363.3980    6363.7652       0.3671
    3649.0    5002.2900 1556924.0000    3952.9780     132.4473     133.0141       0.0142    6424.9224    6424.9366     132.2817         29      74.4710      -0.0596    6360.4053    6360.3455    6358.0190    6358.3768       0.3577
    3650.0    4996.0580 1556924.0000    3952.9780     132.4481     133.0137       0.0147    6424.8486    6424.8633     132.2828         29      75.4710      -0.0383    6360.3446    6360.3063    6357.6350    6357.9934       0.3585
    3651.0    4995.4710 1556924.0000    3952.9780     132.4487     133.0133       0.0133    6424.7930    6424.8062     132.2837         29      76.4710      -0.0128    6360.2988    6360.2859    6358.1689    6358.5284       0.3594
    3652.0    5041.2160 1556924.0000    3952.9780     132.4489     133.0135       0.0112    6424.7805    6424.7916     132.2853         29      77.4710       0.0049    6359.2853    6359.2903    6355.3757    6355.7267       0.3512
    3653.0    5079.2830 1556924.0000    3952.9780     132.4493     133.0141       0.0109    6424.7402    6424.7513     132.2864         29      78.4710       0.0083    6356.7974    6356.8056    6352.3472    6352.6812       0.3341
    3654.0    5072.0650 1556924.0000    3952.9780     132.4506     133.0144       0.0124    6424.6888    6424.7014     132.2877         29      79.4710       0.0026    6350.4165    6350.4191    6347.7512    6348.0667       0.3154
    3655.0    5095.5430 1556924.0000    3952.9780     132.4494     133.0143       0.0139    6424.6618    6424.6756     132.2881         29      80.4710      -0.0038    6345.8396    6345.8360    6343.1063    6343.4090       0.3027
    3656.0    5115.8260 1556924.0000    3952.9780     132.4490     133.0155       0.0143    6424.7153    6424.7295     132.2889         29      81.4710      -0.0044    6333.2853    6333.2810    6330.7074    6331.0085       0.3012
    3657.0    5118.0580 1556924.0000    3952.9780     132.4480     133.0136       0.0143    6424.7896    6424.8037     132.2898         29      82.4710       0.0022    6325.5373    6325.5395    6323.1418    6323.4548       0.3131
    3658.0    5072.7260 1556924.0000    3952.9780     132.4493     133.0157       0.0142    6424.8586    6424.8728     132.2906         29      83.4710       0.0168    6316.3706    6316.3875    6313.9014    6314.2382       0.3367
    3659.0    5014.5220 1556924.0000    3952.9780     132.4482     133.0159       0.0142    6424.7881    6424.8023     132.2917         29      84.4710       0.0348    6317.9395    6317.9743    6315.3507    6315.7168       0.3663
    3660.0    4994.1670 1556924.0000    3952.9780     132.4501     133.0159       0.0141    6424.7866    6424.8008     132.2928         29      85.4710       0.0509    6318.5268    6318.5777    6315.8329    6316.2281       0.3950
    3661.0    5006.9630 1556924.0000    3952.9780     132.4502     133.0165       0.0146    6424.8813    6424.8960     132.2940         29      86.4710       0.0606    6318.3786    6318.4391    6315.7169    6316.1353       0.4183
    3662.0    5006.2690 1556924.0000    3952.9780     132.4544     133.0160       0.0155    6424.8416    6424.8570     132.2956         29      87.4710       0.0619    6319.5465    6319.6084    6316.5736    6317.0052       0.4318
    3663.0    5014.0350 1556924.0000    3952.9780     132.4534     133.0171       0.0153    6424.8602    6424.8754     132.2971         29      88.4710       0.0527    6319.7777    6319.8303    6316.8151    6317.2479       0.4326
    3664.0    5057.1160 1556924.0000    3952.9780     132.4563     133.0165       0.0137    6424.8818    6424.8954     132.2985         29      89.4710       0.0324    6320.7712    6320.8036    6317.7267    6318.1472       0.4203
    3665.0    5071.0140 1556924.0000    3952.9780     132.4550     133.0171       0.0113    6424.8702    6424.8817     132.3000         29      90.4710       0.0060    6320.8577    6320.8637    6317.8361    6318.2335       0.3973
    3666.0    5112.5500 1556924.0000    3952.9780     132.4571     133.0182       0.0091    6424.8397    6424.8486     132.3010         29      91.4710      -0.0204    6319.1011    6319.0808    6316.1790    6316.5456       0.3666
    3667.0    5111.2110 1556924.0000    3952.9780     132.4548     133.0177       0.0068    6424.8104    6424.8172     132.3021         29      92.4710      -0.0422    6305.2156    6305.1734    6302.4494    6302.7814       0.3319
    3668.0    5069.6380 1556924.0000    3952.9780     132.4540     133.0174       0.0050    6424.7266    6424.7317     132.3031         29      93.4710      -0.0486    6291.1492    6291.1008    6288.4184    6288.7379       0.3194
    3669.0    5060.3550 1556924.0000    3952.9780     132.4521     133.0180       0.0054    6424.6000    6424.6053     132.3036         29      94.4710      -0.0180    6278.1213    6278.1032    6275.4691    6275.8364       0.3674
    3670.0    5089.3760 1556924.0000    3952.9780     132.4509     133.0174       0.0078    6424.7700    6424.7779     132.3045         29      95.4710       0.0611    6263.8486    6263.9098    6261.3822    6261.8738       0.4915
    3671.0    5115.7030 1556924.0000    3952.9780     132.4490     133.0182       0.0100    6424.7695    6424.7795     132.3053         29      96.4710       0.1653    6249.3968    6249.5621    6246.8497    6247.5018       0.6522
    3672.0    5064.4290 1556924.0000    3952.9780     132.4485     133.0194       0.0105    6424.7854    6424.7961     132.3059         29      97.4710       0.2543    6239.7416    6239.9958    6237.2127    6238.0102       0.7972
    3673.0    5031.7240 1556924.0000    3952.9780     132.4514     133.0203       0.0104    6424.9152    6424.9254     132.3076         29      98.4710       0.3047    6255.1813    6255.4860    6252.1183    6253.0275       0.9092
    3674.0    5036.6310 1556924.0000    3952.9780     132.4800     133.0183       0.0106    6424.7358    6424.7465     132.3170         29      99.4710       0.3155    6422.6554    6422.9709    6417.5682    6418.5584       0.9902
    3675.0    5009.4060 1556924.0000    3952.9780     132.4843     133.0189       0.0101    6424.9591    6424.9694     132.3189         29     100.4710       0.2824    6423.5412    6423.8235    6418.6215    6419.6457       1.0244
    3676.0    4996.8190 1556924.0000    3952.9780     132.4850     133.0182       0.0084    6424.8994    6424.9080     132.3210         29     101.4710       0.2013    6423.2620    6423.4634    6418.6247    6419.6156       0.9909
    3677.0    4982.5220 1556924.0000    3952.9780     132.4846     133.0189       0.0074    6424.8350    6424.8423     132.3238         29     102.4710       0.0975    6423.7275    6423.8250    6419.2306    6420.1495       0.9190
    3678.0    5027.6360 1556924.0000    3952.9780     132.4866     133.0204       0.0081    6424.8663    6424.8746     132.3267         29     103.4710       0.0107    6424.6259    6424.6364    6420.3929    6421.2499       0.8569
    3679.0    5081.4640 1556924.0000    3952.9780     132.4848     133.0198       0.0091    6424.9560    6424.9653     132.3294         29     104.4710      -0.0381    6424.2848    6424.2470    6420.1396    6420.9634       0.8238
