~VERSION INFORMATION
VERS.           2.0   :CWLS Log ASCII Standard - VERSION 2.0
WRAP.           NO    :One Line per depth step
PROD.  Schlumberger   :LAS Producer
PROG.  DLIS to ASCII 2.2                               :LAS Program name and version
CREA.        2020/10/30 12:18                          :LAS Creation date {YYYY/MM/DD hh:mm}
SOURCE.     XPT_HRLA_TLD_MCFL_039LTP.DLIS              :DLIS File Name
FILE-ID.     XPT_HRLA_TLD_MCFL_039LTP                  :File Identification Number
#--------------------------------------------------
~WELL INFORMATION
#MNEM.UNIT      DATA             DESCRIPTION
#---- ------ --------------   -----------------------------
STRT .S          109.0       :START TIME      
STOP .S          613.0       :STOP TIME      
STEP .S            1.0       :STEP     
NULL .          -999.25      :NULL VALUE
COMP .        Nexus Energy                             :COMPANY
WELL .        Crux-3                                   :WELL
FLD  .        Crux                                     :FIELD
LOC  .        Easting: 656981.7mE                      :LOCATION
CNTY .        Sedco-703                                :COUNTY
STAT .        Northern Territory                       :STATE
CTRY .        Australia                                :COUNTRY
API  .                                                 :API NUMBER
UWI  .                                                 :UNIQUE WELL ID
DATE .        31-Dec-2007                              :LOG DATE {DD-MMM-YYYY}
SRVC .        Schlumberger                             :SERVICE COMPANY
LATI .DEG     12*57'32.63" S                           :LATITUDE
LONG .DEG     124*26'50.07" E                          :LONGITUDE
GDAT .                                                 :GeoDetic Datum
#-----------------------------------------------------------------------------
~PARAMETER INFORMATION
#MNEM.UNIT    VALUE                      DESCRIPTION
#---- -----   --------------------       ------------------------
RUN  .          1                        :RUN NUMBER
PDAT .        LAT                        :Permanent Datum
EPD  .M           0.000000               :Elevation of Permanent Datum above Mean Sea Level
EPD  .M           0.000000               :Elevation of tool zero above Mean Sea Level
LMF  .          DF                       :Logging Measured From (Name of Logging Elevation Reference)
APD  .M          26.400000               :Elevation of Depth Reference (LMF) above Permanent Datum
#-----------------------------------------------------------------------------
~CURVE INFORMATION
#MNEM.UNIT   API CODE                                  DESCRIPTION
#---- -----  --------                                  -----------------------
TIME .S                                                :TIME {F10.1}
TENS_SL.LBF                                            :Cable Tension {F13.4}
DEPT_SL..1IN                                           :Station logging depth {F13.4}
PDEP_XPT.M                                             :XPT Probe Depth {F13.4}
MTEP_SAP.DEGC                                          :Sapphire Gauge Manometer Temperature {F13.4}
MTEP_HYD.DEGC                                          :Hydrostatic Sapphire Gauge Manometer Temperature {F13.4}
PCO_HYD.PSI                                            :Hydrostatic Sapphire Dynamic Compensation {F13.4}
PND_HYD.PSI                                            :Hydrostatic Sapphire Pressure Without Dynamic Compensation {F13.4}
CP_HYD.PSI                                             :Hydrostatic Sapphire Pressure With Dynamic Compensation {F13.4}
MTEP_QG.DEGC                                           :CQG Manometer Temperature {F13.4}
PTNO_XPT.                                              :XPT Pretest Number {I11}
ETIM_XPT.S                                             :Elapsed Logging Time {F13.4}
PCO_SAP.PSI                                            :Sapphire Dynamic Compensation {F13.4}
PND_SAP.PSI                                            :Sapphire Pressure Without Dynamic Compensation {F13.4}
CP_SAP.PSI                                             :Sapphire Pressure With Dynamic Compensation {F13.4}
QNDP .PSI                                              :CQG Pressure Without Dynamic Compensation {F13.4}
QCP  .PSI                                              :CQG Pressure With Dynamic Compensation {F13.4}
QPCO .PSI                                              :CQG Dynamic Compensation {F13.4}
#-----------------------------------------------------------------------------
# 
#     TIME      TENS_SL      DEPT_SL      PDEP_XPT     MTEP_SAP     MTEP_HYD     PCO_HYD      PND_HYD       CP_HYD      MTEP_QG       PTNO_XPT       ETIM_XPT     PCO_SAP      PND_SAP       CP_SAP        QNDP         QCP          QPCO
#
~A  
# ...
     354.0    4712.8687 1418545.0000    3601.4951     119.0124     119.5621       0.0090    5866.5459    5866.5548     119.5457          3     245.2610      -0.1028    5505.1409    5505.0380    5502.3940    5502.2991      -0.0948
     355.0    4699.8250 1418545.0000    3601.4951     119.0115     119.5640       0.0141    5866.6708    5866.6849     119.5462          3     246.2610      -0.1457    5505.2181    5505.0725    5502.3936    5502.2234      -0.1701
     356.0    4681.9984 1418545.0000    3601.4951     119.0133     119.5634       0.0154    5866.7801    5866.7956     119.5461          3     247.2610      -0.1663    5500.5247    5500.3582    5497.7745    5497.5485      -0.2261
     357.0    4665.5219 1418545.0000    3601.4951     118.9954     119.5634       0.0127    5866.7246    5866.7373     119.5419          4     248.2610      -0.1649    5398.1757    5398.0108    5396.9336    5396.6704      -0.2633
     358.0    4669.6094 1418545.0000    3601.4951     118.9917     119.5642       0.0085    5866.7383    5866.7468     119.5414          4     249.2610      -0.1411    5396.8774    5396.7364    5395.3981    5395.1213      -0.2766
     359.0    4686.9156 1418545.0000    3601.4951     118.9933     119.5643       0.0047    5866.6304    5866.6351     119.5413          4     250.2610      -0.0913    5395.7389    5395.6474    5394.0233    5393.7667      -0.2567
     360.0    4727.5250 1418545.0000    3601.4951     118.9946     119.5642       0.0015    5866.6729    5866.6743     119.5406          4     251.2610      -0.0187    5395.2996    5395.2810    5393.4223    5393.2143      -0.2082
     361.0    4770.3062 1418545.0000    3601.4951     118.9927     119.5634       0.0001    5866.6051    5866.6052     119.5399          4     252.2610       0.0306    5394.0908    5394.1214    5392.2549    5392.0866      -0.1681
     362.0    4794.1313 1418545.0000    3601.4951     118.9951     119.5646      -0.0008    5866.7209    5866.7199     119.5394          4     253.2610       0.0776    5394.6770    5394.7546    5392.5385    5392.4229      -0.1156
     363.0    4803.7828 1418545.0000    3601.4951     118.9974     119.5638      -0.0005    5866.6097    5866.6092     119.5389          4     254.2610       0.1323    5394.9962    5395.1286    5392.7348    5392.7075      -0.0271
     364.0    4802.8687 1418545.0000    3601.4951     118.9987     119.5638       0.0004    5866.5215    5866.5220     119.5382          4     255.2610       0.1757    5395.3438    5395.5197    5392.9156    5392.9745       0.0592
     365.0    4791.3906 1418545.0000    3601.4951     118.9997     119.5636       0.0019    5866.6076    5866.6096     119.5382          4     256.2610       0.2145    5397.5220    5397.7365    5395.1466    5395.3044       0.1580
     366.0    4786.3484 1418545.0000    3601.4951     119.0028     119.5640       0.0035    5866.5516    5866.5553     119.5381          4     257.2610       0.2296    5399.9126    5400.1424    5397.3794    5397.6188       0.2392
     367.0    4789.8687 1418545.0000    3601.4951     119.0190     119.5634       0.0051    5866.6055    5866.6107     119.5422          4     258.2610       0.2223    5494.6366    5494.8590    5490.5209    5490.8216       0.3007
     368.0    4760.3859 1418545.0000    3601.4951     119.0207     119.5643       0.0075    5866.6149    5866.6224     119.5429          4     259.2610       0.1934    5504.4182    5504.6116    5500.4944    5500.8314       0.3368
     369.0    4700.6953 1418545.0000    3601.4951     119.0243     119.5642       0.0105    5866.6133    5866.6236     119.5438          4     260.2610       0.1434    5505.0412    5505.1846    5501.3022    5501.6419       0.3396
     370.0    4699.6094 1418545.0000    3601.4951     119.0245     119.5646       0.0126    5866.6436    5866.6562     119.5448          4     261.2610       0.0822    5505.1865    5505.2685    5501.5192    5501.8362       0.3172
     371.0    4699.9547 1418545.0000    3601.4951     119.0249     119.5645       0.0129    5866.6407    5866.6537     119.5452          4     262.2610       0.0277    5505.1026    5505.1302    5501.6439    5501.9351       0.2911
     372.0    4681.8266 1418545.0000    3601.4951     119.0232     119.5649       0.0120    5866.6807    5866.6926     119.5465          4     263.2610      -0.0065    5505.0388    5505.0322    5501.7275    5502.0041       0.2765
     373.0    4703.1781 1418545.0000    3601.4951     119.0222     119.5658       0.0114    5866.6992    5866.7105     119.5473          4     264.2610      -0.0213    5505.0575    5505.0364    5501.7984    5502.0677       0.2693
     374.0    4759.4375 1418545.0000    3601.4951     119.0235     119.5654       0.0109    5866.7212    5866.7319     119.5483          4     265.2610      -0.0251    5505.0616    5505.0366    5501.8638    5502.1242       0.2604
     375.0    4786.6516 1418545.0000    3601.4951     119.0214     119.5657       0.0093    5866.6015    5866.6108     119.5492          4     266.2610      -0.0254    5504.9860    5504.9607    5501.9199    5502.1666       0.2467
     376.0    4783.9141 1418545.0000    3601.4951     119.0199     119.5654       0.0069    5866.5914    5866.5983     119.5501          4     267.2610      -0.0246    5504.9857    5504.9612    5501.9678    5502.1979       0.2302
     377.0    4794.7391 1418545.0000    3601.4951     119.0218     119.5660       0.0043    5866.5967    5866.6010     119.5505          4     268.2610      -0.0227    5505.1231    5505.1004    5502.0296    5502.2424       0.2128
     378.0    4786.6938 1418545.0000    3601.4951     119.0195     119.5664       0.0025    5866.5638    5866.5665     119.5516          4     269.2610      -0.0200    5505.0152    5504.9952    5502.0414    5502.2370       0.1958
     379.0    4752.4312 1418545.0000    3601.4951     119.0201     119.5657       0.0015    5866.6212    5866.6227     119.5519          4     270.2610      -0.0176    5504.9631    5504.9455    5502.0560    5502.2354       0.1794
     380.0    4711.1297 1418545.0000    3601.4951     119.0197     119.5663       0.0013    5866.5402    5866.5417     119.5526          4     271.2610      -0.0160    5505.0337    5505.0177    5502.0734    5502.2370       0.1638
     381.0    4710.8281 1418545.0000    3601.4951     119.0211     119.5653       0.0017    5866.5662    5866.5679     119.5530          4     272.2610      -0.0153    5505.0540    5505.0389    5502.0973    5502.2473       0.1499
     382.0    4739.2625 1418545.0000    3601.4951     119.0195     119.5659       0.0027    5866.6828    5866.6857     119.5535          4     273.2610      -0.0154    5504.9788    5504.9633    5502.1170    5502.2551       0.1383
     383.0    4768.7422 1418545.0000    3601.4951     119.0194     119.5649       0.0046    5866.5620    5866.5666     119.5539          4     274.2610      -0.0158    5505.0076    5504.9920    5502.1394    5502.2677       0.1284
     384.0    4803.0437 1418545.0000    3601.4951     119.0198     119.5672       0.0066    5866.6450    5866.6516     119.5544          4     275.2610      -0.0151    5505.0472    5505.0320    5502.1539    5502.2729       0.1189
     385.0    4795.8234 1418545.0000    3601.4951     119.0186     119.5664       0.0080    5866.6886    5866.6964     119.5547          4     276.2610      -0.0129    5505.0187    5505.0059    5502.1759    5502.2865       0.1104
     386.0    4758.1281 1418545.0000    3601.4951     119.0181     119.5658       0.0086    5866.5706    5866.5790     119.5552          4     277.2610      -0.0098    5505.0548    5505.0449    5502.1898    5502.2935       0.1038
     387.0    4725.4328 1418545.0000    3601.4951     119.0182     119.5672       0.0095    5866.7046    5866.7141     119.5554          4     278.2610      -0.0061    5504.9783    5504.9722    5502.1983    5502.2967       0.0982
     388.0    4701.1297 1418545.0000    3601.4951     119.0181     119.5672       0.0106    5866.6964    5866.7071     119.5557          4     279.2610      -0.0017    5505.0016    5504.9999    5502.2111    5502.3041       0.0929
