~VERSION INFORMATION
VERS.           2.0   :CWLS Log ASCII Standard - VERSION 2.0
WRAP.           NO    :One Line per depth step
PROD.  Schlumberger   :LAS Producer
PROG.  DLIS to ASCII 2.2                               :LAS Program name and version
CREA.        2020/10/30 12:18                          :LAS Creation date {YYYY/MM/DD hh:mm}
SOURCE.     XPT_HRLA_TLD_MCFL_057LTP.DLIS              :DLIS File Name
FILE-ID.     XPT_HRLA_TLD_MCFL_057LTP                  :File Identification Number
#--------------------------------------------------
~WELL INFORMATION
#MNEM.UNIT      DATA             DESCRIPTION
#---- ------ --------------   -----------------------------
STRT .S         6912.0       :START TIME      
STOP .S         7441.0       :STOP TIME      
STEP .S            1.0       :STEP     
NULL .          -999.25      :NULL VALUE
COMP .        Nexus Energy                             :COMPANY
WELL .        Crux-3                                   :WELL
FLD  .        Crux                                     :FIELD
LOC  .        Easting: 656981.7mE                      :LOCATION
CNTY .        Sedco-703                                :COUNTY
STAT .        Northern Territory                       :STATE
CTRY .        Australia                                :COUNTRY
API  .                                                 :API NUMBER
UWI  .                                                 :UNIQUE WELL ID
DATE .        31-Dec-2007                              :LOG DATE {DD-MMM-YYYY}
SRVC .        Schlumberger                             :SERVICE COMPANY
LATI .DEG     12*57'32.63" S                           :LATITUDE
LONG .DEG     124*26'50.07" E                          :LONGITUDE
GDAT .                                                 :GeoDetic Datum
#-----------------------------------------------------------------------------
~PARAMETER INFORMATION
#MNEM.UNIT    VALUE                      DESCRIPTION
#---- -----   --------------------       ------------------------
RUN  .          1                        :RUN NUMBER
PDAT .        LAT                        :Permanent Datum
EPD  .M           0.000000               :Elevation of Permanent Datum above Mean Sea Level
EPD  .M           0.000000               :Elevation of tool zero above Mean Sea Level
LMF  .          DF                       :Logging Measured From (Name of Logging Elevation Reference)
APD  .M          26.400000               :Elevation of Depth Reference (LMF) above Permanent Datum
#-----------------------------------------------------------------------------
~CURVE INFORMATION
#MNEM.UNIT   API CODE                                  DESCRIPTION
#---- -----  --------                                  -----------------------
TIME .S                                                :TIME {F10.1}
TENS_SL.LBF                                            :Cable Tension {F13.4}
DEPT_SL..1IN                                           :Station logging depth {F13.4}
PDEP_XPT.M                                             :XPT Probe Depth {F13.4}
MTEP_SAP.DEGC                                          :Sapphire Gauge Manometer Temperature {F13.4}
MTEP_HYD.DEGC                                          :Hydrostatic Sapphire Gauge Manometer Temperature {F13.4}
PCO_HYD.PSI                                            :Hydrostatic Sapphire Dynamic Compensation {F13.4}
PND_HYD.PSI                                            :Hydrostatic Sapphire Pressure Without Dynamic Compensation {F13.4}
CP_HYD.PSI                                             :Hydrostatic Sapphire Pressure With Dynamic Compensation {F13.4}
MTEP_QG.DEGC                                           :CQG Manometer Temperature {F13.4}
PTNO_XPT.                                              :XPT Pretest Number {I11}
ETIM_XPT.S                                             :Elapsed Logging Time {F13.4}
PCO_SAP.PSI                                            :Sapphire Dynamic Compensation {F13.4}
PND_SAP.PSI                                            :Sapphire Pressure Without Dynamic Compensation {F13.4}
CP_SAP.PSI                                             :Sapphire Pressure With Dynamic Compensation {F13.4}
QNDP .PSI                                              :CQG Pressure Without Dynamic Compensation {F13.4}
QCP  .PSI                                              :CQG Pressure With Dynamic Compensation {F13.4}
QPCO .PSI                                              :CQG Dynamic Compensation {F13.4}
#-----------------------------------------------------------------------------
# 
#     TIME      TENS_SL      DEPT_SL      PDEP_XPT     MTEP_SAP     MTEP_HYD     PCO_HYD      PND_HYD       CP_HYD      MTEP_QG       PTNO_XPT       ETIM_XPT     PCO_SAP      PND_SAP       CP_SAP        QNDP         QCP          QPCO
#
~A  
# ...
    7192.0    5021.8740 1526236.0000    3875.0305     129.1619     129.6601      -0.0547    6300.7798    6300.7253     129.9261         20     280.0105      -0.0482    5599.0185    5598.9701    5597.0743    5596.8922      -0.1822
    7193.0    5009.7585 1526236.0000    3875.0305     129.1619     129.6594      -0.0529    6300.7109    6300.6581     129.9255         20     281.0105      -0.0494    5599.2861    5599.2368    5597.1688    5596.9867      -0.1823
    7194.0    4985.9500 1526236.0000    3875.0305     129.1593     129.6586      -0.0507    6300.7047    6300.6539     129.9249         20     282.0105      -0.0498    5599.1648    5599.1150    5597.2621    5597.0794      -0.1828
    7195.0    4886.6010 1526236.0000    3875.0305     129.1602     129.6569      -0.0487    6300.7455    6300.6968     129.9244         20     283.0105      -0.0480    5599.4167    5599.3687    5597.3473    5597.1637      -0.1835
    7196.0    4849.4095 1526236.0000    3875.0305     129.1598     129.6563      -0.0466    6300.7993    6300.7528     129.9237         20     284.0105      -0.0455    5599.3541    5599.3086    5597.4319    5597.2474      -0.1845
    7197.0    4887.5170 1526236.0000    3875.0305     129.1571     129.6563      -0.0444    6300.9199    6300.8755     129.9230         20     285.0105      -0.0441    5599.4983    5599.4543    5597.5126    5597.3266      -0.1861
    7198.0    4842.3990 1526236.0000    3875.0305     129.1570     129.6547      -0.0434    6300.9624    6300.9190     129.9224         20     286.0105      -0.0437    5599.5730    5599.5293    5597.5850    5597.3974      -0.1877
    7199.0    4881.0290 1526236.0000    3875.0305     129.1574     129.6537      -0.0446    6300.8979    6300.8532     129.9219         20     287.0105      -0.0427    5599.6914    5599.6488    5597.6526    5597.4641      -0.1885
    7200.0    4977.5800 1526236.0000    3875.0305     129.1576     129.6533      -0.0467    6300.8264    6300.7795     129.9214         20     288.0105      -0.0419    5599.6855    5599.6435    5597.7070    5597.5186      -0.1883
    7201.0    4938.1155 1526236.0000    3875.0305     129.1545     129.6524      -0.0482    6300.8174    6300.7694     129.9209         20     289.0105      -0.0430    5599.7720    5599.7291    5597.7731    5597.5849      -0.1883
    7202.0    4949.3360 1526236.0000    3875.0305     129.1542     129.6518      -0.0485    6300.7712    6300.7229     129.9203         20     290.0105      -0.0458    5599.9009    5599.8551    5597.8316    5597.6426      -0.1888
    7203.0    4981.0315 1526236.0000    3875.0305     129.1524     129.6510      -0.0479    6300.6251    6300.5772     129.9198         20     291.0105      -0.0483    5599.7916    5599.7433    5597.8840    5597.6950      -0.1890
    7204.0    4983.1810 1526236.0000    3875.0305     129.1521     129.6497      -0.0462    6300.7880    6300.7418     129.9192         20     292.0105      -0.0486    5599.9066    5599.8581    5597.9452    5597.7568      -0.1885
    7205.0    4905.8950 1526236.0000    3875.0305     129.1522     129.6490      -0.0432    6300.8658    6300.8225     129.9186         20     293.0105      -0.0486    5600.0818    5600.0331    5598.0012    5597.8128      -0.1886
    7206.0    4895.9055 1526236.0000    3875.0305     129.1491     129.6480      -0.0395    6300.8367    6300.7972     129.9180         20     294.0105      -0.0501    5599.9747    5599.9249    5598.0459    5597.8559      -0.1898
    7207.0    4887.0420 1526236.0000    3875.0305     129.1483     129.6472      -0.0373    6300.9267    6300.8893     129.9173         20     295.0105      -0.0529    5600.0530    5600.0001    5598.0936    5597.9027      -0.1910
    7208.0    4890.3490 1526236.0000    3875.0305     129.1501     129.6465      -0.0378    6301.0373    6300.9993     129.9168         20     296.0105      -0.0558    5600.1202    5600.0644    5598.1403    5597.9489      -0.1914
    7209.0    4829.2940 1526236.0000    3875.0305     129.1487     129.6468      -0.0406    6300.9676    6300.9270     129.9160         20     297.0105      -0.0578    5600.1466    5600.0889    5598.1739    5597.9820      -0.1918
    7210.0    4858.5960 1526236.0000    3875.0305     129.1459     129.6454      -0.0447    6301.0029    6300.9581     129.9155         20     298.0105      -0.0581    5600.1793    5600.1212    5598.2203    5598.0278      -0.1926
    7211.0    5008.5380 1526236.0000    3875.0305     129.1462     129.6454      -0.0494    6300.9049    6300.8555     129.9149         20     299.0105      -0.0557    5600.1792    5600.1236    5598.2552    5598.0615      -0.1936
    7212.0    4965.2415 1526236.0000    3875.0305     129.1441     129.6434      -0.0543    6300.8395    6300.7853     129.9143         20     300.0105      -0.0511    5600.1977    5600.1465    5598.2851    5598.0913      -0.1939
    7213.0    4987.8530 1526236.0000    3875.0305     129.1434     129.6429      -0.0577    6300.6326    6300.5748     129.9136         20     301.0105      -0.0463    5600.3118    5600.2655    5598.3205    5598.1271      -0.1935
    7214.0    4973.4540 1526236.0000    3875.0305     129.1416     129.6419      -0.0574    6300.7166    6300.6592     129.9131         20     302.0105      -0.0430    5600.3171    5600.2740    5598.3569    5598.1637      -0.1931
    7215.0    4921.3490 1526236.0000    3875.0305     129.1427     129.6396      -0.0543    6300.8015    6300.7473     129.9123         20     303.0105      -0.0418    5600.4256    5600.3836    5598.3925    5598.1996      -0.1931
    7216.0    4860.5145 1526236.0000    3875.0305     129.1403     129.6401      -0.0505    6300.8664    6300.8159     129.9120         20     304.0105      -0.0437    5600.3551    5600.3112    5598.4276    5598.2342      -0.1934
    7217.0    4908.6955 1526236.0000    3875.0305     129.1420     129.6372      -0.0480    6300.8106    6300.7626     129.9112         20     305.0105      -0.0476    5600.4646    5600.4171    5598.4597    5598.2662      -0.1935
    7218.0    4879.3700 1526236.0000    3875.0305     129.1394     129.6381      -0.0463    6301.0857    6301.0394     129.9110         20     306.0105      -0.0516    5600.3703    5600.3185    5598.4921    5598.2987      -0.1934
    7219.0    4821.3230 1526236.0000    3875.0305     129.1401     129.6373      -0.0441    6300.9575    6300.9134     129.9101         20     307.0105      -0.0531    5600.4660    5600.4128    5598.5179    5598.3241      -0.1939
    7220.0    4946.1155 1526236.0000    3875.0305     129.1366     129.6378      -0.0419    6300.9629    6300.9209     129.9094         20     308.0105      -0.0514    5600.4924    5600.4410    5598.5413    5598.3470      -0.1945
    7221.0    4957.4935 1526236.0000    3875.0305     129.1385     129.6350      -0.0410    6300.8110    6300.7699     129.9089         20     309.0105      -0.0481    5600.4244    5600.3761    5598.5632    5598.3684      -0.1951
    7222.0    5004.3885 1526236.0000    3875.0305     129.1357     129.6336      -0.0414    6300.8241    6300.7826     129.9082         20     310.0105      -0.0446    5600.5557    5600.5111    5598.5835    5598.3882      -0.1953
    7223.0    5041.1470 1526236.0000    3875.0305     129.1350     129.6349      -0.0415    6300.6386    6300.5971     129.9078         20     311.0105      -0.0425    5600.6056    5600.5631    5598.6053    5598.4100      -0.1955
    7224.0    5053.8555 1526236.0000    3875.0305     129.1367     129.6335      -0.0419    6300.7953    6300.7533     129.9073         20     312.0105      -0.0420    5600.6115    5600.5694    5598.6304    5598.4342      -0.1962
    7225.0    4945.3910 1526236.0000    3875.0305     129.1346     129.6326      -0.0431    6300.8462    6300.8031     129.9065         20     313.0105      -0.0439    5600.6710    5600.6272    5598.6496    5598.4534      -0.1962
    7226.0    4887.7900 1526236.0000    3875.0305     129.1325     129.6320      -0.0440    6300.8539    6300.8099     129.9059         20     314.0105      -0.0469    5600.6331    5600.5861    5598.6707    5598.4749      -0.1958
