~VERSION INFORMATION
VERS.           2.0   :CWLS Log ASCII Standard - VERSION 2.0
WRAP.           NO    :One Line per depth step
PROD.  Schlumberger   :LAS Producer
PROG.  DLIS to ASCII 2.2                               :LAS Program name and version
CREA.        2020/10/30 12:18                          :LAS Creation date {YYYY/MM/DD hh:mm}
SOURCE.     XPT_HRLA_TLD_MCFL_057LTP.DLIS              :DLIS File Name
FILE-ID.     XPT_HRLA_TLD_MCFL_057LTP                  :File Identification Number
#--------------------------------------------------
~WELL INFORMATION
#MNEM.UNIT      DATA             DESCRIPTION
#---- ------ --------------   -----------------------------
STRT .S         6912.0       :START TIME      
STOP .S         7441.0       :STOP TIME      
STEP .S            1.0       :STEP     
NULL .          -999.25      :NULL VALUE
COMP .        Nexus Energy                             :COMPANY
WELL .        Crux-3                                   :WELL
FLD  .        Crux                                     :FIELD
LOC  .        Easting: 656981.7mE                      :LOCATION
CNTY .        Sedco-703                                :COUNTY
STAT .        Northern Territory                       :STATE
CTRY .        Australia                                :COUNTRY
API  .                                                 :API NUMBER
UWI  .                                                 :UNIQUE WELL ID
DATE .        31-Dec-2007                              :LOG DATE {DD-MMM-YYYY}
SRVC .        Schlumberger                             :SERVICE COMPANY
LATI .DEG     12*57'32.63" S                           :LATITUDE
LONG .DEG     124*26'50.07" E                          :LONGITUDE
GDAT .                                                 :GeoDetic Datum
#-----------------------------------------------------------------------------
~PARAMETER INFORMATION
#MNEM.UNIT    VALUE                      DESCRIPTION
#---- -----   --------------------       ------------------------
RUN  .          1                        :RUN NUMBER
PDAT .        LAT                        :Permanent Datum
EPD  .M           0.000000               :Elevation of Permanent Datum above Mean Sea Level
EPD  .M           0.000000               :Elevation of tool zero above Mean Sea Level
LMF  .          DF                       :Logging Measured From (Name of Logging Elevation Reference)
APD  .M          26.400000               :Elevation of Depth Reference (LMF) above Permanent Datum
#-----------------------------------------------------------------------------
~CURVE INFORMATION
#MNEM.UNIT   API CODE                                  DESCRIPTION
#---- -----  --------                                  -----------------------
TIME .S                                                :TIME {F10.1}
TENS_SL.LBF                                            :Cable Tension {F13.4}
DEPT_SL..1IN                                           :Station logging depth {F13.4}
PDEP_XPT.M                                             :XPT Probe Depth {F13.4}
MTEP_SAP.DEGC                                          :Sapphire Gauge Manometer Temperature {F13.4}
MTEP_HYD.DEGC                                          :Hydrostatic Sapphire Gauge Manometer Temperature {F13.4}
PCO_HYD.PSI                                            :Hydrostatic Sapphire Dynamic Compensation {F13.4}
PND_HYD.PSI                                            :Hydrostatic Sapphire Pressure Without Dynamic Compensation {F13.4}
CP_HYD.PSI                                             :Hydrostatic Sapphire Pressure With Dynamic Compensation {F13.4}
MTEP_QG.DEGC                                           :CQG Manometer Temperature {F13.4}
PTNO_XPT.                                              :XPT Pretest Number {I11}
ETIM_XPT.S                                             :Elapsed Logging Time {F13.4}
PCO_SAP.PSI                                            :Sapphire Dynamic Compensation {F13.4}
PND_SAP.PSI                                            :Sapphire Pressure Without Dynamic Compensation {F13.4}
CP_SAP.PSI                                             :Sapphire Pressure With Dynamic Compensation {F13.4}
QNDP .PSI                                              :CQG Pressure Without Dynamic Compensation {F13.4}
QCP  .PSI                                              :CQG Pressure With Dynamic Compensation {F13.4}
QPCO .PSI                                              :CQG Dynamic Compensation {F13.4}
#-----------------------------------------------------------------------------
# 
#     TIME      TENS_SL      DEPT_SL      PDEP_XPT     MTEP_SAP     MTEP_HYD     PCO_HYD      PND_HYD       CP_HYD      MTEP_QG       PTNO_XPT       ETIM_XPT     PCO_SAP      PND_SAP       CP_SAP        QNDP         QCP          QPCO
#
~A  
# ...
    7367.0    4947.8555 1526236.0000    3875.0305     129.0255     129.5375      -0.0309    6300.8428    6300.8119     129.8185         20     455.0105      -0.0370    5601.0634    5601.0264    5599.0895    5598.8922      -0.1973
    7368.0    4840.9450 1526236.0000    3875.0305     129.0223     129.5369      -0.0303    6300.9658    6300.9355     129.8176         20     456.0105      -0.0377    5601.0490    5601.0114    5599.0904    5598.8931      -0.1971
    7369.0    4929.3490 1526236.0000    3875.0305     129.0227     129.5356      -0.0300    6300.9634    6300.9336     129.8170         20     457.0105      -0.0383    5601.0457    5601.0076    5599.0927    5598.8959      -0.1967
    7370.0    4868.1260 1526236.0000    3875.0305     129.0223     129.5361      -0.0301    6301.1992    6301.1689     129.8164         20     458.0105      -0.0384    5601.0658    5601.0273    5599.0984    5598.9019      -0.1964
    7371.0    4879.4015 1526236.0000    3875.0305     129.0208     129.5361      -0.0302    6301.3090    6301.2787     129.8155         20     459.0105      -0.0382    5601.0948    5601.0568    5599.0964    5598.9001      -0.1961
    7372.0    4823.5670 1526236.0000    3875.0305     129.0207     129.5355      -0.0299    6301.0502    6301.0204     129.8154         20     460.0105      -0.0375    5601.0302    5600.9926    5599.0933    5598.8975      -0.1957
    7373.0    4878.3020 1526236.0000    3875.0305     129.0200     129.5346      -0.0286    6301.0620    6301.0335     129.8147         20     461.0105      -0.0372    5601.0302    5600.9931    5599.0925    5598.8973      -0.1951
    7374.0    5000.9265 1526236.0000    3875.0305     129.0196     129.5331      -0.0262    6300.8693    6300.8429     129.8142         20     462.0105      -0.0383    5601.0302    5600.9920    5599.0875    5598.8926      -0.1948
    7375.0    4993.9685 1526236.0000    3875.0305     129.0186     129.5333      -0.0238    6300.8886    6300.8649     129.8134         20     463.0105      -0.0404    5601.0128    5600.9724    5599.0903    5598.8954      -0.1949
    7376.0    4990.9685 1526236.0000    3875.0305     129.0187     129.5330      -0.0221    6300.7861    6300.7640     129.8129         20     464.0105      -0.0417    5600.9735    5600.9320    5599.0862    5598.8909      -0.1951
    7377.0    4988.0840 1526236.0000    3875.0305     129.0164     129.5327      -0.0224    6300.8047    6300.7822     129.8125         20     465.0105      -0.0410    5601.0555    5601.0145    5599.0924    5598.8976      -0.1948
    7378.0    4995.5170 1526236.0000    3875.0305     129.0162     129.5335      -0.0255    6300.9082    6300.8828     129.8115         20     466.0105      -0.0396    5601.0289    5600.9893    5599.0940    5598.8996      -0.1945
    7379.0    4948.8030 1526236.0000    3875.0305     129.0140     129.5313      -0.0298    6300.8847    6300.8549     129.8109         20     467.0105      -0.0383    5600.9810    5600.9428    5599.0972    5598.9032      -0.1939
    7380.0    4836.7035 1526236.0000    3875.0305     129.0144     129.5315      -0.0323    6300.9087    6300.8765     129.8103         20     468.0105      -0.0361    5601.0088    5600.9727    5599.1006    5598.9072      -0.1935
    7381.0    4902.4225 1526236.0000    3875.0305     129.0143     129.5310      -0.0313    6301.0237    6300.9923     129.8100         20     469.0105      -0.0328    5601.0708    5601.0379    5599.1009    5598.9081      -0.1930
    7382.0    4848.1995 1526236.0000    3875.0305     129.0139     129.5293      -0.0290    6301.1680    6301.1390     129.8094         20     470.0105      -0.0308    5601.0427    5601.0119    5599.1063    5598.9139      -0.1925
    7383.0    4866.4435 1526236.0000    3875.0305     129.0115     129.5289      -0.0270    6301.2407    6301.2139     129.8087         20     471.0105      -0.0320    5601.0454    5601.0132    5599.1039    5598.9115      -0.1925
    7384.0    4814.5775 1526236.0000    3875.0305     129.0132     129.5288      -0.0253    6301.0602    6301.0350     129.8080         20     472.0105      -0.0354    5601.0389    5601.0033    5599.0999    5598.9070      -0.1929
    7385.0    4870.4175 1526236.0000    3875.0305     129.0121     129.5295      -0.0239    6301.0253    6301.0014     129.8076         20     473.0105      -0.0379    5600.9873    5600.9494    5599.1016    5598.9078      -0.1938
    7386.0    5004.0105 1526236.0000    3875.0305     129.0129     129.5277      -0.0241    6300.9282    6300.9043     129.8069         20     474.0105      -0.0388    5601.1774    5601.1388    5599.1042    5598.9099      -0.1943
    7387.0    5004.8320 1526236.0000    3875.0305     129.0117     129.5270      -0.0252    6300.9805    6300.9554     129.8063         20     475.0105      -0.0384    5601.1150    5601.0764    5599.1005    5598.9063      -0.1941
    7388.0    4989.0525 1526236.0000    3875.0305     129.0092     129.5274      -0.0250    6300.8222    6300.7971     129.8057         20     476.0105      -0.0376    5601.0010    5600.9634    5599.0966    5598.9031      -0.1936
    7389.0    4994.2520 1526236.0000    3875.0305     129.0106     129.5269      -0.0238    6300.8010    6300.7771     129.8048         20     477.0105      -0.0359    5601.0423    5601.0067    5599.0945    5598.9006      -0.1938
    7390.0    5017.0550 1526236.0000    3875.0305     129.0081     129.5262      -0.0239    6300.8708    6300.8467     129.8043         20     478.0105      -0.0336    5601.0121    5600.9786    5599.0998    5598.9059      -0.1938
    7391.0    4927.3595 1526236.0000    3875.0305     129.0083     129.5262      -0.0254    6301.0147    6300.9894     129.8039         20     479.0105      -0.0318    5601.0567    5601.0248    5599.1011    5598.9078      -0.1936
    7392.0    4866.7375 1526236.0000    3875.0305     129.0073     129.5262      -0.0262    6301.1524    6301.1260     129.8035         20     480.0105      -0.0318    5601.0090    5600.9773    5599.1029    5598.9095      -0.1932
    7393.0    4842.0525 1526236.0000    3875.0305     129.0064     129.5253      -0.0266    6301.0494    6301.0229     129.8027         20     481.0105      -0.0336    5601.0389    5601.0053    5599.1006    5598.9072      -0.1931
    7394.0    4846.9265 1526236.0000    3875.0305     129.0062     129.5239      -0.0273    6301.1714    6301.1442     129.8022         20     482.0105      -0.0353    5601.0474    5601.0121    5599.1056    5598.9152      -0.1904
    7395.0    4839.9475 1526236.0000    3875.0305     129.0058     129.5232      -0.0283    6301.1217    6301.0933     129.8013         20     483.0105       0.0037    5601.0559    5601.0599    5599.1024    5598.9950      -0.1073
    7396.0    4836.4595 1526236.0000    3875.0305     129.0047     129.5245      -0.0277    6301.1953    6301.1676     129.8010         20     484.0105       0.1566    5601.0090    5601.1656    5599.1019    5599.2752       0.1732
    7397.0    4973.9370 1526236.0000    3875.0305     129.0036     129.5224      -0.0261    6300.9917    6300.9657     129.8002         20     485.0105       0.4441    5601.0273    5601.4713    5599.1016    5599.7724       0.6708
    7398.0    4968.4095 1526236.0000    3875.0305     129.0010     129.5217      -0.0252    6300.9819    6300.9565     129.7997         20     486.0105       0.7758    5600.9893    5601.7653    5599.0975    5600.3423       1.2448
    7399.0    5006.8215 1526236.0000    3875.0305     129.0030     129.5220      -0.0254    6300.9124    6300.8870     129.7992         20     487.0105       1.0126    5601.0053    5602.0178    5599.0948    5600.8136       1.7188
    7400.0    4990.2730 1526236.0000    3875.0305     129.0128     129.5201      -0.0259    6300.7861    6300.7603     129.8032         20     488.0105       1.0962    5713.5776    5714.6737    5708.9701    5711.0201       2.0502
    7401.0    5015.1705 1526236.0000    3875.0305     129.1221     129.5223      -0.0256    6300.5725    6300.5471     129.8314         20     489.0105       1.0346    6304.3115    6305.3460    6294.3800    6296.6281       2.2482
