~VERSION INFORMATION
VERS.           2.0   :CWLS Log ASCII Standard - VERSION 2.0
WRAP.           NO    :One Line per depth step
PROD.  Schlumberger   :LAS Producer
PROG.  DLIS to ASCII 2.2                               :LAS Program name and version
CREA.        2020/10/30 12:18                          :LAS Creation date {YYYY/MM/DD hh:mm}
SOURCE.     XPT_HRLA_TLD_MCFL_045LTP.DLIS              :DLIS File Name
FILE-ID.     XPT_HRLA_TLD_MCFL_045LTP                  :File Identification Number
#--------------------------------------------------
~WELL INFORMATION
#MNEM.UNIT      DATA             DESCRIPTION
#---- ------ --------------   -----------------------------
STRT .S         3688.0       :START TIME      
STOP .S         4251.0       :STOP TIME      
STEP .S            1.0       :STEP     
NULL .          -999.25      :NULL VALUE
COMP .        Nexus Energy                             :COMPANY
WELL .        Crux-3                                   :WELL
FLD  .        Crux                                     :FIELD
LOC  .        Easting: 656981.7mE                      :LOCATION
CNTY .        Sedco-703                                :COUNTY
STAT .        Northern Territory                       :STATE
CTRY .        Australia                                :COUNTRY
API  .                                                 :API NUMBER
UWI  .                                                 :UNIQUE WELL ID
DATE .        31-Dec-2007                              :LOG DATE {DD-MMM-YYYY}
SRVC .        Schlumberger                             :SERVICE COMPANY
LATI .DEG     12*57'32.63" S                           :LATITUDE
LONG .DEG     124*26'50.07" E                          :LONGITUDE
GDAT .                                                 :GeoDetic Datum
#-----------------------------------------------------------------------------
~PARAMETER INFORMATION
#MNEM.UNIT    VALUE                      DESCRIPTION
#---- -----   --------------------       ------------------------
RUN  .          1                        :RUN NUMBER
PDAT .        LAT                        :Permanent Datum
EPD  .M           0.000000               :Elevation of Permanent Datum above Mean Sea Level
EPD  .M           0.000000               :Elevation of tool zero above Mean Sea Level
LMF  .          DF                       :Logging Measured From (Name of Logging Elevation Reference)
APD  .M          26.400000               :Elevation of Depth Reference (LMF) above Permanent Datum
#-----------------------------------------------------------------------------
~CURVE INFORMATION
#MNEM.UNIT   API CODE                                  DESCRIPTION
#---- -----  --------                                  -----------------------
TIME .S                                                :TIME {F10.1}
TENS_SL.LBF                                            :Cable Tension {F13.4}
DEPT_SL..1IN                                           :Station logging depth {F13.4}
PDEP_XPT.M                                             :XPT Probe Depth {F13.4}
MTEP_SAP.DEGC                                          :Sapphire Gauge Manometer Temperature {F13.4}
MTEP_HYD.DEGC                                          :Hydrostatic Sapphire Gauge Manometer Temperature {F13.4}
PCO_HYD.PSI                                            :Hydrostatic Sapphire Dynamic Compensation {F13.4}
PND_HYD.PSI                                            :Hydrostatic Sapphire Pressure Without Dynamic Compensation {F13.4}
CP_HYD.PSI                                             :Hydrostatic Sapphire Pressure With Dynamic Compensation {F13.4}
MTEP_QG.DEGC                                           :CQG Manometer Temperature {F13.4}
PTNO_XPT.                                              :XPT Pretest Number {I11}
ETIM_XPT.S                                             :Elapsed Logging Time {F13.4}
PCO_SAP.PSI                                            :Sapphire Dynamic Compensation {F13.4}
PND_SAP.PSI                                            :Sapphire Pressure Without Dynamic Compensation {F13.4}
CP_SAP.PSI                                             :Sapphire Pressure With Dynamic Compensation {F13.4}
QNDP .PSI                                              :CQG Pressure Without Dynamic Compensation {F13.4}
QCP  .PSI                                              :CQG Pressure With Dynamic Compensation {F13.4}
QPCO .PSI                                              :CQG Dynamic Compensation {F13.4}
#-----------------------------------------------------------------------------
# 
#     TIME      TENS_SL      DEPT_SL      PDEP_XPT     MTEP_SAP     MTEP_HYD     PCO_HYD      PND_HYD       CP_HYD      MTEP_QG       PTNO_XPT       ETIM_XPT     PCO_SAP      PND_SAP       CP_SAP        QNDP         QCP          QPCO
#
~A  
# ...
    4073.0    4940.9275 1440603.0000    3657.5227     121.8369     122.3763      -0.0079    5955.4350    5955.4272     122.4688          8     385.0725      -0.0109    5524.8157    5524.8048    5522.2567    5522.2332      -0.0233
    4074.0    4941.2325 1440603.0000    3657.5227     121.8377     122.3766      -0.0080    5955.4473    5955.4394     122.4687          8     386.0725      -0.0094    5524.7942    5524.7849    5522.2559    5522.2329      -0.0231
    4075.0    4957.5800 1440603.0000    3657.5227     121.8373     122.3761      -0.0070    5955.4134    5955.4064     122.4686          8     387.0725      -0.0083    5524.8449    5524.8366    5522.2622    5522.2387      -0.0236
    4076.0    4965.8700 1440603.0000    3657.5227     121.8365     122.3759      -0.0048    5955.4536    5955.4490     122.4686          8     388.0725      -0.0083    5524.8428    5524.8345    5522.2652    5522.2410      -0.0242
    4077.0    4974.8975 1440603.0000    3657.5227     121.8361     122.3767      -0.0028    5955.4446    5955.4416     122.4684          8     389.0725      -0.0089    5524.8366    5524.8279    5522.2693    5522.2449      -0.0246
    4078.0    4941.6925 1440603.0000    3657.5227     121.8383     122.3765      -0.0028    5955.4366    5955.4340     122.4682          8     390.0725      -0.0104    5524.8465    5524.8361    5522.2711    5522.2467      -0.0245
    4079.0    4860.2750 1440603.0000    3657.5227     121.8366     122.3761      -0.0043    5955.4166    5955.4124     122.4684          8     391.0725      -0.0131    5524.8264    5524.8132    5522.2704    5522.2460      -0.0243
    4080.0    4851.1450 1440603.0000    3657.5227     121.8359     122.3759      -0.0061    5955.4445    5955.4382     122.4680          8     392.0725      -0.0165    5524.8643    5524.8478    5522.2792    5522.2548      -0.0245
    4081.0    4852.0575 1440603.0000    3657.5227     121.8349     122.3768      -0.0067    5955.6382    5955.6314     122.4681          8     393.0725      -0.0189    5524.7944    5524.7753    5522.2777    5522.2533      -0.0245
    4082.0    4839.1300 1440603.0000    3657.5227     121.8358     122.3737      -0.0069    5955.6558    5955.6489     122.4681          8     394.0725      -0.0184    5524.7725    5524.7542    5522.2806    5522.2562      -0.0243
    4083.0    4836.7725 1440603.0000    3657.5227     121.8351     122.3753      -0.0072    5955.5532    5955.5459     122.4680          8     395.0725      -0.0162    5524.7740    5524.7578    5522.2755    5522.2516      -0.0241
    4084.0    4950.2325 1440603.0000    3657.5227     121.8354     122.3752      -0.0064    5955.5022    5955.4960     122.4678          8     396.0725      -0.0135    5524.9528    5524.9393    5522.2845    5522.2605      -0.0240
    4085.0    4964.9125 1440603.0000    3657.5227     121.8345     122.3752      -0.0040    5955.4326    5955.4288     122.4678          8     397.0725      -0.0108    5524.8377    5524.8270    5522.2802    5522.2563      -0.0241
    4086.0    4951.0000 1440603.0000    3657.5227     121.8352     122.3744      -0.0002    5955.3091    5955.3090     122.4680          8     398.0725      -0.0084    5524.7426    5524.7342    5522.2801    5522.2562      -0.0237
    4087.0    4953.3925 1440603.0000    3657.5227     121.8332     122.3752       0.0022    5955.2941    5955.2962     122.4676          8     399.0725      -0.0066    5524.7531    5524.7464    5522.2827    5522.2593      -0.0236
    4088.0    4980.5925 1440603.0000    3657.5227     121.8347     122.3752       0.0017    5955.4753    5955.4769     122.4676          8     400.0725      -0.0067    5524.8136    5524.8069    5522.2862    5522.2628      -0.0236
    4089.0    4933.5925 1440603.0000    3657.5227     121.8363     122.3748      -0.0010    5955.5171    5955.5162     122.4675          8     401.0725      -0.0079    5524.9495    5524.9417    5522.2903    5522.2669      -0.0235
    4090.0    4887.5350 1440603.0000    3657.5227     121.8341     122.3765      -0.0037    5955.5558    5955.5522     122.4672          8     402.0725      -0.0102    5524.8931    5524.8827    5522.2895    5522.2661      -0.0236
    4091.0    4856.3625 1440603.0000    3657.5227     121.8346     122.3757      -0.0055    5955.5154    5955.5097     122.4673          8     403.0725      -0.0119    5524.7999    5524.7879    5522.2934    5522.2692      -0.0241
    4092.0    4861.3625 1440603.0000    3657.5227     121.8326     122.3749      -0.0072    5955.5757    5955.5684     122.4675          8     404.0725      -0.0124    5524.9200    5524.9078    5522.2963    5522.2714      -0.0247
    4093.0    4863.8975 1440603.0000    3657.5227     121.8345     122.3746      -0.0085    5955.6204    5955.6120     122.4670          8     405.0725      -0.0120    5524.8496    5524.8375    5522.2965    5522.2716      -0.0248
    4094.0    4842.8725 1440603.0000    3657.5227     121.8332     122.3741      -0.0085    5955.5754    5955.5669     122.4672          8     406.0725      -0.0109    5524.8897    5524.8788    5522.2974    5522.2725      -0.0248
    4095.0    4921.1900 1440603.0000    3657.5227     121.8336     122.3756      -0.0069    5955.6106    5955.6037     122.4668          8     407.0725      -0.0092    5524.9037    5524.8944    5522.3017    5522.2768      -0.0248
    4096.0    4961.7100 1440603.0000    3657.5227     121.8332     122.3737      -0.0053    5955.5077    5955.5025     122.4669          8     408.0725      -0.0067    5524.9025    5524.8957    5522.2982    5522.2733      -0.0247
    4097.0    4956.0425 1440603.0000    3657.5227     121.8323     122.3752      -0.0049    5955.4581    5955.4533     122.4668          8     409.0725      -0.0050    5524.8179    5524.8128    5522.2982    5522.2740      -0.0242
    4098.0    4931.3625 1440603.0000    3657.5227     121.8325     122.3743      -0.0054    5955.3637    5955.3583     122.4670          8     410.0725      -0.0041    5524.8112    5524.8072    5522.3036    5522.2801      -0.0236
    4099.0    4936.4350 1440603.0000    3657.5227     121.8336     122.3737      -0.0057    5955.3944    5955.3885     122.4668          8     411.0725      -0.0031    5524.9158    5524.9125    5522.3018    5522.2784      -0.0235
    4100.0    4938.4475 1440603.0000    3657.5227     121.8313     122.3744      -0.0051    5955.5189    5955.5138     122.4666          8     412.0725      -0.0023    5524.8262    5524.8240    5522.3084    5522.2845      -0.0239
    4101.0    4893.5800 1440603.0000    3657.5227     121.8326     122.3743      -0.0045    5955.5302    5955.5258     122.4665          8     413.0725      -0.0028    5524.8723    5524.8694    5522.3102    5522.2858      -0.0245
    4102.0    4899.9850 1440603.0000    3657.5227     121.8328     122.3734      -0.0045    5955.5107    5955.5063     122.4666          8     414.0725      -0.0048    5524.8561    5524.8511    5522.3155    5522.2906      -0.0249
    4103.0    4885.9850 1440603.0000    3657.5227     121.8325     122.3740      -0.0046    5955.4925    5955.4879     122.4665          8     415.0725      -0.0067    5524.8407    5524.8341    5522.3113    5522.2859      -0.0254
    4104.0    4871.1875 1440603.0000    3657.5227     121.8323     122.3731      -0.0043    5955.5844    5955.5800     122.4664          8     416.0725      -0.0073    5524.9082    5524.9009    5522.3145    5522.2887      -0.0256
    4105.0    4845.4625 1440603.0000    3657.5227     121.8316     122.3740      -0.0047    5955.5992    5955.5946     122.4660          8     417.0725      -0.0081    5524.8232    5524.8152    5522.3128    5522.2870      -0.0256
    4106.0    4815.6100 1440603.0000    3657.5227     121.8311     122.3729      -0.0065    5955.5410    5955.5344     122.4663          8     418.0725      -0.0099    5524.9387    5524.9287    5522.3182    5522.2931      -0.0251
    4107.0    4853.3500 1440603.0000    3657.5227     121.8312     122.3731      -0.0086    5955.5298    5955.5211     122.4661          8     419.0725      -0.0117    5524.8871    5524.8754    5522.3160    5522.2915      -0.0247
