~VERSION INFORMATION
VERS.           2.0   :CWLS Log ASCII Standard - VERSION 2.0
WRAP.           NO    :One Line per depth step
PROD.  Schlumberger   :LAS Producer
PROG.  DLIS to ASCII 2.2                               :LAS Program name and version
CREA.        2020/10/30 12:18                          :LAS Creation date {YYYY/MM/DD hh:mm}
SOURCE.     XPT_HRLA_TLD_MCFL_061LTP.DLIS              :DLIS File Name
FILE-ID.     XPT_HRLA_TLD_MCFL_061LTP                  :File Identification Number
#--------------------------------------------------
~WELL INFORMATION
#MNEM.UNIT      DATA             DESCRIPTION
#---- ------ --------------   -----------------------------
STRT .S         9381.0       :START TIME      
STOP .S         9562.0       :STOP TIME      
STEP .S            1.0       :STEP     
NULL .          -999.25      :NULL VALUE
COMP .        Nexus Energy                             :COMPANY
WELL .        Crux-3                                   :WELL
FLD  .        Crux                                     :FIELD
LOC  .        Easting: 656981.7mE                      :LOCATION
CNTY .        Sedco-703                                :COUNTY
STAT .        Northern Territory                       :STATE
CTRY .        Australia                                :COUNTRY
API  .                                                 :API NUMBER
UWI  .                                                 :UNIQUE WELL ID
DATE .        31-Dec-2007                              :LOG DATE {DD-MMM-YYYY}
SRVC .        Schlumberger                             :SERVICE COMPANY
LATI .DEG     12*57'32.63" S                           :LATITUDE
LONG .DEG     124*26'50.07" E                          :LONGITUDE
GDAT .                                                 :GeoDetic Datum
#-----------------------------------------------------------------------------
~PARAMETER INFORMATION
#MNEM.UNIT    VALUE                      DESCRIPTION
#---- -----   --------------------       ------------------------
RUN  .          1                        :RUN NUMBER
PDAT .        LAT                        :Permanent Datum
EPD  .M           0.000000               :Elevation of Permanent Datum above Mean Sea Level
EPD  .M           0.000000               :Elevation of tool zero above Mean Sea Level
LMF  .          DF                       :Logging Measured From (Name of Logging Elevation Reference)
APD  .M          26.400000               :Elevation of Depth Reference (LMF) above Permanent Datum
#-----------------------------------------------------------------------------
~CURVE INFORMATION
#MNEM.UNIT   API CODE                                  DESCRIPTION
#---- -----  --------                                  -----------------------
TIME .S                                                :TIME {F10.1}
TENS_SL.LBF                                            :Cable Tension {F13.4}
DEPT_SL..1IN                                           :Station logging depth {F13.4}
PDEP_XPT.M                                             :XPT Probe Depth {F13.4}
MTEP_SAP.DEGC                                          :Sapphire Gauge Manometer Temperature {F13.4}
MTEP_HYD.DEGC                                          :Hydrostatic Sapphire Gauge Manometer Temperature {F13.4}
PCO_HYD.PSI                                            :Hydrostatic Sapphire Dynamic Compensation {F13.4}
PND_HYD.PSI                                            :Hydrostatic Sapphire Pressure Without Dynamic Compensation {F13.4}
CP_HYD.PSI                                             :Hydrostatic Sapphire Pressure With Dynamic Compensation {F13.4}
MTEP_QG.DEGC                                           :CQG Manometer Temperature {F13.4}
PTNO_XPT.                                              :XPT Pretest Number {I11}
ETIM_XPT.S                                             :Elapsed Logging Time {F13.4}
PCO_SAP.PSI                                            :Sapphire Dynamic Compensation {F13.4}
PND_SAP.PSI                                            :Sapphire Pressure Without Dynamic Compensation {F13.4}
CP_SAP.PSI                                             :Sapphire Pressure With Dynamic Compensation {F13.4}
QNDP .PSI                                              :CQG Pressure Without Dynamic Compensation {F13.4}
QCP  .PSI                                              :CQG Pressure With Dynamic Compensation {F13.4}
QPCO .PSI                                              :CQG Dynamic Compensation {F13.4}
#-----------------------------------------------------------------------------
# 
#     TIME      TENS_SL      DEPT_SL      PDEP_XPT     MTEP_SAP     MTEP_HYD     PCO_HYD      PND_HYD       CP_HYD      MTEP_QG       PTNO_XPT       ETIM_XPT     PCO_SAP      PND_SAP       CP_SAP        QNDP         QCP          QPCO
#
~A  
# ...
    9416.0    4951.4020 1547081.0000    3927.9766     129.2589     129.8239       0.0470    6385.8369    6385.8839     129.7970         25      34.6220       0.0437    6383.2419    6383.2854    6380.6786    6380.8207       0.1419
    9417.0    4956.0860 1547081.0000    3927.9766     129.2597     129.8241       0.0491    6385.7564    6385.8056     129.7976         25      35.6220       0.0472    6383.0644    6383.1116    6380.5692    6380.7113       0.1422
    9418.0    4957.8900 1547081.0000    3927.9766     129.2582     129.8251       0.0509    6385.6734    6385.7242     129.7979         25      36.6220       0.0493    6383.0674    6383.1167    6380.5914    6380.7340       0.1426
    9419.0    4951.0240 1547081.0000    3927.9766     129.2624     129.8250       0.0520    6385.7279    6385.7799     129.7984         25      37.6220       0.0506    6383.2227    6383.2732    6380.6103    6380.7533       0.1431
    9420.0    4939.2920 1547081.0000    3927.9766     129.2626     129.8269       0.0534    6385.7646    6385.8182     129.7984         25      38.6220       0.0517    6383.0176    6383.0694    6380.5753    6380.7192       0.1438
    9421.0    4938.9760 1547081.0000    3927.9766     129.2639     129.8294       0.0554    6385.7530    6385.8082     129.7992         25      39.6220       0.0517    6383.1233    6383.1750    6380.5729    6380.7180       0.1450
    9422.0    4971.2340 1547081.0000    3927.9766     129.2639     129.8305       0.0562    6385.8230    6385.8792     129.7997         25      40.6220       0.0504    6383.0571    6383.1075    6380.6162    6380.7622       0.1461
    9423.0    5018.2340 1547081.0000    3927.9766     129.2657     129.8292       0.0544    6385.7514    6385.8058     129.8003         25      41.6220       0.0485    6383.1815    6383.2300    6380.5812    6380.7277       0.1465
    9424.0    5057.7700 1547081.0000    3927.9766     129.2664     129.8307       0.0518    6385.7533    6385.8051     129.8005         25      42.6220       0.0483    6383.1328    6383.1812    6380.5544    6380.7009       0.1467
    9425.0    5080.3300 1547081.0000    3927.9766     129.2659     129.8320       0.0514    6385.7075    6385.7590     129.8009         25      43.6220       0.0503    6383.0995    6383.1497    6380.5357    6380.6826       0.1469
    9426.0    5085.3780 1547081.0000    3927.9766     129.2685     129.8331       0.0531    6385.7113    6385.7644     129.8012         25      44.6220       0.0537    6383.0856    6383.1394    6380.4909    6380.6384       0.1473
    9427.0    5058.2540 1547081.0000    3927.9766     129.2687     129.8351       0.0550    6385.7584    6385.8136     129.8021         25      45.6220       0.0566    6383.0473    6383.1040    6380.5028    6380.6508       0.1479
    9428.0    5002.1920 1547081.0000    3927.9766     129.2688     129.8343       0.0551    6385.7434    6385.7986     129.8025         25      46.6220       0.0568    6383.0206    6383.0776    6380.4885    6380.6374       0.1489
    9429.0    4935.0820 1547081.0000    3927.9766     129.2703     129.8363       0.0536    6385.6698    6385.7233     129.8026         25      47.6220       0.0553    6383.0995    6383.1548    6380.4987    6380.6486       0.1499
    9430.0    4884.1200 1547081.0000    3927.9766     129.2732     129.8365       0.0516    6385.7510    6385.8027     129.8034         25      48.6220       0.0531    6383.1372    6383.1903    6380.5267    6380.6776       0.1508
    9431.0    4869.0000 1547081.0000    3927.9766     129.2728     129.8386       0.0499    6385.7796    6385.8297     129.8037         25      49.6220       0.0499    6383.1277    6383.1776    6380.5954    6380.7466       0.1511
    9432.0    4878.3300 1547081.0000    3927.9766     129.2745     129.8394       0.0497    6385.9290    6385.9788     129.8041         25      50.6220       0.0450    6383.2695    6383.3143    6380.6830    6380.8339       0.1511
    9433.0    4925.6740 1547081.0000    3927.9766     129.2742     129.8392       0.0511    6385.9063    6385.9571     129.8046         25      51.6220       0.0408    6383.2377    6383.2787    6380.6474    6380.7988       0.1516
    9434.0    4995.7840 1547081.0000    3927.9766     129.2762     129.8406       0.0534    6385.7942    6385.8476     129.8054         25      52.6220       0.0410    6383.1806    6383.2215    6380.5576    6380.7107       0.1529
    9435.0    5051.6120 1547081.0000    3927.9766     129.2764     129.8408       0.0551    6385.8294    6385.8845     129.8056         25      53.6220       0.0452    6383.1479    6383.1929    6380.5545    6380.7087       0.1541
    9436.0    5096.9900 1547081.0000    3927.9766     129.2761     129.8434       0.0553    6385.7436    6385.7988     129.8060         25      54.6220       0.0498    6383.1583    6383.2082    6380.5366    6380.6914       0.1549
    9437.0    5098.4500 1547081.0000    3927.9766     129.2766     129.8434       0.0541    6385.6255    6385.6795     129.8065         25      55.6220       0.0525    6382.9497    6383.0021    6380.4113    6380.5668       0.1555
    9438.0    5094.5980 1547081.0000    3927.9766     129.2787     129.8455       0.0518    6385.6990    6385.7509     129.8071         25      56.6220       0.0534    6382.9512    6383.0044    6380.4193    6380.5755       0.1564
    9439.0    5082.4500 1547081.0000    3927.9766     129.2795     129.8464       0.0493    6385.6549    6385.7042     129.8076         25      57.6220       0.0536    6382.9939    6383.0476    6380.4426    6380.5994       0.1570
    9440.0    5052.4740 1547081.0000    3927.9766     129.2815     129.8464       0.0483    6385.6587    6385.7070     129.8081         25      58.6220       0.0534    6383.1357    6383.1892    6380.4888    6380.6460       0.1572
    9441.0    5031.9140 1547081.0000    3927.9766     129.2826     129.8471       0.0504    6385.7260    6385.7764     129.8083         25      59.6220       0.0516    6383.0782    6383.1298    6380.4962    6380.6538       0.1577
    9442.0    5031.3540 1547081.0000    3927.9766     129.2803     129.8480       0.0532    6385.7358    6385.7891     129.8088         25      60.6220       0.0498    6383.0684    6383.1181    6380.5257    6380.6844       0.1586
    9443.0    5052.0380 1547081.0000    3927.9766     129.2824     129.8493       0.0562    6385.7381    6385.7944     129.8096         25      61.6220       0.0479    6383.1030    6383.1508    6380.5177    6380.6760       0.1583
    9444.0    5067.9760 1547081.0000    3927.9766     129.2848     129.8507       0.0572    6385.7378    6385.7949     129.8099         25      62.6220       0.0453    6383.0784    6383.1238    6380.4933    6380.6410       0.1477
    9445.0    5046.7420 1547081.0000    3927.9766     129.2848     129.8518       0.0569    6385.7743    6385.8314     129.8106         25      63.6220       0.0404    6383.1037    6383.1440    6380.4833    6380.6156       0.1320
    9446.0    4989.7040 1547081.0000    3927.9766     129.2860     129.8524       0.0575    6385.7107    6385.7680     129.8111         25      64.6220       0.0274    6383.1698    6383.1973    6380.5181    6380.6203       0.1022
    9447.0    4929.1680 1547081.0000    3927.9766     129.2866     129.8536       0.0603    6385.7963    6385.8566     129.8116         25      65.6220       0.0119    6382.9924    6383.0043    6380.5032    6380.5730       0.0697
    9448.0    4883.7420 1547081.0000    3927.9766     129.2881     129.8547       0.0641    6385.8649    6385.9290     129.8124         25      66.6220       0.0008    6382.6800    6382.6808    6380.0881    6380.1291       0.0410
    9449.0    4861.5360 1547081.0000    3927.9766     129.2870     129.8533       0.0669    6385.7935    6385.8603     129.8115         25      67.6220      -0.0045    6372.8062    6372.8018    6358.9390    6358.9559       0.0171
    9450.0    4864.4640 1547081.0000    3927.9766     129.2843     129.8579       0.0681    6385.9639    6386.0321     129.8111         25      68.6220      -0.0060    6340.5864    6340.5806    6335.7627    6335.7622      -0.0005
