~VERSION INFORMATION
VERS.           2.0   :CWLS Log ASCII Standard - VERSION 2.0
WRAP.           NO    :One Line per depth step
PROD.  Schlumberger   :LAS Producer
PROG.  DLIS to ASCII 2.2                               :LAS Program name and version
CREA.        2020/10/30 12:18                          :LAS Creation date {YYYY/MM/DD hh:mm}
SOURCE.     XPT_HRLA_TLD_MCFL_037LTP.DLIS              :DLIS File Name
FILE-ID.     XPT_HRLA_TLD_MCFL_037LTP                  :File Identification Number
#--------------------------------------------------
~WELL INFORMATION
#MNEM.UNIT      DATA             DESCRIPTION
#---- ------ --------------   -----------------------------
STRT .S        35745.0       :START TIME      
STOP .S        36558.0       :STOP TIME      
STEP .S            1.0       :STEP     
NULL .          -999.25      :NULL VALUE
COMP .        Nexus Energy                             :COMPANY
WELL .        Crux-3                                   :WELL
FLD  .        Crux                                     :FIELD
LOC  .        Easting: 656981.7mE                      :LOCATION
CNTY .        Sedco-703                                :COUNTY
STAT .        Northern Territory                       :STATE
CTRY .        Australia                                :COUNTRY
API  .                                                 :API NUMBER
UWI  .                                                 :UNIQUE WELL ID
DATE .        31-Dec-2007                              :LOG DATE {DD-MMM-YYYY}
SRVC .        Schlumberger                             :SERVICE COMPANY
LATI .DEG     12*57'32.63" S                           :LATITUDE
LONG .DEG     124*26'50.07" E                          :LONGITUDE
GDAT .                                                 :GeoDetic Datum
#-----------------------------------------------------------------------------
~PARAMETER INFORMATION
#MNEM.UNIT    VALUE                      DESCRIPTION
#---- -----   --------------------       ------------------------
RUN  .          1                        :RUN NUMBER
PDAT .        LAT                        :Permanent Datum
EPD  .M           0.000000               :Elevation of Permanent Datum above Mean Sea Level
EPD  .M           0.000000               :Elevation of tool zero above Mean Sea Level
LMF  .          DF                       :Logging Measured From (Name of Logging Elevation Reference)
APD  .M          26.400000               :Elevation of Depth Reference (LMF) above Permanent Datum
#-----------------------------------------------------------------------------
~CURVE INFORMATION
#MNEM.UNIT   API CODE                                  DESCRIPTION
#---- -----  --------                                  -----------------------
TIME .S                                                :TIME {F10.1}
TENS_SL.LBF                                            :Cable Tension {F13.4}
DEPT_SL..1IN                                           :Station logging depth {F13.4}
PDEP_XPT.M                                             :XPT Probe Depth {F13.4}
MTEP_SAP.DEGC                                          :Sapphire Gauge Manometer Temperature {F13.4}
MTEP_HYD.DEGC                                          :Hydrostatic Sapphire Gauge Manometer Temperature {F13.4}
PCO_HYD.PSI                                            :Hydrostatic Sapphire Dynamic Compensation {F13.4}
PND_HYD.PSI                                            :Hydrostatic Sapphire Pressure Without Dynamic Compensation {F13.4}
CP_HYD.PSI                                             :Hydrostatic Sapphire Pressure With Dynamic Compensation {F13.4}
MTEP_QG.DEGC                                           :CQG Manometer Temperature {F13.4}
PTNO_XPT.                                              :XPT Pretest Number {I11}
ETIM_XPT.S                                             :Elapsed Logging Time {F13.4}
PCO_SAP.PSI                                            :Sapphire Dynamic Compensation {F13.4}
PND_SAP.PSI                                            :Sapphire Pressure Without Dynamic Compensation {F13.4}
CP_SAP.PSI                                             :Sapphire Pressure With Dynamic Compensation {F13.4}
QNDP .PSI                                              :CQG Pressure Without Dynamic Compensation {F13.4}
QCP  .PSI                                              :CQG Pressure With Dynamic Compensation {F13.4}
QPCO .PSI                                              :CQG Dynamic Compensation {F13.4}
#-----------------------------------------------------------------------------
# 
#     TIME      TENS_SL      DEPT_SL      PDEP_XPT     MTEP_SAP     MTEP_HYD     PCO_HYD      PND_HYD       CP_HYD      MTEP_QG       PTNO_XPT       ETIM_XPT     PCO_SAP      PND_SAP       CP_SAP        QNDP         QCP          QPCO
#
~A  
# ...
   36060.0    4570.2920 1417595.0000    3599.0823     118.7357     119.2722       0.0092    5862.7778    5862.7868     118.9850          0     314.7480       0.0060    5861.2183    5861.2242    5858.1973    5858.3050       0.1078
   36061.0    4554.5280 1417595.0000    3599.0823     118.7342     119.2719       0.0116    5862.8034    5862.8148     118.9853          0     315.7480       0.0048    5861.1460    5861.1509    5858.2109    5858.3151       0.1043
   36062.0    4636.2720 1417595.0000    3599.0823     118.7327     119.2715       0.0117    5862.8296    5862.8413     118.9855          0     316.7480       0.0021    5861.0718    5861.0738    5858.2021    5858.3056       0.1036
   36063.0    4666.4960 1417595.0000    3599.0823     118.7344     119.2748       0.0110    5862.5791    5862.5898     118.9861          0     317.7480      -0.0025    5861.0615    5861.0592    5858.0625    5858.1618       0.0995
   36064.0    4701.4080 1417595.0000    3599.0823     118.7348     119.2748       0.0110    5862.5346    5862.5456     118.9864          0     318.7480      -0.0411    5860.8300    5860.7889    5857.9297    5857.9712       0.0414
   36065.0    4731.7000 1417595.0000    3599.0823     118.7325     119.2738       0.0101    5862.3385    5862.3484     118.9864          0     319.7480      -0.1559    5860.5663    5860.4105    5857.6713    5857.5426      -0.1286
   36066.0    4721.5440 1417595.0000    3599.0823     118.7324     119.2729       0.0065    5862.3213    5862.3279     118.9867          0     320.7480      -0.3362    5857.6670    5857.3309    5854.8384    5854.4434      -0.3950
   36067.0    4652.4200 1417595.0000    3599.0823     118.7369     119.2727       0.0031    5862.3194    5862.3225     118.9878          0     321.7480      -0.5020    5875.7792    5875.2772    5872.7362    5872.0743      -0.6618
   36068.0    4605.5680 1417595.0000    3599.0823     118.7377     119.2746       0.0037    5862.6368    5862.6405     118.9893          0     322.7480      -0.5862    5883.5935    5883.0075    5880.4481    5879.5899      -0.8581
   36069.0    4602.2360 1417595.0000    3599.0823     118.6867     119.2741       0.0070    5862.7500    5862.7570     118.9744          0     323.7480      -0.5847    5531.5415    5530.9568    5535.1226    5534.1328      -0.9897
   36070.0    4584.5520 1417595.0000    3599.0823     118.6603     119.2740       0.0095    5862.9277    5862.9373     118.9697          0     324.7480      -0.5112    5448.4497    5447.9385    5450.8351    5449.7790      -1.0559
   36071.0    4587.7240 1417595.0000    3599.0823     118.6656     119.2745       0.0099    5862.8348    5862.8445     118.9701          0     325.7480      -0.3584    5501.5545    5501.1961    5502.2827    5501.2646      -1.0180
   36072.0    4632.8880 1417595.0000    3599.0823     118.6697     119.2754       0.0098    5862.7639    5862.7737     118.9677          0     326.7480      -0.1425    5503.2302    5503.0876    5503.4049    5502.5272      -0.8777
   36073.0    4678.4160 1417595.0000    3599.0823     118.6746     119.2748       0.0101    5862.6387    5862.6489     118.9652          0     327.7480       0.0585    5503.0554    5503.1139    5502.5775    5501.8553      -0.7220
   36074.0    4701.7160 1417595.0000    3599.0823     118.6774     119.2748       0.0092    5862.6335    5862.6429     118.9627          0     328.7480       0.1762    5503.3475    5503.5236    5502.3774    5501.7528      -0.6246
   36075.0    4703.0080 1417595.0000    3599.0823     118.6819     119.2763       0.0062    5862.5900    5862.5961     118.9603          0     329.7480       0.2091    5503.6337    5503.8427    5502.2466    5501.6726      -0.5739
   36076.0    4691.5280 1417595.0000    3599.0823     118.6861     119.2742       0.0016    5862.4990    5862.5007     118.9585          0     330.7480       0.2020    5503.9134    5504.1156    5502.1303    5501.6106      -0.5197
   36077.0    4620.6800 1417595.0000    3599.0823     118.6895     119.2755      -0.0020    5862.6082    5862.6063     118.9568          0     331.7480       0.1871    5504.0251    5504.2124    5502.0387    5501.5950      -0.4439
   36078.0    4598.0000 1417595.0000    3599.0823     118.6924     119.2747      -0.0030    5862.7019    5862.6990     118.9555          0     332.7480       0.1705    5504.1178    5504.2884    5501.9537    5501.5923      -0.3612
   36079.0    4612.9600 1417595.0000    3599.0823     118.6975     119.2748      -0.0017    5862.6828    5862.6810     118.9546          0     333.7480       0.1543    5504.3408    5504.4952    5501.8771    5501.5948      -0.2824
   36080.0    4629.2200 1417595.0000    3599.0823     118.6991     119.2746       0.0007    5862.7876    5862.7884     118.9538          0     334.7480       0.1348    5504.4183    5504.5533    5501.8152    5501.5989      -0.2164
   36081.0    4638.2360 1417595.0000    3599.0823     118.6997     119.2748       0.0024    5862.7478    5862.7502     118.9534          0     335.7480       0.1044    5504.4091    5504.5137    5501.7590    5501.5843      -0.1748
   36082.0    4695.3520 1417595.0000    3599.0823     118.7026     119.2751       0.0025    5862.6131    5862.6156     118.9530          0     336.7480       0.0618    5504.4898    5504.5517    5501.7164    5501.5545      -0.1618
   36083.0    4669.8680 1417595.0000    3599.0823     118.7060     119.2748       0.0013    5862.5464    5862.5479     118.9528          0     337.7480       0.0176    5504.5017    5504.5195    5501.6807    5501.5151      -0.1655
   36084.0    4662.4800 1417595.0000    3599.0823     118.7051     119.2758      -0.0005    5862.6112    5862.6106     118.9529          0     338.7480      -0.0164    5504.5521    5504.5358    5501.6548    5501.4849      -0.1697
   36085.0    4695.6680 1417595.0000    3599.0823     118.7064     119.2759      -0.0015    5862.4116    5862.4101     118.9523          0     339.7480      -0.0342    5481.0614    5481.0272    5478.7091    5478.5443      -0.1650
   36086.0    4706.7480 1417595.0000    3599.0823     118.6971     119.2736      -0.0012    5862.5073    5862.5062     118.9501          1     340.7480      -0.0301    5430.4902    5430.4601    5428.5441    5428.4034      -0.1405
   36087.0    4667.3560 1417595.0000    3599.0823     118.6977     119.2751       0.0007    5862.6420    5862.6426     118.9501          1     341.7480       0.0048    5425.7426    5425.7475    5423.7567    5423.6739      -0.0829
   36088.0    4639.7880 1417595.0000    3599.0823     118.6983     119.2748       0.0032    5862.7280    5862.7312     118.9499          1     342.7480       0.0613    5427.4062    5427.4676    5425.1805    5425.1796      -0.0008
   36089.0    4622.2840 1417595.0000    3599.0823     118.7007     119.2748       0.0051    5862.7642    5862.7695     118.9497          1     343.7480       0.1085    5424.9741    5425.0826    5422.5662    5422.6355       0.0692
   36090.0    4591.0720 1417595.0000    3599.0823     118.6999     119.2757       0.0065    5862.8355    5862.8419     118.9499          1     344.7480       0.1266    5427.1341    5427.2607    5424.5421    5424.6525       0.1105
   36091.0    4579.0080 1417595.0000    3599.0823     118.7146     119.2755       0.0072    5862.7651    5862.7725     118.9529          1     345.7480       0.1265    5500.3711    5500.4979    5496.3544    5496.4989       0.1443
   36092.0    4680.4760 1417595.0000    3599.0823     118.7240     119.2754       0.0070    5862.7042    5862.7111     118.9556          1     346.7480       0.1276    5556.4829    5556.6107    5550.9100    5551.1017       0.1916
   36093.0    4723.9760 1417595.0000    3599.0823     118.7101     119.2746       0.0059    5862.6275    5862.6333     118.9514          1     347.7480       0.1369    5435.1834    5435.3204    5432.5939    5432.8480       0.2541
   36094.0    4724.0080 1417595.0000    3599.0823     118.7083     119.2766       0.0058    5862.6285    5862.6344     118.9515          1     348.7480       0.1661    5425.8772    5426.0432    5423.2924    5423.6378       0.3456
