~VERSION INFORMATION
VERS.           2.0   :CWLS Log ASCII Standard - VERSION 2.0
WRAP.           NO    :One Line per depth step
PROD.  Schlumberger   :LAS Producer
PROG.  DLIS to ASCII 2.2                               :LAS Program name and version
CREA.        2020/10/30 12:18                          :LAS Creation date {YYYY/MM/DD hh:mm}
SOURCE.     XPT_HRLA_TLD_MCFL_068LTP.DLIS              :DLIS File Name
FILE-ID.     XPT_HRLA_TLD_MCFL_068LTP                  :File Identification Number
#--------------------------------------------------
~WELL INFORMATION
#MNEM.UNIT      DATA             DESCRIPTION
#---- ------ --------------   -----------------------------
STRT .S           82.0       :START TIME      
STOP .S          488.0       :STOP TIME      
STEP .S            1.0       :STEP     
NULL .          -999.25      :NULL VALUE
COMP .        Nexus Energy                             :COMPANY
WELL .        Crux-3                                   :WELL
FLD  .        Crux                                     :FIELD
LOC  .        Easting: 656981.7mE                      :LOCATION
CNTY .        Sedco-703                                :COUNTY
STAT .        Northern Territory                       :STATE
CTRY .        Australia                                :COUNTRY
API  .                                                 :API NUMBER
UWI  .                                                 :UNIQUE WELL ID
DATE .        31-Dec-2007                              :LOG DATE {DD-MMM-YYYY}
SRVC .        Schlumberger                             :SERVICE COMPANY
LATI .DEG     12*57'32.63" S                           :LATITUDE
LONG .DEG     124*26'50.07" E                          :LONGITUDE
GDAT .                                                 :GeoDetic Datum
#-----------------------------------------------------------------------------
~PARAMETER INFORMATION
#MNEM.UNIT    VALUE                      DESCRIPTION
#---- -----   --------------------       ------------------------
RUN  .          1                        :RUN NUMBER
PDAT .        LAT                        :Permanent Datum
EPD  .M           0.000000               :Elevation of Permanent Datum above Mean Sea Level
EPD  .M           0.000000               :Elevation of tool zero above Mean Sea Level
LMF  .          DF                       :Logging Measured From (Name of Logging Elevation Reference)
APD  .M          26.400000               :Elevation of Depth Reference (LMF) above Permanent Datum
#-----------------------------------------------------------------------------
~CURVE INFORMATION
#MNEM.UNIT   API CODE                                  DESCRIPTION
#---- -----  --------                                  -----------------------
TIME .S                                                :TIME {F10.1}
TENS_SL.LBF                                            :Cable Tension {F13.4}
DEPT_SL..1IN                                           :Station logging depth {F13.4}
PDEP_XPT.M                                             :XPT Probe Depth {F13.4}
MTEP_SAP.DEGC                                          :Sapphire Gauge Manometer Temperature {F13.4}
MTEP_HYD.DEGC                                          :Hydrostatic Sapphire Gauge Manometer Temperature {F13.4}
PCO_HYD.PSI                                            :Hydrostatic Sapphire Dynamic Compensation {F13.4}
PND_HYD.PSI                                            :Hydrostatic Sapphire Pressure Without Dynamic Compensation {F13.4}
CP_HYD.PSI                                             :Hydrostatic Sapphire Pressure With Dynamic Compensation {F13.4}
MTEP_QG.DEGC                                           :CQG Manometer Temperature {F13.4}
PTNO_XPT.                                              :XPT Pretest Number {I11}
ETIM_XPT.S                                             :Elapsed Logging Time {F13.4}
PCO_SAP.PSI                                            :Sapphire Dynamic Compensation {F13.4}
PND_SAP.PSI                                            :Sapphire Pressure Without Dynamic Compensation {F13.4}
CP_SAP.PSI                                             :Sapphire Pressure With Dynamic Compensation {F13.4}
QNDP .PSI                                              :CQG Pressure Without Dynamic Compensation {F13.4}
QCP  .PSI                                              :CQG Pressure With Dynamic Compensation {F13.4}
QPCO .PSI                                              :CQG Dynamic Compensation {F13.4}
#-----------------------------------------------------------------------------
# 
#     TIME      TENS_SL      DEPT_SL      PDEP_XPT     MTEP_SAP     MTEP_HYD     PCO_HYD      PND_HYD       CP_HYD      MTEP_QG       PTNO_XPT       ETIM_XPT     PCO_SAP      PND_SAP       CP_SAP        QNDP         QCP          QPCO
#
~A  
# ...
     222.0    5046.7174 1566781.0000    3978.0146     132.8700     133.5090       0.0450    6464.5783    6464.6233     133.2397         31     140.1413      -0.8889    6423.3466    6422.4577    6420.5944    6419.1683      -1.4260
     223.0    5036.9470 1566781.0000    3978.0146     132.8700     133.5089       0.0452    6464.6377    6464.6831     133.2404         31     141.1413      -1.2518    6423.1491    6421.8972    6420.5290    6418.3987      -2.1302
     224.0    4982.3488 1566781.0000    3978.0146     132.8386     133.5111       0.0444    6464.6626    6464.7071     133.2303         31     142.1413      -1.4387    6178.7198    6177.2811    6180.9213    6178.2748      -2.6463
     225.0    4945.8808 1566781.0000    3978.0146     132.7504     133.5116       0.0436    6464.6755    6464.7190     133.2063         32     143.1413      -1.3852    5673.4028    5672.0176    5681.2869    5678.3931      -2.8938
     226.0    4929.7505 1566781.0000    3978.0146     132.7106     133.5121       0.0430    6464.7801    6464.8230     133.1957         32     144.1413      -1.0676    5503.1497    5502.0821    5511.3803    5508.5757      -2.8045
     227.0    4912.6843 1566781.0000    3978.0146     132.6981     133.5142       0.0425    6464.7563    6464.7988     133.1881         32     145.1413      -0.5314    5446.5358    5446.0045    5453.8450    5451.4559      -2.3893
     228.0    4927.7285 1566781.0000    3978.0146     132.6982     133.5134       0.0417    6464.7480    6464.7900     133.1810         32     146.1413       0.0815    5419.6186    5419.7002    5425.6251    5423.8208      -1.8042
     229.0    4926.9228 1566781.0000    3978.0146     132.7234     133.5144       0.0414    6464.7297    6464.7712     133.1804         32     147.1413       0.5839    5537.5042    5538.0879    5539.6311    5538.3675      -1.2635
     230.0    4978.4658 1566781.0000    3978.0146     132.7649     133.5160       0.0426    6464.7274    6464.7698     133.1817         32     148.1413       0.8647    5696.2713    5697.1361    5695.1615    5694.2746      -0.8868
     231.0    5041.9338 1566781.0000    3978.0146     132.7853     133.5165       0.0449    6464.6768    6464.7218     133.1784         32     149.1413       0.9187    5725.7451    5726.6637    5723.4475    5722.7724      -0.6753
     232.0    5078.1413 1566781.0000    3978.0146     132.7988     133.5174       0.0471    6464.6558    6464.7029     133.1754         32     150.1413       0.8119    5731.0600    5731.8719    5728.3137    5727.7417      -0.5718
     233.0    5079.0000 1566781.0000    3978.0146     132.8082     133.5181       0.0489    6464.5930    6464.6417     133.1731         32     151.1413       0.6371    5731.3519    5731.9890    5728.5351    5728.0333      -0.5017
     234.0    5076.1744 1566781.0000    3978.0146     132.8160     133.5189       0.0501    6464.5640    6464.6138     133.1713         32     152.1413       0.4746    5731.2695    5731.7440    5728.4343    5728.0315      -0.4028
     235.0    5048.9690 1566781.0000    3978.0146     132.8216     133.5206       0.0501    6464.6408    6464.6908     133.1705         32     153.1413       0.3645    5731.2432    5731.6077    5728.3458    5728.0866      -0.2594
     236.0    4981.6423 1566781.0000    3978.0146     132.8263     133.5203       0.0484    6464.6287    6464.6771     133.1701         32     154.1413       0.2996    5731.0955    5731.3949    5728.2705    5728.1665      -0.1039
     237.0    4942.5762 1566781.0000    3978.0146     132.8315     133.5225       0.0462    6464.5592    6464.6055     133.1702         32     155.1413       0.2585    5731.1627    5731.4211    5728.2050    5728.2368       0.0319
     238.0    4936.8918 1566781.0000    3978.0146     132.8360     133.5237       0.0448    6464.7020    6464.7467     133.1706         32     156.1413       0.2300    5731.1335    5731.3635    5728.1384    5728.2811       0.1426
     239.0    4926.7594 1566781.0000    3978.0146     132.8399     133.5227       0.0434    6464.7158    6464.7593     133.1714         32     157.1413       0.2075    5731.0223    5731.2297    5728.0800    5728.3121       0.2321
     240.0    4977.8808 1566781.0000    3978.0146     132.8430     133.5238       0.0415    6464.6957    6464.7371     133.1722         32     158.1413       0.1873    5731.0868    5731.2740    5728.0340    5728.3379       0.3040
     241.0    4973.9007 1566781.0000    3978.0146     132.8461     133.5250       0.0411    6464.6918    6464.7328     133.1734         32     159.1413       0.1689    5731.0867    5731.2556    5727.9948    5728.3569       0.3622
     242.0    5028.8477 1566781.0000    3978.0146     132.8492     133.5261       0.0436    6464.7524    6464.7960     133.1746         32     160.1413       0.1538    5730.9973    5731.1510    5727.9633    5728.3737       0.4105
     243.0    5038.2384 1566781.0000    3978.0146     132.8519     133.5272       0.0472    6464.6286    6464.6756     133.1759         32     161.1413       0.1425    5731.1235    5731.2661    5727.9325    5728.3832       0.4506
     244.0    5065.9779 1566781.0000    3978.0146     132.8540     133.5260       0.0479    6464.5528    6464.6009     133.1774         32     162.1413       0.1325    5731.0070    5731.1394    5727.9014    5728.3850       0.4835
     245.0    5076.8697 1566781.0000    3978.0146     132.8543     133.5287       0.0452    6464.4595    6464.5046     133.1789         32     163.1413       0.1224    5730.9568    5731.0790    5727.8820    5728.3918       0.5098
     246.0    5058.8388 1566781.0000    3978.0146     132.8592     133.5281       0.0420    6464.5457    6464.5876     133.1804         32     164.1413       0.1128    5731.1174    5731.2303    5727.8623    5728.3928       0.5304
     247.0    4990.1523 1566781.0000    3978.0146     132.8604     133.5306       0.0402    6464.6309    6464.6712     133.1823         32     165.1413       0.1057    5731.0769    5731.1826    5727.8455    5728.3920       0.5466
     248.0    4979.4900 1566781.0000    3978.0146     132.8625     133.5303       0.0392    6464.5297    6464.5689     133.1843         32     166.1413       0.1002    5731.1287    5731.2287    5727.8340    5728.3929       0.5587
     249.0    4948.1192 1566781.0000    3978.0146     132.8630     133.5303       0.0387    6464.5781    6464.6167     133.1857         32     167.1413       0.0951    5730.9896    5731.0846    5727.8274    5728.3951       0.5676
     250.0    4964.2495 1566781.0000    3978.0146     132.8649     133.5302       0.0400    6464.7480    6464.7881     133.1874         32     168.1413       0.0908    5731.0995    5731.1903    5727.8154    5728.3890       0.5737
     251.0    4992.9007 1566781.0000    3978.0146     132.8668     133.5325       0.0437    6464.7164    6464.7601     133.1892         32     169.1413       0.0883    5731.0379    5731.1263    5727.8117    5728.3897       0.5777
     252.0    5043.6093 1566781.0000    3978.0146     132.8692     133.5319       0.0473    6464.7008    6464.7482     133.1907         32     170.1413       0.0871    5731.1540    5731.2409    5727.8063    5728.3869       0.5805
     253.0    5029.6402 1566781.0000    3978.0146     132.8702     133.5354       0.0487    6464.6360    6464.6848     133.1928         32     171.1413       0.0853    5731.0276    5731.1131    5727.7978    5728.3803       0.5825
     254.0    5068.7285 1566781.0000    3978.0146     132.8714     133.5340       0.0475    6464.4983    6464.5457     133.1945         32     172.1413       0.0814    5731.0622    5731.1435    5727.7953    5728.3788       0.5837
     255.0    5055.6313 1566781.0000    3978.0146     132.8724     133.5371       0.0443    6464.4700    6464.5143     133.1964         32     173.1413       0.0757    5731.0792    5731.1547    5727.7961    5728.3795       0.5834
     256.0    5013.1103 1566781.0000    3978.0146     132.8753     133.5367       0.0400    6464.5757    6464.6155     133.1980         32     174.1413       0.0702    5731.1648    5731.2350    5727.7909    5728.3727       0.5819
