~VERSION INFORMATION
VERS.           2.0   :CWLS Log ASCII Standard - VERSION 2.0
WRAP.           NO    :One Line per depth step
PROD.  Schlumberger   :LAS Producer
PROG.  DLIS to ASCII 2.2                               :LAS Program name and version
CREA.        2020/10/30 12:18                          :LAS Creation date {YYYY/MM/DD hh:mm}
SOURCE.     XPT_HRLA_TLD_MCFL_057LTP.DLIS              :DLIS File Name
FILE-ID.     XPT_HRLA_TLD_MCFL_057LTP                  :File Identification Number
#--------------------------------------------------
~WELL INFORMATION
#MNEM.UNIT      DATA             DESCRIPTION
#---- ------ --------------   -----------------------------
STRT .S         6912.0       :START TIME      
STOP .S         7441.0       :STOP TIME      
STEP .S            1.0       :STEP     
NULL .          -999.25      :NULL VALUE
COMP .        Nexus Energy                             :COMPANY
WELL .        Crux-3                                   :WELL
FLD  .        Crux                                     :FIELD
LOC  .        Easting: 656981.7mE                      :LOCATION
CNTY .        Sedco-703                                :COUNTY
STAT .        Northern Territory                       :STATE
CTRY .        Australia                                :COUNTRY
API  .                                                 :API NUMBER
UWI  .                                                 :UNIQUE WELL ID
DATE .        31-Dec-2007                              :LOG DATE {DD-MMM-YYYY}
SRVC .        Schlumberger                             :SERVICE COMPANY
LATI .DEG     12*57'32.63" S                           :LATITUDE
LONG .DEG     124*26'50.07" E                          :LONGITUDE
GDAT .                                                 :GeoDetic Datum
#-----------------------------------------------------------------------------
~PARAMETER INFORMATION
#MNEM.UNIT    VALUE                      DESCRIPTION
#---- -----   --------------------       ------------------------
RUN  .          1                        :RUN NUMBER
PDAT .        LAT                        :Permanent Datum
EPD  .M           0.000000               :Elevation of Permanent Datum above Mean Sea Level
EPD  .M           0.000000               :Elevation of tool zero above Mean Sea Level
LMF  .          DF                       :Logging Measured From (Name of Logging Elevation Reference)
APD  .M          26.400000               :Elevation of Depth Reference (LMF) above Permanent Datum
#-----------------------------------------------------------------------------
~CURVE INFORMATION
#MNEM.UNIT   API CODE                                  DESCRIPTION
#---- -----  --------                                  -----------------------
TIME .S                                                :TIME {F10.1}
TENS_SL.LBF                                            :Cable Tension {F13.4}
DEPT_SL..1IN                                           :Station logging depth {F13.4}
PDEP_XPT.M                                             :XPT Probe Depth {F13.4}
MTEP_SAP.DEGC                                          :Sapphire Gauge Manometer Temperature {F13.4}
MTEP_HYD.DEGC                                          :Hydrostatic Sapphire Gauge Manometer Temperature {F13.4}
PCO_HYD.PSI                                            :Hydrostatic Sapphire Dynamic Compensation {F13.4}
PND_HYD.PSI                                            :Hydrostatic Sapphire Pressure Without Dynamic Compensation {F13.4}
CP_HYD.PSI                                             :Hydrostatic Sapphire Pressure With Dynamic Compensation {F13.4}
MTEP_QG.DEGC                                           :CQG Manometer Temperature {F13.4}
PTNO_XPT.                                              :XPT Pretest Number {I11}
ETIM_XPT.S                                             :Elapsed Logging Time {F13.4}
PCO_SAP.PSI                                            :Sapphire Dynamic Compensation {F13.4}
PND_SAP.PSI                                            :Sapphire Pressure Without Dynamic Compensation {F13.4}
CP_SAP.PSI                                             :Sapphire Pressure With Dynamic Compensation {F13.4}
QNDP .PSI                                              :CQG Pressure Without Dynamic Compensation {F13.4}
QCP  .PSI                                              :CQG Pressure With Dynamic Compensation {F13.4}
QPCO .PSI                                              :CQG Dynamic Compensation {F13.4}
#-----------------------------------------------------------------------------
# 
#     TIME      TENS_SL      DEPT_SL      PDEP_XPT     MTEP_SAP     MTEP_HYD     PCO_HYD      PND_HYD       CP_HYD      MTEP_QG       PTNO_XPT       ETIM_XPT     PCO_SAP      PND_SAP       CP_SAP        QNDP         QCP          QPCO
#
~A  
# ...
    6947.0    4890.5065 1526236.0000    3875.0305     129.4046     129.8881      -0.0559    6300.8634    6300.8074     130.1216         18      35.0105      -0.0584    6298.3901    6298.3317    6296.6473    6296.4388      -0.2084
    6948.0    4843.8110 1526236.0000    3875.0305     129.4039     129.8875      -0.0568    6300.9153    6300.8586     130.1210         18      36.0105      -0.0582    6298.2907    6298.2326    6296.5939    6296.3854      -0.2084
    6949.0    4826.9660 1526236.0000    3875.0305     129.4024     129.8853      -0.0563    6300.8009    6300.7444     130.1203         18      37.0105      -0.0569    6298.2858    6298.2289    6296.5362    6296.3277      -0.2087
    6950.0    4919.2495 1526236.0000    3875.0305     129.3999     129.8858      -0.0542    6300.7370    6300.6827     130.1195         18      38.0105      -0.0555    6298.2168    6298.1615    6296.5329    6296.3239      -0.2090
    6951.0    5036.7375 1526236.0000    3875.0305     129.3995     129.8834      -0.0519    6300.8078    6300.7561     130.1189         18      39.0105      -0.0544    6298.2725    6298.2178    6296.5488    6296.3398      -0.2088
    6952.0    5011.9475 1526236.0000    3875.0305     129.3976     129.8825      -0.0512    6300.7026    6300.6513     130.1184         18      40.0105      -0.0533    6298.1728    6298.1196    6296.4848    6296.2763      -0.2085
    6953.0    5006.6220 1526236.0000    3875.0305     129.3955     129.8824      -0.0517    6300.5799    6300.5281     130.1179         18      41.0105      -0.0527    6297.8883    6297.8356    6296.2692    6296.0609      -0.2083
    6954.0    4971.1050 1526236.0000    3875.0305     129.3969     129.8815      -0.0514    6300.5504    6300.4992     130.1171         18      42.0105      -0.0519    6298.1603    6298.1085    6296.4475    6296.2390      -0.2085
    6955.0    4979.9395 1526236.0000    3875.0305     129.3961     129.8814      -0.0507    6300.6904    6300.6396     130.1166         18      43.0105      -0.0513    6298.2519    6298.2007    6296.5196    6296.3111      -0.2084
    6956.0    4880.4410 1526236.0000    3875.0305     129.3950     129.8783      -0.0509    6300.7138    6300.6630     130.1158         18      44.0105      -0.0515    6298.2750    6298.2234    6296.5166    6296.3077      -0.2086
    6957.0    4921.4960 1526236.0000    3875.0305     129.3925     129.8784      -0.0512    6300.8179    6300.7666     130.1154         18      45.0105      -0.0529    6298.2920    6298.2393    6296.5471    6296.3381      -0.2090
    6958.0    4873.9370 1526236.0000    3875.0305     129.3926     129.8779      -0.0499    6300.8634    6300.8133     130.1146         18      46.0105      -0.0541    6298.4533    6298.3991    6296.7503    6296.5409      -0.2094
    6959.0    4868.0840 1526236.0000    3875.0305     129.3916     129.8766      -0.0485    6301.0216    6300.9731     130.1139         18      47.0105      -0.0543    6298.3858    6298.3316    6296.7125    6296.5027      -0.2097
    6960.0    4877.1235 1526236.0000    3875.0305     129.3908     129.8754      -0.0484    6300.7852    6300.7368     130.1129         18      48.0105      -0.0551    6298.2502    6298.1950    6296.6194    6296.4100      -0.2096
    6961.0    4982.9685 1526236.0000    3875.0305     129.3891     129.8751      -0.0485    6300.8613    6300.8129     130.1126         18      49.0105      -0.0572    6298.2882    6298.2309    6296.6010    6296.3922      -0.2090
    6962.0    4980.3885 1526236.0000    3875.0305     129.3890     129.8741      -0.0476    6300.8831    6300.8356     130.1118         18      50.0105      -0.0594    6298.2517    6298.1923    6296.6017    6296.3935      -0.2082
    6963.0    5017.0315 1526236.0000    3875.0305     129.3883     129.8731      -0.0470    6300.6404    6300.5935     130.1113         18      51.0105      -0.0597    6298.2207    6298.1611    6296.4894    6296.2818      -0.2075
    6964.0    5019.6535 1526236.0000    3875.0305     129.3871     129.8716      -0.0479    6300.6495    6300.6015     130.1107         18      52.0105      -0.0584    6298.1475    6298.0891    6296.4590    6296.2519      -0.2071
    6965.0    4985.8975 1526236.0000    3875.0305     129.3856     129.8722      -0.0494    6300.7422    6300.6929     130.1098         18      53.0105      -0.0572    6298.1754    6298.1181    6296.5165    6296.3095      -0.2070
    6966.0    4882.1680 1526236.0000    3875.0305     129.3838     129.8708      -0.0504    6300.7955    6300.7452     130.1092         18      54.0105      -0.0566    6298.2979    6298.2413    6296.5582    6296.3512      -0.2070
    6967.0    4897.7585 1526236.0000    3875.0305     129.3846     129.8685      -0.0516    6300.7720    6300.7205     130.1087         18      55.0105      -0.0559    6298.2165    6298.1606    6296.5801    6296.3725      -0.2075
    6968.0    4874.8425 1526236.0000    3875.0305     129.3816     129.8693      -0.0530    6300.9434    6300.8903     130.1080         18      56.0105      -0.0551    6298.3413    6298.2861    6296.7058    6296.4973      -0.2083
    6969.0    4860.2835 1526236.0000    3875.0305     129.3812     129.8655      -0.0533    6300.9189    6300.8656     130.1073         18      57.0105      -0.0548    6298.4307    6298.3760    6296.6748    6296.4649      -0.2100
    6970.0    4888.1865 1526236.0000    3875.0305     129.3803     129.8670      -0.0522    6300.8765    6300.8244     130.1068         18      58.0105      -0.0552    6298.3359    6298.2807    6296.6463    6296.4352      -0.2111
    6971.0    4999.8740 1526236.0000    3875.0305     129.3795     129.8663      -0.0515    6300.8682    6300.8166     130.1062         18      59.0105      -0.0551    6298.2846    6298.2294    6296.5621    6296.3507      -0.2115
    6972.0    4988.1995 1526236.0000    3875.0305     129.3777     129.8654      -0.0526    6300.7990    6300.7462     130.1053         18      60.0105      -0.0529    6298.2403    6298.1876    6296.5749    6296.3630      -0.2117
    6973.0    5007.0210 1526236.0000    3875.0305     129.3779     129.8652      -0.0548    6300.6757    6300.6209     130.1047         18      61.0105      -0.0492    6298.1097    6298.0604    6296.4276    6296.2152      -0.2123
    6974.0    5008.4645 1526236.0000    3875.0305     129.3759     129.8637      -0.0563    6300.5993    6300.5432     130.1043         18      62.0105      -0.0476    6298.1376    6298.0901    6296.4459    6296.2335      -0.2125
    6975.0    4957.0445 1526236.0000    3875.0305     129.3750     129.8624      -0.0570    6300.7062    6300.6490     130.1033         18      63.0105      -0.0490    6298.2502    6298.2014    6296.4970    6296.2852      -0.2118
    6976.0    4867.2835 1526236.0000    3875.0305     129.3747     129.8609      -0.0572    6300.7505    6300.6934     130.1028         18      64.0105      -0.0521    6298.1825    6298.1303    6296.5581    6296.3472      -0.2111
    6977.0    4893.8110 1526236.0000    3875.0305     129.3759     129.8591      -0.0561    6300.7918    6300.7359     130.1020         18      65.0105      -0.0552    6298.3237    6298.2684    6296.5768    6296.3626      -0.2141
    6978.0    4875.7165 1526236.0000    3875.0305     129.3746     129.8591      -0.0531    6300.9124    6300.8592     130.1015         18      66.0105      -0.0611    6298.3511    6298.2899    6296.6816    6296.4548      -0.2269
    6979.0    4849.7035 1526236.0000    3875.0305     129.3714     129.8579      -0.0490    6300.9154    6300.8664     130.1009         18      67.0105      -0.0748    6298.3211    6298.2464    6296.6433    6296.3897      -0.2537
    6980.0    4917.1235 1526236.0000    3875.0305     129.3710     129.8574      -0.0453    6300.8758    6300.8306     130.1002         18      68.0105      -0.0935    6298.3841    6298.2906    6296.6171    6296.3270      -0.2901
    6981.0    5022.8635 1526236.0000    3875.0305     129.3704     129.8555      -0.0439    6300.7533    6300.7094     130.0996         18      69.0105      -0.1096    6298.2503    6298.1408    6296.5455    6296.2190      -0.3266
