~VERSION INFORMATION
VERS.           2.0   :CWLS Log ASCII Standard - VERSION 2.0
WRAP.           NO    :One Line per depth step
PROD.  Schlumberger   :LAS Producer
PROG.  DLIS to ASCII 2.2                               :LAS Program name and version
CREA.        2020/10/30 12:18                          :LAS Creation date {YYYY/MM/DD hh:mm}
SOURCE.     XPT_HRLA_TLD_MCFL_058LTP.DLIS              :DLIS File Name
FILE-ID.     XPT_HRLA_TLD_MCFL_058LTP                  :File Identification Number
#--------------------------------------------------
~WELL INFORMATION
#MNEM.UNIT      DATA             DESCRIPTION
#---- ------ --------------   -----------------------------
STRT .S         7904.0       :START TIME      
STOP .S         8100.0       :STOP TIME      
STEP .S            1.0       :STEP     
NULL .          -999.25      :NULL VALUE
COMP .        Nexus Energy                             :COMPANY
WELL .        Crux-3                                   :WELL
FLD  .        Crux                                     :FIELD
LOC  .        Easting: 656981.7mE                      :LOCATION
CNTY .        Sedco-703                                :COUNTY
STAT .        Northern Territory                       :STATE
CTRY .        Australia                                :COUNTRY
API  .                                                 :API NUMBER
UWI  .                                                 :UNIQUE WELL ID
DATE .        31-Dec-2007                              :LOG DATE {DD-MMM-YYYY}
SRVC .        Schlumberger                             :SERVICE COMPANY
LATI .DEG     12*57'32.63" S                           :LATITUDE
LONG .DEG     124*26'50.07" E                          :LONGITUDE
GDAT .                                                 :GeoDetic Datum
#-----------------------------------------------------------------------------
~PARAMETER INFORMATION
#MNEM.UNIT    VALUE                      DESCRIPTION
#---- -----   --------------------       ------------------------
RUN  .          1                        :RUN NUMBER
PDAT .        LAT                        :Permanent Datum
EPD  .M           0.000000               :Elevation of Permanent Datum above Mean Sea Level
EPD  .M           0.000000               :Elevation of tool zero above Mean Sea Level
LMF  .          DF                       :Logging Measured From (Name of Logging Elevation Reference)
APD  .M          26.400000               :Elevation of Depth Reference (LMF) above Permanent Datum
#-----------------------------------------------------------------------------
~CURVE INFORMATION
#MNEM.UNIT   API CODE                                  DESCRIPTION
#---- -----  --------                                  -----------------------
TIME .S                                                :TIME {F10.1}
TENS_SL.LBF                                            :Cable Tension {F13.4}
DEPT_SL..1IN                                           :Station logging depth {F13.4}
PDEP_XPT.M                                             :XPT Probe Depth {F13.4}
MTEP_SAP.DEGC                                          :Sapphire Gauge Manometer Temperature {F13.4}
MTEP_HYD.DEGC                                          :Hydrostatic Sapphire Gauge Manometer Temperature {F13.4}
PCO_HYD.PSI                                            :Hydrostatic Sapphire Dynamic Compensation {F13.4}
PND_HYD.PSI                                            :Hydrostatic Sapphire Pressure Without Dynamic Compensation {F13.4}
CP_HYD.PSI                                             :Hydrostatic Sapphire Pressure With Dynamic Compensation {F13.4}
MTEP_QG.DEGC                                           :CQG Manometer Temperature {F13.4}
PTNO_XPT.                                              :XPT Pretest Number {I11}
ETIM_XPT.S                                             :Elapsed Logging Time {F13.4}
PCO_SAP.PSI                                            :Sapphire Dynamic Compensation {F13.4}
PND_SAP.PSI                                            :Sapphire Pressure Without Dynamic Compensation {F13.4}
CP_SAP.PSI                                             :Sapphire Pressure With Dynamic Compensation {F13.4}
QNDP .PSI                                              :CQG Pressure Without Dynamic Compensation {F13.4}
QCP  .PSI                                              :CQG Pressure With Dynamic Compensation {F13.4}
QPCO .PSI                                              :CQG Dynamic Compensation {F13.4}
#-----------------------------------------------------------------------------
# 
#     TIME      TENS_SL      DEPT_SL      PDEP_XPT     MTEP_SAP     MTEP_HYD     PCO_HYD      PND_HYD       CP_HYD      MTEP_QG       PTNO_XPT       ETIM_XPT     PCO_SAP      PND_SAP       CP_SAP        QNDP         QCP          QPCO
#
~A  
# ...
    8079.0    5082.3040 1534486.0000    3895.9854     128.8767     129.4196       0.0078    6334.3117    6334.3194     129.5756         22     174.5435       0.0024    6331.8409    6331.8434    6329.6975    6329.6576      -0.0401
    8080.0    5083.6960 1534486.0000    3895.9854     128.8764     129.4173       0.0079    6334.2350    6334.2428     129.5756         22     175.5435      -0.0001    6331.7984    6331.7984    6329.6853    6329.6438      -0.0413
    8081.0    5077.4125 1534486.0000    3895.9854     128.8751     129.4189       0.0077    6334.3404    6334.3482     129.5752         22     176.5435      -0.0011    6331.8361    6331.8351    6329.7828    6329.7408      -0.0420
    8082.0    5005.1280 1534486.0000    3895.9854     128.8767     129.4196       0.0105    6334.4324    6334.4428     129.5751         22     177.5435      -0.0005    6331.9747    6331.9741    6329.8464    6329.8039      -0.0426
    8083.0    4955.6305 1534486.0000    3895.9854     128.8752     129.4197       0.0140    6334.3804    6334.3946     129.5751         22     178.5435      -0.0002    6331.9749    6331.9748    6329.8387    6329.7957      -0.0431
    8084.0    4952.6520 1534486.0000    3895.9854     128.8746     129.4189       0.0139    6334.4932    6334.5071     129.5749         22     179.5435      -0.0014    6332.1032    6332.1017    6329.9662    6329.9225      -0.0437
    8085.0    4909.8680 1534486.0000    3895.9854     128.8762     129.4203       0.0116    6334.5687    6334.5806     129.5748         22     180.5435      -0.0022    6332.1885    6332.1866    6330.0249    6329.9804      -0.0446
    8086.0    4879.1740 1534486.0000    3895.9854     128.8760     129.4197       0.0120    6334.5622    6334.5740     129.5748         22     181.5435      -0.0017    6332.0562    6332.0544    6329.9664    6329.9214      -0.0451
    8087.0    4936.4370 1534486.0000    3895.9854     128.8759     129.4216       0.0148    6334.5825    6334.5973     129.5746         22     182.5435      -0.0012    6331.9492    6331.9478    6329.8233    6329.7779      -0.0453
    8088.0    5037.8935 1534486.0000    3895.9854     128.8763     129.4191       0.0152    6334.5553    6334.5705     129.5744         22     183.5435      -0.0004    6332.1349    6332.1345    6329.9652    6329.9198      -0.0453
    8089.0    5067.6950 1534486.0000    3895.9854     128.8779     129.4204       0.0119    6334.5605    6334.5725     129.5742         22     184.5435       0.0024    6332.0697    6332.0723    6329.9343    6329.8894      -0.0451
    8090.0    5073.0225 1534486.0000    3895.9854     128.8747     129.4225       0.0089    6334.3512    6334.3602     129.5740         22     185.5435       0.0070    6331.8150    6331.8221    6329.7477    6329.7030      -0.0445
    8091.0    5097.6960 1534486.0000    3895.9854     128.8752     129.4224       0.0077    6334.2955    6334.3033     129.5739         22     186.5435       0.0106    6331.7358    6331.7464    6329.6953    6329.6518      -0.0435
    8092.0    5067.4985 1534486.0000    3895.9854     128.8772     129.4210       0.0064    6334.3516    6334.3579     129.5738         22     187.5435       0.0116    6331.9769    6331.9886    6329.8405    6329.7975      -0.0429
    8093.0    4971.8670 1534486.0000    3895.9854     128.8766     129.4212       0.0051    6334.4115    6334.4163     129.5738         22     188.5435       0.0106    6332.0156    6332.0261    6329.8847    6329.8417      -0.0428
    8094.0    4935.3920 1534486.0000    3895.9854     128.8777     129.4212       0.0061    6334.4413    6334.4474     129.5735         22     189.5435       0.0076    6332.0345    6332.0420    6329.8920    6329.8490      -0.0428
    8095.0    4971.7400 1534486.0000    3895.9854     128.8777     129.4217       0.0062    6334.5928    6334.4438     129.5734         22     190.5435       0.0074    6332.2652    6332.0225    6330.0603    6329.8447      -0.0428
    8096.0    4941.6285 1534486.0000    3895.9854     128.8768     129.4220       0.0062    6334.6470    6334.4438     129.5734         22     191.5435       0.0074    6332.2585    6332.0225    6330.0781    6329.8447      -0.0428
    8097.0    4944.4800 1534486.0000    3895.9854     128.8770     129.4219       0.0062    6334.6136    6334.4438     129.5733         22     192.5435       0.0074    6332.0828    6332.0225    6329.9932    6329.8447      -0.0428
    8098.0    5037.5240 1534486.0000    3895.9854     128.8758     129.4234       0.0062    6334.5238    6334.4438     129.5733         22     193.5435       0.0074    6332.0929    6332.0225    6330.0002    6329.8447      -0.0428
    8099.0    5065.9775 1534486.0000    3895.9854     128.8771     129.4219       0.0062    6334.4966    6334.4438     129.5729         22     194.5435       0.0074    6332.0807    6332.0225    6330.0150    6329.8447      -0.0428
    8100.0    5059.7830 1534486.0000    3895.9854     128.8767     129.4235       0.0062    6334.4165    6334.4438     129.5728         22     195.5435       0.0074    6332.0120    6332.0225    6329.8981    6329.8447      -0.0428
