~VERSION INFORMATION
VERS.           2.0   :CWLS Log ASCII Standard - VERSION 2.0
WRAP.           NO    :One Line per depth step
PROD.  Schlumberger   :LAS Producer
PROG.  DLIS to ASCII 2.2                               :LAS Program name and version
CREA.        2020/10/30 12:18                          :LAS Creation date {YYYY/MM/DD hh:mm}
SOURCE.     XPT_HRLA_TLD_MCFL_051LTP.DLIS              :DLIS File Name
FILE-ID.     XPT_HRLA_TLD_MCFL_051LTP                  :File Identification Number
#--------------------------------------------------
~WELL INFORMATION
#MNEM.UNIT      DATA             DESCRIPTION
#---- ------ --------------   -----------------------------
STRT .S         3209.0       :START TIME      
STOP .S         3664.0       :STOP TIME      
STEP .S            1.0       :STEP     
NULL .          -999.25      :NULL VALUE
COMP .        Nexus Energy                             :COMPANY
WELL .        Crux-3                                   :WELL
FLD  .        Crux                                     :FIELD
LOC  .        Easting: 656981.7mE                      :LOCATION
CNTY .        Sedco-703                                :COUNTY
STAT .        Northern Territory                       :STATE
CTRY .        Australia                                :COUNTRY
API  .                                                 :API NUMBER
UWI  .                                                 :UNIQUE WELL ID
DATE .        31-Dec-2007                              :LOG DATE {DD-MMM-YYYY}
SRVC .        Schlumberger                             :SERVICE COMPANY
LATI .DEG     12*57'32.63" S                           :LATITUDE
LONG .DEG     124*26'50.07" E                          :LONGITUDE
GDAT .                                                 :GeoDetic Datum
#-----------------------------------------------------------------------------
~PARAMETER INFORMATION
#MNEM.UNIT    VALUE                      DESCRIPTION
#---- -----   --------------------       ------------------------
RUN  .          1                        :RUN NUMBER
PDAT .        LAT                        :Permanent Datum
EPD  .M           0.000000               :Elevation of Permanent Datum above Mean Sea Level
EPD  .M           0.000000               :Elevation of tool zero above Mean Sea Level
LMF  .          DF                       :Logging Measured From (Name of Logging Elevation Reference)
APD  .M          26.400000               :Elevation of Depth Reference (LMF) above Permanent Datum
#-----------------------------------------------------------------------------
~CURVE INFORMATION
#MNEM.UNIT   API CODE                                  DESCRIPTION
#---- -----  --------                                  -----------------------
TIME .S                                                :TIME {F10.1}
TENS_SL.LBF                                            :Cable Tension {F13.4}
DEPT_SL..1IN                                           :Station logging depth {F13.4}
PDEP_XPT.M                                             :XPT Probe Depth {F13.4}
MTEP_SAP.DEGC                                          :Sapphire Gauge Manometer Temperature {F13.4}
MTEP_HYD.DEGC                                          :Hydrostatic Sapphire Gauge Manometer Temperature {F13.4}
PCO_HYD.PSI                                            :Hydrostatic Sapphire Dynamic Compensation {F13.4}
PND_HYD.PSI                                            :Hydrostatic Sapphire Pressure Without Dynamic Compensation {F13.4}
CP_HYD.PSI                                             :Hydrostatic Sapphire Pressure With Dynamic Compensation {F13.4}
MTEP_QG.DEGC                                           :CQG Manometer Temperature {F13.4}
PTNO_XPT.                                              :XPT Pretest Number {I11}
ETIM_XPT.S                                             :Elapsed Logging Time {F13.4}
PCO_SAP.PSI                                            :Sapphire Dynamic Compensation {F13.4}
PND_SAP.PSI                                            :Sapphire Pressure Without Dynamic Compensation {F13.4}
CP_SAP.PSI                                             :Sapphire Pressure With Dynamic Compensation {F13.4}
QNDP .PSI                                              :CQG Pressure Without Dynamic Compensation {F13.4}
QCP  .PSI                                              :CQG Pressure With Dynamic Compensation {F13.4}
QPCO .PSI                                              :CQG Dynamic Compensation {F13.4}
#-----------------------------------------------------------------------------
# 
#     TIME      TENS_SL      DEPT_SL      PDEP_XPT     MTEP_SAP     MTEP_HYD     PCO_HYD      PND_HYD       CP_HYD      MTEP_QG       PTNO_XPT       ETIM_XPT     PCO_SAP      PND_SAP       CP_SAP        QNDP         QCP          QPCO
#
~A  
# ...
    3629.0    4943.5120 1496497.0000    3799.4934     125.3282     125.8771       0.0183    6181.4076    6181.4258     125.7028         16     420.0840      -0.2140    6180.2907    6180.0768    6176.5557    6177.3444       0.7886
    3630.0    4955.8000 1496497.0000    3799.4934     125.3251     125.8773       0.0200    6181.3337    6181.3536     125.7049         16     421.0840      -0.1915    6180.2143    6180.0229    6176.6068    6177.2864       0.6795
    3631.0    4908.1520 1496497.0000    3799.4934     125.3213     125.8794       0.0224    6181.4739    6181.4963     125.7072         16     422.0840      -0.1706    6180.0098    6179.8391    6176.6546    6177.2371       0.5825
    3632.0    4887.6640 1496497.0000    3799.4934     125.3203     125.8796       0.0254    6181.3700    6181.3955     125.7085         16     423.0840      -0.1503    6180.0626    6179.9123    6176.7350    6177.2323       0.4974
    3633.0    4892.9880 1496497.0000    3799.4934     125.3161     125.8799       0.0266    6181.4813    6181.5078     125.7101         16     424.0840      -0.1305    6179.8618    6179.7314    6176.8025    6177.2252       0.4227
    3634.0    4994.2760 1496497.0000    3799.4934     125.3148     125.8809       0.0251    6181.4345    6181.4594     125.7114         16     425.0840      -0.1125    6179.8027    6179.6902    6176.7998    6177.1578       0.3581
    3635.0    5031.6800 1496497.0000    3799.4934     125.3109     125.8816       0.0236    6181.3850    6181.4084     125.7120         16     426.0840      -0.0969    6179.8144    6179.7175    6176.8451    6177.1475       0.3025
    3636.0    5049.2440 1496497.0000    3799.4934     125.3106     125.8809       0.0240    6181.4326    6181.4565     125.7130         16     427.0840      -0.0843    6179.7438    6179.6595    6176.7915    6177.0465       0.2549
    3637.0    5037.6400 1496497.0000    3799.4934     125.3076     125.8810       0.0248    6181.3128    6181.3377     125.7135         16     428.0840      -0.0738    6179.5550    6179.4811    6176.7675    6176.9815       0.2141
    3638.0    4997.6400 1496497.0000    3799.4934     125.3089     125.8832       0.0247    6181.2881    6181.3128     125.7145         16     429.0840      -0.0652    6179.7007    6179.6355    6176.8354    6177.0154       0.1801
    3639.0    4955.6240 1496497.0000    3799.4934     125.3063     125.8825       0.0241    6181.3472    6181.3713     125.7148         16     430.0840      -0.0570    6179.5683    6179.5112    6176.9098    6177.0615       0.1517
    3640.0    4901.7040 1496497.0000    3799.4934     125.3056     125.8847       0.0236    6181.4717    6181.4951     125.7156         16     431.0840      -0.0484    6179.6578    6179.6093    6176.9166    6177.0449       0.1282
    3641.0    4954.1760 1496497.0000    3799.4934     125.3053     125.8840       0.0225    6181.4161    6181.4385     125.7156         16     432.0840      -0.0401    6179.7361    6179.6961    6177.0004    6177.1097       0.1091
    3642.0    4965.2360 1496497.0000    3799.4934     125.3036     125.8829       0.0203    6181.5139    6181.5341     125.7159         16     433.0840      -0.0332    6179.7833    6179.7501    6177.0856    6177.1794       0.0939
    3643.0    4943.3120 1496497.0000    3799.4934     125.3040     125.8843       0.0191    6181.5594    6181.5784     125.7160         16     434.0840      -0.0273    6179.7243    6179.6969    6177.0423    6177.1240       0.0818
    3644.0    4912.9080 1496497.0000    3799.4934     125.3031     125.8844       0.0202    6181.5560    6181.5761     125.7164         16     435.0840      -0.0208    6179.7359    6179.7150    6177.0748    6177.1470       0.0723
    3645.0    4901.5040 1496497.0000    3799.4934     125.3035     125.8858       0.0216    6181.5260    6181.5474     125.7167         16     436.0840      -0.0145    6179.7501    6179.7357    6177.0285    6177.0932       0.0649
    3646.0    4907.3360 1496497.0000    3799.4934     125.3037     125.8847       0.0213    6181.4413    6181.4628     125.7167         16     437.0840      -0.0108    6179.8560    6179.8452    6177.0601    6177.1188       0.0587
    3647.0    4914.3600 1496497.0000    3799.4934     125.3024     125.8859       0.0208    6181.5028    6181.5234     125.7170         16     438.0840      -0.0097    6179.7669    6179.7572    6177.0466    6177.1005       0.0540
    3648.0    4956.7960 1496497.0000    3799.4934     125.3034     125.8867       0.0223    6181.3975    6181.4197     125.7171         16     439.0840      -0.0092    6179.7810    6179.7717    6177.0193    6177.0695       0.0503
    3649.0    5021.1760 1496497.0000    3799.4934     125.3040     125.8862       0.0249    6181.4256    6181.4505     125.7174         16     440.0840      -0.0078    6179.8051    6179.7973    6176.9949    6177.0428       0.0480
    3650.0    5029.8840 1496497.0000    3799.4934     125.3031     125.8868       0.0255    6181.4353    6181.4607     125.7174         16     441.0840      -0.0070    6179.6227    6179.6158    6176.9918    6177.0382       0.0464
    3651.0    4986.0080 1496497.0000    3799.4934     125.3021     125.8879       0.0239    6181.3641    6181.3879     125.7176         16     442.0840      -0.0074    6179.6053    6179.5980    6176.9362    6176.9821       0.0461
    3652.0    4999.7720 1496497.0000    3799.4934     125.3017     125.8878       0.0220    6181.3857    6181.4077     125.7174         16     443.0840      -0.0063    6179.5475    6179.5411    6176.8992    6176.9460       0.0469
    3653.0    5025.8000 1496497.0000    3799.4934     125.3023     125.8898       0.0208    6181.4237    6181.4445     125.7177         16     444.0840      -0.0018    6179.5839    6179.5820    6176.9576    6177.0062       0.0487
    3654.0    4976.0520 1496497.0000    3799.4934     125.3023     125.8890       0.0188    6181.5072    6181.5262     125.7178         16     445.0840       0.0036    6179.6739    6179.6775    6176.9815    6177.0324       0.0508
    3655.0    4930.5640 1496497.0000    3799.4934     125.3016     125.8885       0.0149    6181.4315    6181.4462     125.7180         16     446.0840       0.0064    6179.7423    6179.7486    6176.9883    6177.0410       0.0528
    3656.0    4906.1000 1496497.0000    3799.4934     125.3012     125.8890       0.0117    6181.5192    6181.5307     125.7182         16     447.0840       0.0066    6179.6675    6179.6743    6177.0121    6177.0666       0.0546
    3657.0    4927.1520 1496497.0000    3799.4934     125.3042     125.8899       0.0121    6181.5651    6181.5771     125.7184         16     448.0840       0.0065    6179.7705    6179.7768    6177.0808    6177.1372       0.0563
    3658.0    4905.9920 1496497.0000    3799.4934     125.3028     125.8894       0.0155    6181.5265    6181.5421     125.7185         16     449.0840       0.0069    6179.8347    6179.8415    6177.0607    6177.1188       0.0581
    3659.0    4896.6800 1496497.0000    3799.4934     125.3023     125.8885       0.0187    6181.4536    6181.4723     125.7188         16     450.0840       0.0063    6179.6520    6179.6582    6176.9944    6177.0541       0.0597
    3660.0    4920.2920 1496497.0000    3799.4934     125.3031     125.8897       0.0193    6181.4783    6181.4727     125.7190         16     451.0840       0.0060    6179.7529    6179.6719    6177.0270    6177.0640       0.0600
    3661.0    4982.9560 1496497.0000    3799.4934     125.3020     125.8900       0.0193    6181.4693    6181.4727     125.7193         16     452.0840       0.0060    6179.6146    6179.6719    6176.9897    6177.0640       0.0600
    3662.0    5036.8320 1496497.0000    3799.4934     125.3040     125.8923       0.0193    6181.4941    6181.4727     125.7194         16     453.0840       0.0060    6179.6691    6179.6719    6176.9638    6177.0640       0.0600
    3663.0    5033.4040 1496497.0000    3799.4934     125.3036     125.8916       0.0193    6181.4263    6181.4727     125.7197         16     454.0840       0.0060    6179.4704    6179.6719    6176.8792    6177.0640       0.0600
