~VERSION INFORMATION
VERS.           2.0   :CWLS Log ASCII Standard - VERSION 2.0
WRAP.           NO    :One Line per depth step
PROD.  Schlumberger   :LAS Producer
PROG.  DLIS to ASCII 2.2                               :LAS Program name and version
CREA.        2020/10/30 12:18                          :LAS Creation date {YYYY/MM/DD hh:mm}
SOURCE.     XPT_HRLA_TLD_MCFL_040LTP.DLIS              :DLIS File Name
FILE-ID.     XPT_HRLA_TLD_MCFL_040LTP                  :File Identification Number
#--------------------------------------------------
~WELL INFORMATION
#MNEM.UNIT      DATA             DESCRIPTION
#---- ------ --------------   -----------------------------
STRT .S          916.0       :START TIME      
STOP .S         1395.0       :STOP TIME      
STEP .S            1.0       :STEP     
NULL .          -999.25      :NULL VALUE
COMP .        Nexus Energy                             :COMPANY
WELL .        Crux-3                                   :WELL
FLD  .        Crux                                     :FIELD
LOC  .        Easting: 656981.7mE                      :LOCATION
CNTY .        Sedco-703                                :COUNTY
STAT .        Northern Territory                       :STATE
CTRY .        Australia                                :COUNTRY
API  .                                                 :API NUMBER
UWI  .                                                 :UNIQUE WELL ID
DATE .        31-Dec-2007                              :LOG DATE {DD-MMM-YYYY}
SRVC .        Schlumberger                             :SERVICE COMPANY
LATI .DEG     12*57'32.63" S                           :LATITUDE
LONG .DEG     124*26'50.07" E                          :LONGITUDE
GDAT .                                                 :GeoDetic Datum
#-----------------------------------------------------------------------------
~PARAMETER INFORMATION
#MNEM.UNIT    VALUE                      DESCRIPTION
#---- -----   --------------------       ------------------------
RUN  .          1                        :RUN NUMBER
PDAT .        LAT                        :Permanent Datum
EPD  .M           0.000000               :Elevation of Permanent Datum above Mean Sea Level
EPD  .M           0.000000               :Elevation of tool zero above Mean Sea Level
LMF  .          DF                       :Logging Measured From (Name of Logging Elevation Reference)
APD  .M          26.400000               :Elevation of Depth Reference (LMF) above Permanent Datum
#-----------------------------------------------------------------------------
~CURVE INFORMATION
#MNEM.UNIT   API CODE                                  DESCRIPTION
#---- -----  --------                                  -----------------------
TIME .S                                                :TIME {F10.1}
TENS_SL.LBF                                            :Cable Tension {F13.4}
DEPT_SL..1IN                                           :Station logging depth {F13.4}
PDEP_XPT.M                                             :XPT Probe Depth {F13.4}
MTEP_SAP.DEGC                                          :Sapphire Gauge Manometer Temperature {F13.4}
MTEP_HYD.DEGC                                          :Hydrostatic Sapphire Gauge Manometer Temperature {F13.4}
PCO_HYD.PSI                                            :Hydrostatic Sapphire Dynamic Compensation {F13.4}
PND_HYD.PSI                                            :Hydrostatic Sapphire Pressure Without Dynamic Compensation {F13.4}
CP_HYD.PSI                                             :Hydrostatic Sapphire Pressure With Dynamic Compensation {F13.4}
MTEP_QG.DEGC                                           :CQG Manometer Temperature {F13.4}
PTNO_XPT.                                              :XPT Pretest Number {I11}
ETIM_XPT.S                                             :Elapsed Logging Time {F13.4}
PCO_SAP.PSI                                            :Sapphire Dynamic Compensation {F13.4}
PND_SAP.PSI                                            :Sapphire Pressure Without Dynamic Compensation {F13.4}
CP_SAP.PSI                                             :Sapphire Pressure With Dynamic Compensation {F13.4}
QNDP .PSI                                              :CQG Pressure Without Dynamic Compensation {F13.4}
QCP  .PSI                                              :CQG Pressure With Dynamic Compensation {F13.4}
QPCO .PSI                                              :CQG Dynamic Compensation {F13.4}
#-----------------------------------------------------------------------------
# 
#     TIME      TENS_SL      DEPT_SL      PDEP_XPT     MTEP_SAP     MTEP_HYD     PCO_HYD      PND_HYD       CP_HYD      MTEP_QG       PTNO_XPT       ETIM_XPT     PCO_SAP      PND_SAP       CP_SAP        QNDP         QCP          QPCO
#
~A  
# ...
    1336.0    4656.3928 1419728.0000    3604.5000     119.2001     119.7276       0.0080    5871.6107    5871.6185     119.7723          6     419.8453      -0.1552    5870.3104    5870.1551    5866.9762    5867.4382       0.4622
    1337.0    4643.1665 1419728.0000    3604.5000     119.1967     119.7275       0.0061    5871.6389    5871.6449     119.7738          6     420.8453      -0.1415    5870.1710    5870.0296    5867.0207    5867.4094       0.3886
    1338.0    4644.3810 1419728.0000    3604.5000     119.1936     119.7271       0.0075    5871.5749    5871.5823     119.7747          6     421.8453      -0.1274    5870.0519    5869.9247    5867.0435    5867.3655       0.3219
    1339.0    4689.7982 1419728.0000    3604.5000     119.1918     119.7276       0.0113    5871.5492    5871.5604     119.7756          6     422.8453      -0.1136    5869.9777    5869.8641    5867.0704    5867.3326       0.2623
    1340.0    4747.0245 1419728.0000    3604.5000     119.1885     119.7266       0.0142    5871.5698    5871.5839     119.7765          6     423.8453      -0.1006    5869.8834    5869.7825    5867.1360    5867.3453       0.2094
    1341.0    4756.8453 1419728.0000    3604.5000     119.1893     119.7280       0.0154    5871.5244    5871.5396     119.7768          6     424.8453      -0.0874    5869.8849    5869.7976    5867.1163    5867.2800       0.1637
    1342.0    4762.0715 1419728.0000    3604.5000     119.1866     119.7295       0.0158    5871.5996    5871.6152     119.7775          6     425.8453      -0.0741    5869.8392    5869.7650    5867.1231    5867.2478       0.1247
    1343.0    4763.8453 1419728.0000    3604.5000     119.1856     119.7289       0.0157    5871.5337    5871.5493     119.7776          6     426.8453      -0.0633    5869.8395    5869.7761    5867.1490    5867.2401       0.0912
    1344.0    4719.2018 1419728.0000    3604.5000     119.1836     119.7286       0.0149    5871.4715    5871.4865     119.7777          6     427.8453      -0.0561    5869.7994    5869.7434    5867.1886    5867.2509       0.0623
    1345.0    4699.1665 1419728.0000    3604.5000     119.1834     119.7286       0.0148    5871.5458    5871.5607     119.7780          6     428.8453      -0.0511    5869.9255    5869.8745    5867.2554    5867.2931       0.0378
    1346.0    4672.4878 1419728.0000    3604.5000     119.1818     119.7295       0.0163    5871.5996    5871.6160     119.7779          6     429.8453      -0.0463    5870.0188    5869.9725    5867.3941    5867.4113       0.0174
    1347.0    4647.7140 1419728.0000    3604.5000     119.1827     119.7299       0.0182    5871.7168    5871.7350     119.7781          6     430.8453      -0.0416    5870.0816    5870.0398    5867.4791    5867.4794       0.0005
    1348.0    4649.9168 1419728.0000    3604.5000     119.1807     119.7306       0.0183    5871.6996    5871.7179     119.7781          6     431.8453      -0.0377    5869.9198    5869.8822    5867.4358    5867.4222      -0.0136
    1349.0    4695.7982 1419728.0000    3604.5000     119.1808     119.7309       0.0163    5871.6143    5871.6305     119.7781          6     432.8453      -0.0345    5870.0008    5869.9664    5867.3961    5867.3708      -0.0254
    1350.0    4709.9168 1419728.0000    3604.5000     119.1793     119.7310       0.0135    5871.6688    5871.6824     119.7781          6     433.8453      -0.0302    5869.8993    5869.8693    5867.3508    5867.3162      -0.0348
    1351.0    4736.3575 1419728.0000    3604.5000     119.1801     119.7325       0.0108    5871.5718    5871.5825     119.7778          6     434.8453      -0.0250    5869.7957    5869.7706    5867.2800    5867.2380      -0.0420
    1352.0    4757.0598 1419728.0000    3604.5000     119.1813     119.7308       0.0081    5871.4945    5871.5025     119.7776          6     435.8453      -0.0198    5869.7568    5869.7370    5867.1920    5867.1444      -0.0475
    1353.0    4769.2977 1419728.0000    3604.5000     119.1769     119.7312       0.0062    5871.4445    5871.4509     119.7776          6     436.8453      -0.0159    5869.7196    5869.7036    5867.2552    5867.2032      -0.0520
    1354.0    4771.0000 1419728.0000    3604.5000     119.1803     119.7310       0.0067    5871.4966    5871.5032     119.7773          6     437.8453      -0.0130    5869.9410    5869.9281    5867.3250    5867.2694      -0.0557
    1355.0    4703.3800 1419728.0000    3604.5000     119.1785     119.7311       0.0086    5871.5566    5871.5653     119.7771          6     438.8453      -0.0111    5869.8524    5869.8412    5867.3013    5867.2436      -0.0578
    1356.0    4666.4878 1419728.0000    3604.5000     119.1781     119.7318       0.0094    5871.6176    5871.6268     119.7770          6     439.8453      -0.0104    5869.8097    5869.7994    5867.3260    5867.2674      -0.0586
    1357.0    4647.6308 1419728.0000    3604.5000     119.1783     119.7306       0.0080    5871.6114    5871.6195     119.7767          6     440.8453      -0.0098    5869.9104    5869.9006    5867.4064    5867.3476      -0.0589
    1358.0    4663.5955 1419728.0000    3604.5000     119.1794     119.7325       0.0060    5871.6863    5871.6923     119.7764          6     441.8453      -0.0085    5870.0595    5870.0511    5867.4479    5867.3885      -0.0594
    1359.0    4677.9883 1419728.0000    3604.5000     119.1777     119.7325       0.0053    5871.6786    5871.6839     119.7764          6     442.8453      -0.0066    5869.8489    5869.8422    5867.4199    5867.3599      -0.0598
    1360.0    4717.1910 1419728.0000    3604.5000     119.1773     119.7329       0.0060    5871.6354    5871.6415     119.7761          6     443.8453      -0.0045    5869.9279    5869.9235    5867.4144    5867.3549      -0.0595
    1361.0    4756.9648 1419728.0000    3604.5000     119.1765     119.7318       0.0070    5871.6343    5871.6412     119.7760          6     444.8453      -0.0022    5869.7823    5869.7802    5867.3618    5867.3031      -0.0587
    1362.0    4749.4760 1419728.0000    3604.5000     119.1777     119.7332       0.0079    5871.6886    5871.6965     119.7756          6     445.8453      -0.0006    5869.8564    5869.8559    5867.3367    5867.2792      -0.0576
    1363.0    4696.2850 1419728.0000    3604.5000     119.1766     119.7318       0.0094    5871.5640    5871.5735     119.7753          6     446.8453      -0.0006    5869.8630    5869.8623    5867.3579    5867.3015      -0.0565
    1364.0    4676.0117 1419728.0000    3604.5000     119.1775     119.7331       0.0115    5871.6640    5871.6755     119.7753          6     447.8453      -0.0014    5869.8520    5869.8506    5867.3466    5867.2914      -0.0552
    1365.0    4658.7855 1419728.0000    3604.5000     119.1794     119.7340       0.0135    5871.5964    5871.6101     119.7751          6     448.8453      -0.0012    5869.9301    5869.9290    5867.3497    5867.2960      -0.0536
    1366.0    4660.2262 1419728.0000    3604.5000     119.1765     119.7329       0.0140    5871.6046    5871.6188     119.7751          6     449.8453      -0.0015    5869.7746    5869.7732    5867.3728    5867.3208      -0.0518
    1367.0    4697.3458 1419728.0000    3604.5000     119.1772     119.7336       0.0137    5871.6426    5871.6563     119.7748          6     450.8453      -0.0024    5869.9139    5869.9114    5867.3975    5867.3472      -0.0502
    1368.0    4748.7982 1419728.0000    3604.5000     119.1775     119.7342       0.0140    5871.6482    5871.6623     119.7745          6     451.8453      -0.0015    5869.8820    5869.8806    5867.3841    5867.3353      -0.0487
    1369.0    4757.0000 1419728.0000    3604.5000     119.1775     119.7340       0.0145    5871.6489    5871.6635     119.7743          6     452.8453       0.0016    5869.7553    5869.7570    5867.3327    5867.2855      -0.0471
    1370.0    4750.2380 1419728.0000    3604.5000     119.1766     119.7341       0.0140    5871.6475    5871.6613     119.7742          6     453.8453       0.0044    5869.7518    5869.7561    5867.3396    5867.2945      -0.0453
