~VERSION INFORMATION
VERS.           2.0   :CWLS Log ASCII Standard - VERSION 2.0
WRAP.           NO    :One Line per depth step
PROD.  Schlumberger   :LAS Producer
PROG.  DLIS to ASCII 2.2                               :LAS Program name and version
CREA.        2020/10/30 12:18                          :LAS Creation date {YYYY/MM/DD hh:mm}
SOURCE.     XPT_HRLA_TLD_MCFL_039LTP.DLIS              :DLIS File Name
FILE-ID.     XPT_HRLA_TLD_MCFL_039LTP                  :File Identification Number
#--------------------------------------------------
~WELL INFORMATION
#MNEM.UNIT      DATA             DESCRIPTION
#---- ------ --------------   -----------------------------
STRT .S          109.0       :START TIME      
STOP .S          613.0       :STOP TIME      
STEP .S            1.0       :STEP     
NULL .          -999.25      :NULL VALUE
COMP .        Nexus Energy                             :COMPANY
WELL .        Crux-3                                   :WELL
FLD  .        Crux                                     :FIELD
LOC  .        Easting: 656981.7mE                      :LOCATION
CNTY .        Sedco-703                                :COUNTY
STAT .        Northern Territory                       :STATE
CTRY .        Australia                                :COUNTRY
API  .                                                 :API NUMBER
UWI  .                                                 :UNIQUE WELL ID
DATE .        31-Dec-2007                              :LOG DATE {DD-MMM-YYYY}
SRVC .        Schlumberger                             :SERVICE COMPANY
LATI .DEG     12*57'32.63" S                           :LATITUDE
LONG .DEG     124*26'50.07" E                          :LONGITUDE
GDAT .                                                 :GeoDetic Datum
#-----------------------------------------------------------------------------
~PARAMETER INFORMATION
#MNEM.UNIT    VALUE                      DESCRIPTION
#---- -----   --------------------       ------------------------
RUN  .          1                        :RUN NUMBER
PDAT .        LAT                        :Permanent Datum
EPD  .M           0.000000               :Elevation of Permanent Datum above Mean Sea Level
EPD  .M           0.000000               :Elevation of tool zero above Mean Sea Level
LMF  .          DF                       :Logging Measured From (Name of Logging Elevation Reference)
APD  .M          26.400000               :Elevation of Depth Reference (LMF) above Permanent Datum
#-----------------------------------------------------------------------------
~CURVE INFORMATION
#MNEM.UNIT   API CODE                                  DESCRIPTION
#---- -----  --------                                  -----------------------
TIME .S                                                :TIME {F10.1}
TENS_SL.LBF                                            :Cable Tension {F13.4}
DEPT_SL..1IN                                           :Station logging depth {F13.4}
PDEP_XPT.M                                             :XPT Probe Depth {F13.4}
MTEP_SAP.DEGC                                          :Sapphire Gauge Manometer Temperature {F13.4}
MTEP_HYD.DEGC                                          :Hydrostatic Sapphire Gauge Manometer Temperature {F13.4}
PCO_HYD.PSI                                            :Hydrostatic Sapphire Dynamic Compensation {F13.4}
PND_HYD.PSI                                            :Hydrostatic Sapphire Pressure Without Dynamic Compensation {F13.4}
CP_HYD.PSI                                             :Hydrostatic Sapphire Pressure With Dynamic Compensation {F13.4}
MTEP_QG.DEGC                                           :CQG Manometer Temperature {F13.4}
PTNO_XPT.                                              :XPT Pretest Number {I11}
ETIM_XPT.S                                             :Elapsed Logging Time {F13.4}
PCO_SAP.PSI                                            :Sapphire Dynamic Compensation {F13.4}
PND_SAP.PSI                                            :Sapphire Pressure Without Dynamic Compensation {F13.4}
CP_SAP.PSI                                             :Sapphire Pressure With Dynamic Compensation {F13.4}
QNDP .PSI                                              :CQG Pressure Without Dynamic Compensation {F13.4}
QCP  .PSI                                              :CQG Pressure With Dynamic Compensation {F13.4}
QPCO .PSI                                              :CQG Dynamic Compensation {F13.4}
#-----------------------------------------------------------------------------
# 
#     TIME      TENS_SL      DEPT_SL      PDEP_XPT     MTEP_SAP     MTEP_HYD     PCO_HYD      PND_HYD       CP_HYD      MTEP_QG       PTNO_XPT       ETIM_XPT     PCO_SAP      PND_SAP       CP_SAP        QNDP         QCP          QPCO
#
~A  
# ...
     459.0    4772.9125 1418545.0000    3601.4951     119.0240     119.5770       0.0147    5866.5049    5866.5196     119.5710          4     350.2610       0.0026    5505.0897    5505.0921    5502.3875    5502.4490       0.0617
     460.0    4769.3484 1418545.0000    3601.4951     119.0255     119.5784       0.0152    5866.5239    5866.5390     119.5713          4     351.2610       0.0032    5505.1611    5505.1644    5502.3879    5502.4494       0.0617
     461.0    4776.0000 1418545.0000    3601.4951     119.0244     119.5800       0.0146    5866.5963    5866.6108     119.5714          4     352.2610       0.0042    5505.1164    5505.1208    5502.3915    5502.4530       0.0615
     462.0    4754.8641 1418545.0000    3601.4951     119.0253     119.5774       0.0120    5866.5411    5866.5533     119.5715          4     353.2610       0.0050    5505.1254    5505.1303    5502.3928    5502.4538       0.0611
     463.0    4695.0000 1418545.0000    3601.4951     119.0247     119.5792       0.0089    5866.6145    5866.6234     119.5719          4     354.2610       0.0048    5505.0988    5505.1037    5502.3891    5502.4497       0.0608
     464.0    4696.5656 1418545.0000    3601.4951     119.0262     119.5793       0.0079    5866.7472    5866.7550     119.5720          4     355.2610       0.0031    5505.1770    5505.1803    5502.3965    5502.4570       0.0607
     465.0    4699.1734 1418545.0000    3601.4951     119.0247     119.5783       0.0086    5866.7010    5866.7095     119.5721          4     356.2610       0.0015    5505.0887    5505.0904    5502.3949    5502.4555       0.0606
     466.0    4686.4328 1418545.0000    3601.4951     119.0251     119.5787       0.0085    5866.7637    5866.7721     119.5723          4     357.2610       0.0011    5505.1563    5505.1572    5502.3947    5502.4552       0.0605
     467.0    4679.3516 1418545.0000    3601.4951     119.0240     119.5796       0.0082    5866.7701    5866.7784     119.5729          4     358.2610       0.0023    5505.0001    5505.0026    5502.3935    5502.4541       0.0607
     468.0    4744.7891 1418545.0000    3601.4951     119.0239     119.5797       0.0089    5866.6693    5866.6783     119.5728          4     359.2610       0.0034    5505.0695    5505.0727    5502.3950    5502.4559       0.0609
     469.0    4812.9125 1418545.0000    3601.4951     119.0260     119.5793       0.0104    5866.6466    5866.6568     119.5731          4     360.2610       0.0046    5505.0943    5505.0987    5502.3885    5502.4495       0.0612
     470.0    4792.3875 1418545.0000    3601.4951     119.0251     119.5794       0.0112    5866.5928    5866.6040     119.5733          4     361.2610       0.0068    5505.1707    5505.1777    5502.3922    5502.4537       0.0614
     471.0    4751.0000 1418545.0000    3601.4951     119.0249     119.5800       0.0118    5866.4633    5866.4750     119.5734          4     362.2610       0.0098    5505.1296    5505.1394    5502.3918    5502.4531       0.0612
     472.0    4747.8687 1418545.0000    3601.4951     119.0241     119.5806       0.0128    5866.4380    5866.4506     119.5734          4     363.2610       0.0112    5505.0288    5505.0401    5502.3972    5502.4578       0.0606
     473.0    4726.4750 1418545.0000    3601.4951     119.0260     119.5808       0.0142    5866.6074    5866.6217     119.5740          4     364.2610       0.0101    5505.1159    5505.1260    5502.3944    5502.4544       0.0600
     474.0    4695.6969 1418545.0000    3601.4951     119.0265     119.5808       0.0157    5866.5483    5866.5640     119.5741          4     365.2610       0.0095    5505.1540    5505.1635    5502.4027    5502.4627       0.0600
     475.0    4709.0000 1418545.0000    3601.4951     119.0269     119.5822       0.0158    5866.7986    5866.8143     119.5742          4     366.2610       0.0104    5505.1543    5505.1645    5502.3986    5502.4586       0.0600
     476.0    4705.0859 1418545.0000    3601.4951     119.0261     119.5814       0.0140    5866.8868    5866.9008     119.5742          4     367.2610       0.0113    5505.1443    5505.1555    5502.3973    5502.4574       0.0600
     477.0    4687.7375 1418545.0000    3601.4951     119.0252     119.5816       0.0112    5866.8104    5866.8216     119.5745          4     368.2610       0.0102    5505.1345    5505.1447    5502.3997    5502.4598       0.0602
     478.0    4678.3500 1418545.0000    3601.4951     119.0281     119.5823       0.0089    5866.7475    5866.7564     119.5750          4     369.2610       0.0094    5505.1957    5505.2049    5502.4018    5502.4628       0.0611
     479.0    4719.7437 1418545.0000    3601.4951     119.0271     119.5823       0.0069    5866.6911    5866.6979     119.5750          4     370.2610       0.0104    5505.1888    5505.1991    5502.4029    5502.4644       0.0616
     480.0    4771.3047 1418545.0000    3601.4951     119.0270     119.5814       0.0049    5866.7168    5866.7219     119.5753          4     371.2610       0.0111    5505.0658    5505.0770    5502.4021    5502.4636       0.0614
     481.0    4780.7406 1418545.0000    3601.4951     119.0266     119.5826       0.0048    5866.6033    5866.6081     119.5753          4     372.2610       0.0090    5505.1388    5505.1477    5502.3968    5502.4578       0.0609
     482.0    4798.0437 1418545.0000    3601.4951     119.0293     119.5825       0.0072    5866.5065    5866.5135     119.5759          4     373.2610       0.0054    5505.1292    5505.1343    5502.4022    5502.4622       0.0601
     483.0    4787.9531 1418545.0000    3601.4951     119.0278     119.5812       0.0105    5866.5251    5866.5354     119.5759          4     374.2610       0.0035    5505.1359    5505.1393    5502.4027    5502.4620       0.0593
     484.0    4734.8219 1418545.0000    3601.4951     119.0290     119.5816       0.0126    5866.6416    5866.6543     119.5764          4     375.2610       0.0037    5505.1134    5505.1172    5502.4060    5502.4646       0.0587
     485.0    4688.7391 1418545.0000    3601.4951     119.0260     119.5837       0.0138    5866.6147    5866.6285     119.5764          4     376.2610       0.0035    5505.0845    5505.0879    5502.4073    5502.4659       0.0586
     486.0    4686.6953 1418545.0000    3601.4951     119.0263     119.5835       0.0147    5866.7271    5866.7417     119.5764          4     377.2610       0.0018    5505.0667    5505.0684    5502.4079    5502.4665       0.0587
     487.0    4679.6078 1418545.0000    3601.4951     119.0281     119.5832       0.0146    5866.7957    5866.8103     119.5769          4     378.2610       0.0006    5505.1230    5505.1236    5502.4061    5502.4656       0.0594
     488.0    4679.6547 1418545.0000    3601.4951     119.0284     119.5837       0.0132    5866.7567    5866.7698     119.5768          4     379.2610       0.0009    5505.1941    5505.1951    5502.4029    5502.4631       0.0601
     489.0    4714.3062 1418545.0000    3601.4951     119.0276     119.5842       0.0118    5866.7259    5866.7378     119.5770          4     380.2610       0.0015    5505.0956    5505.0971    5502.4030    5502.4639       0.0609
     490.0    4745.6984 1418545.0000    3601.4951     119.0274     119.5832       0.0119    5866.5734    5866.5851     119.5773          4     381.2610       0.0011    5505.1750    5505.1760    5502.4039    5502.4649       0.0611
     491.0    4774.4344 1418545.0000    3601.4951     119.0266     119.5852       0.0125    5866.6537    5866.6664     119.5774          4     382.2610       0.0011    5505.1073    5505.1083    5502.4053    5502.4658       0.0607
     492.0    4770.2609 1418545.0000    3601.4951     119.0270     119.5834       0.0122    5866.4248    5866.4370     119.5776          4     383.2610       0.0032    5505.1128    5505.1161    5502.4036    5502.4637       0.0599
     493.0    4775.4359 1418545.0000    3601.4951     119.0286     119.5849       0.0110    5866.5566    5866.5674     119.5780          4     384.2610       0.0075    5505.1285    5505.1361    5502.4103    5502.4695       0.0591
