~VERSION INFORMATION
VERS.           2.0   :CWLS Log ASCII Standard - VERSION 2.0
WRAP.           NO    :One Line per depth step
PROD.  Schlumberger   :LAS Producer
PROG.  DLIS to ASCII 2.2                               :LAS Program name and version
CREA.        2020/10/30 12:18                          :LAS Creation date {YYYY/MM/DD hh:mm}
SOURCE.     XPT_HRLA_TLD_MCFL_051LTP.DLIS              :DLIS File Name
FILE-ID.     XPT_HRLA_TLD_MCFL_051LTP                  :File Identification Number
#--------------------------------------------------
~WELL INFORMATION
#MNEM.UNIT      DATA             DESCRIPTION
#---- ------ --------------   -----------------------------
STRT .S         3209.0       :START TIME      
STOP .S         3664.0       :STOP TIME      
STEP .S            1.0       :STEP     
NULL .          -999.25      :NULL VALUE
COMP .        Nexus Energy                             :COMPANY
WELL .        Crux-3                                   :WELL
FLD  .        Crux                                     :FIELD
LOC  .        Easting: 656981.7mE                      :LOCATION
CNTY .        Sedco-703                                :COUNTY
STAT .        Northern Territory                       :STATE
CTRY .        Australia                                :COUNTRY
API  .                                                 :API NUMBER
UWI  .                                                 :UNIQUE WELL ID
DATE .        31-Dec-2007                              :LOG DATE {DD-MMM-YYYY}
SRVC .        Schlumberger                             :SERVICE COMPANY
LATI .DEG     12*57'32.63" S                           :LATITUDE
LONG .DEG     124*26'50.07" E                          :LONGITUDE
GDAT .                                                 :GeoDetic Datum
#-----------------------------------------------------------------------------
~PARAMETER INFORMATION
#MNEM.UNIT    VALUE                      DESCRIPTION
#---- -----   --------------------       ------------------------
RUN  .          1                        :RUN NUMBER
PDAT .        LAT                        :Permanent Datum
EPD  .M           0.000000               :Elevation of Permanent Datum above Mean Sea Level
EPD  .M           0.000000               :Elevation of tool zero above Mean Sea Level
LMF  .          DF                       :Logging Measured From (Name of Logging Elevation Reference)
APD  .M          26.400000               :Elevation of Depth Reference (LMF) above Permanent Datum
#-----------------------------------------------------------------------------
~CURVE INFORMATION
#MNEM.UNIT   API CODE                                  DESCRIPTION
#---- -----  --------                                  -----------------------
TIME .S                                                :TIME {F10.1}
TENS_SL.LBF                                            :Cable Tension {F13.4}
DEPT_SL..1IN                                           :Station logging depth {F13.4}
PDEP_XPT.M                                             :XPT Probe Depth {F13.4}
MTEP_SAP.DEGC                                          :Sapphire Gauge Manometer Temperature {F13.4}
MTEP_HYD.DEGC                                          :Hydrostatic Sapphire Gauge Manometer Temperature {F13.4}
PCO_HYD.PSI                                            :Hydrostatic Sapphire Dynamic Compensation {F13.4}
PND_HYD.PSI                                            :Hydrostatic Sapphire Pressure Without Dynamic Compensation {F13.4}
CP_HYD.PSI                                             :Hydrostatic Sapphire Pressure With Dynamic Compensation {F13.4}
MTEP_QG.DEGC                                           :CQG Manometer Temperature {F13.4}
PTNO_XPT.                                              :XPT Pretest Number {I11}
ETIM_XPT.S                                             :Elapsed Logging Time {F13.4}
PCO_SAP.PSI                                            :Sapphire Dynamic Compensation {F13.4}
PND_SAP.PSI                                            :Sapphire Pressure Without Dynamic Compensation {F13.4}
CP_SAP.PSI                                             :Sapphire Pressure With Dynamic Compensation {F13.4}
QNDP .PSI                                              :CQG Pressure Without Dynamic Compensation {F13.4}
QCP  .PSI                                              :CQG Pressure With Dynamic Compensation {F13.4}
QPCO .PSI                                              :CQG Dynamic Compensation {F13.4}
#-----------------------------------------------------------------------------
# 
#     TIME      TENS_SL      DEPT_SL      PDEP_XPT     MTEP_SAP     MTEP_HYD     PCO_HYD      PND_HYD       CP_HYD      MTEP_QG       PTNO_XPT       ETIM_XPT     PCO_SAP      PND_SAP       CP_SAP        QNDP         QCP          QPCO
#
~A  
# ...
    3349.0    4996.0440 1496497.0000    3799.4934     125.1200     125.7488       0.0286    6181.5234    6181.5521     125.3262         15     140.0840       0.0504    5575.8795    5575.9299    5572.2968    5572.8521       0.5554
    3350.0    4940.3200 1496497.0000    3799.4934     125.1198     125.7498       0.0288    6181.4730    6181.5018     125.3282         15     141.0840       0.0473    5575.8007    5575.8479    5572.2906    5572.8416       0.5509
    3351.0    4920.7400 1496497.0000    3799.4934     125.1201     125.7511       0.0298    6181.5882    6181.6178     125.3302         15     142.0840       0.0450    5575.8184    5575.8635    5572.2836    5572.8304       0.5469
    3352.0    4908.1760 1496497.0000    3799.4934     125.1212     125.7518       0.0320    6181.4951    6181.5273     125.3314         15     143.0840       0.0443    5575.7152    5575.7596    5572.2656    5572.8087       0.5431
    3353.0    4922.2600 1496497.0000    3799.4934     125.1210     125.7521       0.0334    6181.6176    6181.6508     125.3334         15     144.0840       0.0457    5575.8112    5575.8569    5572.2588    5572.7981       0.5394
    3354.0    4938.1000 1496497.0000    3799.4934     125.1242     125.7525       0.0323    6181.5863    6181.6187     125.3353         15     145.0840       0.0485    5575.7901    5575.8386    5572.2546    5572.7906       0.5362
    3355.0    4964.0240 1496497.0000    3799.4934     125.1227     125.7526       0.0298    6181.6235    6181.6533     125.3370         15     146.0840       0.0516    5575.6963    5575.7481    5572.2460    5572.7792       0.5333
    3356.0    5001.8720 1496497.0000    3799.4934     125.1248     125.7543       0.0275    6181.5818    6181.6093     125.3387         15     147.0840       0.0529    5575.6223    5575.6751    5572.2364    5572.7669       0.5306
    3357.0    5052.7320 1496497.0000    3799.4934     125.1254     125.7543       0.0257    6181.5457    6181.5713     125.3402         15     148.0840       0.0522    5575.7529    5575.8052    5572.2289    5572.7561       0.5273
    3358.0    5029.3440 1496497.0000    3799.4934     125.1270     125.7545       0.0243    6181.4922    6181.5167     125.3420         15     149.0840       0.0502    5575.7281    5575.7784    5572.2201    5572.7441       0.5239
    3359.0    5044.9240 1496497.0000    3799.4934     125.1276     125.7554       0.0241    6181.4733    6181.4973     125.3437         15     150.0840       0.0476    5575.6205    5575.6681    5572.2117    5572.7324       0.5206
    3360.0    5048.1960 1496497.0000    3799.4934     125.1285     125.7552       0.0256    6181.4105    6181.4362     125.3453         15     151.0840       0.0446    5575.7198    5575.7644    5572.2091    5572.7260       0.5170
    3361.0    4973.7480 1496497.0000    3799.4934     125.1301     125.7560       0.0276    6181.5398    6181.5676     125.3468         15     152.0840       0.0417    5575.7538    5575.7954    5572.2066    5572.7199       0.5132
    3362.0    4966.8840 1496497.0000    3799.4934     125.1291     125.7561       0.0290    6181.4811    6181.5100     125.3489         15     153.0840       0.0405    5575.6302    5575.6707    5572.2014    5572.7109       0.5095
    3363.0    4923.0080 1496497.0000    3799.4934     125.1312     125.7573       0.0293    6181.5303    6181.5596     125.3502         15     154.0840       0.0415    5575.6131    5575.6546    5572.1982    5572.7045       0.5064
    3364.0    4939.2080 1496497.0000    3799.4934     125.1315     125.7580       0.0286    6181.5637    6181.5925     125.3518         15     155.0840       0.0428    5575.5952    5575.6381    5572.1983    5572.7018       0.5035
    3365.0    4996.0000 1496497.0000    3799.4934     125.1316     125.7582       0.0275    6181.5629    6181.5906     125.3534         15     156.0840       0.0428    5575.5762    5575.6192    5572.1855    5572.6857       0.5003
    3366.0    5001.0400 1496497.0000    3799.4934     125.1338     125.7588       0.0270    6181.4963    6181.5231     125.3548         15     157.0840       0.0430    5575.5884    5575.6314    5572.1768    5572.6742       0.4974
    3367.0    5057.4280 1496497.0000    3799.4934     125.1363     125.7601       0.0278    6181.5204    6181.5482     125.3564         15     158.0840       0.0439    5575.7172    5575.7611    5572.1740    5572.6687       0.4947
    3368.0    5073.1680 1496497.0000    3799.4934     125.1344     125.7587       0.0295    6181.5083    6181.5377     125.3583         15     159.0840       0.0438    5575.5623    5575.6062    5572.1713    5572.6633       0.4922
    3369.0    5069.7920 1496497.0000    3799.4934     125.1360     125.7594       0.0314    6181.4445    6181.4761     125.3597         15     160.0840       0.0419    5575.6808    5575.7226    5572.1667    5572.6562       0.4895
    3370.0    5006.1120 1496497.0000    3799.4934     125.1366     125.7617       0.0332    6181.4768    6181.5100     125.3616         15     161.0840       0.0404    5575.5473    5575.5878    5572.1674    5572.6533       0.4861
    3371.0    4931.5880 1496497.0000    3799.4934     125.1384     125.7604       0.0342    6181.4750    6181.5092     125.3627         15     162.0840       0.0411    5575.5195    5575.5607    5572.1669    5572.6490       0.4822
    3372.0    4937.2440 1496497.0000    3799.4934     125.1384     125.7617       0.0345    6181.4920    6181.5267     125.3643         15     163.0840       0.0424    5575.6043    5575.6466    5572.1628    5572.6412       0.4786
    3373.0    4929.6720 1496497.0000    3799.4934     125.1375     125.7617       0.0342    6181.5442    6181.5784     125.3659         15     164.0840       0.0425    5575.4166    5575.4591    5572.1613    5572.6369       0.4755
    3374.0    4939.6880 1496497.0000    3799.4934     125.1392     125.7630       0.0334    6181.5460    6181.5795     125.3673         15     165.0840       0.0413    5575.5400    5575.5814    5572.1562    5572.6292       0.4730
    3375.0    4972.2760 1496497.0000    3799.4934     125.1398     125.7635       0.0327    6181.5971    6181.6298     125.3689         15     166.0840       0.0400    5575.4904    5575.5306    5572.1540    5572.6246       0.4707
    3376.0    5011.6960 1496497.0000    3799.4934     125.1419     125.7655       0.0324    6181.6993    6181.7316     125.3705         15     167.0840       0.0391    5575.5077    5575.5468    5572.1491    5572.6174       0.4683
    3377.0    5049.7320 1496497.0000    3799.4934     125.1426     125.7655       0.0323    6181.5122    6181.5444     125.3721         15     168.0840       0.0388    5575.5213    5575.5601    5572.1484    5572.6146       0.4663
    3378.0    5023.0680 1496497.0000    3799.4934     125.1426     125.7655       0.0310    6181.4609    6181.4919     125.3733         15     169.0840       0.0392    5575.5337    5575.5727    5572.1465    5572.6111       0.4645
    3379.0    5004.4360 1496497.0000    3799.4934     125.1434     125.7640       0.0286    6181.3247    6181.3535     125.3747         15     170.0840       0.0405    5575.6060    5575.6465    5572.1431    5572.6060       0.4629
    3380.0    5032.9320 1496497.0000    3799.4934     125.1426     125.7661       0.0271    6181.3645    6181.3918     125.3765         15     171.0840       0.0433    5575.5017    5575.5450    5572.1489    5572.6101       0.4612
    3381.0    5047.4480 1496497.0000    3799.4934     125.1439     125.7673       0.0277    6181.4612    6181.4888     125.3777         15     172.0840       0.0466    5575.4301    5575.4766    5572.1510    5572.6099       0.4589
    3382.0    4975.4960 1496497.0000    3799.4934     125.1468     125.7678       0.0290    6181.4854    6181.5142     125.3793         15     173.0840       0.0491    5575.6056    5575.6549    5572.1489    5572.6054       0.4565
    3383.0    4968.4040 1496497.0000    3799.4934     125.1459     125.7678       0.0295    6181.4854    6181.5148     125.3808         15     174.0840       0.0488    5575.5375    5575.5862    5572.1468    5572.6011       0.4542
