~VERSION INFORMATION
VERS.           2.0   :CWLS Log ASCII Standard - VERSION 2.0
WRAP.           NO    :One Line per depth step
PROD.  Schlumberger   :LAS Producer
PROG.  DLIS to ASCII 2.2                               :LAS Program name and version
CREA.        2020/10/30 12:18                          :LAS Creation date {YYYY/MM/DD hh:mm}
SOURCE.     XPT_HRLA_TLD_MCFL_059LTP.DLIS              :DLIS File Name
FILE-ID.     XPT_HRLA_TLD_MCFL_059LTP                  :File Identification Number
#--------------------------------------------------
~WELL INFORMATION
#MNEM.UNIT      DATA             DESCRIPTION
#---- ------ --------------   -----------------------------
STRT .S         8390.0       :START TIME      
STOP .S         8580.0       :STOP TIME      
STEP .S            1.0       :STEP     
NULL .          -999.25      :NULL VALUE
COMP .        Nexus Energy                             :COMPANY
WELL .        Crux-3                                   :WELL
FLD  .        Crux                                     :FIELD
LOC  .        Easting: 656981.7mE                      :LOCATION
CNTY .        Sedco-703                                :COUNTY
STAT .        Northern Territory                       :STATE
CTRY .        Australia                                :COUNTRY
API  .                                                 :API NUMBER
UWI  .                                                 :UNIQUE WELL ID
DATE .        31-Dec-2007                              :LOG DATE {DD-MMM-YYYY}
SRVC .        Schlumberger                             :SERVICE COMPANY
LATI .DEG     12*57'32.63" S                           :LATITUDE
LONG .DEG     124*26'50.07" E                          :LONGITUDE
GDAT .                                                 :GeoDetic Datum
#-----------------------------------------------------------------------------
~PARAMETER INFORMATION
#MNEM.UNIT    VALUE                      DESCRIPTION
#---- -----   --------------------       ------------------------
RUN  .          1                        :RUN NUMBER
PDAT .        LAT                        :Permanent Datum
EPD  .M           0.000000               :Elevation of Permanent Datum above Mean Sea Level
EPD  .M           0.000000               :Elevation of tool zero above Mean Sea Level
LMF  .          DF                       :Logging Measured From (Name of Logging Elevation Reference)
APD  .M          26.400000               :Elevation of Depth Reference (LMF) above Permanent Datum
#-----------------------------------------------------------------------------
~CURVE INFORMATION
#MNEM.UNIT   API CODE                                  DESCRIPTION
#---- -----  --------                                  -----------------------
TIME .S                                                :TIME {F10.1}
TENS_SL.LBF                                            :Cable Tension {F13.4}
DEPT_SL..1IN                                           :Station logging depth {F13.4}
PDEP_XPT.M                                             :XPT Probe Depth {F13.4}
MTEP_SAP.DEGC                                          :Sapphire Gauge Manometer Temperature {F13.4}
MTEP_HYD.DEGC                                          :Hydrostatic Sapphire Gauge Manometer Temperature {F13.4}
PCO_HYD.PSI                                            :Hydrostatic Sapphire Dynamic Compensation {F13.4}
PND_HYD.PSI                                            :Hydrostatic Sapphire Pressure Without Dynamic Compensation {F13.4}
CP_HYD.PSI                                             :Hydrostatic Sapphire Pressure With Dynamic Compensation {F13.4}
MTEP_QG.DEGC                                           :CQG Manometer Temperature {F13.4}
PTNO_XPT.                                              :XPT Pretest Number {I11}
ETIM_XPT.S                                             :Elapsed Logging Time {F13.4}
PCO_SAP.PSI                                            :Sapphire Dynamic Compensation {F13.4}
PND_SAP.PSI                                            :Sapphire Pressure Without Dynamic Compensation {F13.4}
CP_SAP.PSI                                             :Sapphire Pressure With Dynamic Compensation {F13.4}
QNDP .PSI                                              :CQG Pressure Without Dynamic Compensation {F13.4}
QCP  .PSI                                              :CQG Pressure With Dynamic Compensation {F13.4}
QPCO .PSI                                              :CQG Dynamic Compensation {F13.4}
#-----------------------------------------------------------------------------
# 
#     TIME      TENS_SL      DEPT_SL      PDEP_XPT     MTEP_SAP     MTEP_HYD     PCO_HYD      PND_HYD       CP_HYD      MTEP_QG       PTNO_XPT       ETIM_XPT     PCO_SAP      PND_SAP       CP_SAP        QNDP         QCP          QPCO
#
~A  
# ...
    8495.0    4937.7600 1535646.0000    3898.9316     128.9629     129.5134       0.0190    6339.5024    6339.5215     129.5763         22     105.0800      -0.0419    6337.0781    6337.0361    6334.3037    6334.5839       0.2801
    8496.0    4940.3600 1535646.0000    3898.9316     128.9608     129.5134       0.0179    6339.4664    6339.4842     129.5772         22     106.0800      -0.0404    6336.8863    6336.8459    6334.3456    6334.6002       0.2547
    8497.0    5008.7200 1535646.0000    3898.9316     128.9615     129.5141       0.0156    6339.5092    6339.5248     129.5780         22     107.0800      -0.0369    6337.0594    6337.0227    6334.4209    6334.6499       0.2291
    8498.0    5091.0400 1535646.0000    3898.9316     128.9603     129.5151       0.0132    6339.5978    6339.6109     129.5787         22     108.0800      -0.0308    6336.9804    6336.9497    6334.4150    6334.6201       0.2050
    8499.0    5146.3600 1535646.0000    3898.9316     128.9599     129.5142       0.0117    6339.4623    6339.4740     129.5794         22     109.0800      -0.0243    6336.9136    6336.8894    6334.3524    6334.5356       0.1832
    8500.0    5112.1600 1535646.0000    3898.9316     128.9580     129.5135       0.0115    6339.3905    6339.4022     129.5797         22     110.0800      -0.0189    6336.8426    6336.8235    6334.3393    6334.5028       0.1636
    8501.0    5065.5200 1535646.0000    3898.9316     128.9591     129.5147       0.0125    6339.3357    6339.3480     129.5804         22     111.0800      -0.0139    6336.7341    6336.7204    6334.3058    6334.4514       0.1457
    8502.0    5029.4000 1535646.0000    3898.9316     128.9591     129.5146       0.0146    6339.2861    6339.3006     129.5805         22     112.0800      -0.0081    6336.9848    6336.9769    6334.4378    6334.5672       0.1294
    8503.0    4940.2400 1535646.0000    3898.9316     128.9606     129.5149       0.0172    6339.4019    6339.4189     129.5812         22     113.0800      -0.0026    6336.8542    6336.8516    6334.4845    6334.5995       0.1148
    8504.0    4924.8800 1535646.0000    3898.9316     128.9582     129.5157       0.0194    6339.5273    6339.5465     129.5814         22     114.0800       0.0015    6336.9347    6336.9361    6334.5174    6334.6196       0.1021
    8505.0    4976.1200 1535646.0000    3898.9316     128.9602     129.5152       0.0199    6339.6309    6339.6509     129.5816         22     115.0800       0.0047    6337.1090    6337.1137    6334.6767    6334.7679       0.0911
    8506.0    4918.4000 1535646.0000    3898.9316     128.9575     129.5157       0.0188    6339.6530    6339.6720     129.5819         22     116.0800       0.0065    6337.1251    6337.1315    6334.7211    6334.8023       0.0814
    8507.0    4906.9600 1535646.0000    3898.9316     128.9577     129.5164       0.0173    6339.5356    6339.5531     129.5818         22     117.0800       0.0058    6336.9664    6336.9721    6334.5804    6334.6530       0.0725
    8508.0    4994.9200 1535646.0000    3898.9316     128.9589     129.5172       0.0166    6339.3623    6339.3789     129.5821         22     118.0800       0.0040    6336.9404    6336.9445    6334.5503    6334.6147       0.0645
    8509.0    5083.6000 1535646.0000    3898.9316     128.9616     129.5164       0.0171    6339.4146    6339.4316     129.5824         22     119.0800       0.0037    6337.0021    6337.0060    6334.5414    6334.5986       0.0574
    8510.0    5058.6400 1535646.0000    3898.9316     128.9589     129.5173       0.0172    6339.4523    6339.4694     129.5826         22     120.0800       0.0049    6336.8296    6336.8344    6334.4184    6334.4701       0.0517
    8511.0    5091.4800 1535646.0000    3898.9316     128.9578     129.5172       0.0162    6339.3263    6339.3426     129.5828         22     121.0800       0.0046    6335.6600    6335.6646    6333.3280    6333.3750       0.0471
    8512.0    5116.1600 1535646.0000    3898.9316     128.9570     129.5194       0.0146    6339.3238    6339.3385     129.5830         23     122.0800       0.0039    6335.7029    6335.7068    6333.4273    6333.4713       0.0439
    8513.0    5069.2000 1535646.0000    3898.9316     128.9607     129.5186       0.0137    6339.3173    6339.3310     129.5829         23     123.0800       0.0059    6335.8113    6335.8170    6333.4524    6333.4943       0.0417
    8514.0    5030.2800 1535646.0000    3898.9316     128.9602     129.5192       0.0137    6339.3839    6339.3976     129.5832         23     124.0800       0.0107    6334.9445    6334.9553    6332.5831    6332.6241       0.0410
    8515.0    4949.4000 1535646.0000    3898.9316     128.9602     129.5180       0.0135    6339.3715    6339.3851     129.5834         23     125.0800       0.0128    6333.8884    6333.9011    6331.5527    6331.5942       0.0414
    8516.0    4911.6000 1535646.0000    3898.9316     128.9596     129.5174       0.0125    6339.3370    6339.3496     129.5836         23     126.0800       0.0123    6336.8082    6336.8204    6334.4339    6334.4759       0.0420
    8517.0    4949.2400 1535646.0000    3898.9316     128.9605     129.5203       0.0111    6339.5171    6339.5283     129.5835         23     127.0800       0.0121    6336.9503    6336.9625    6334.6187    6334.6606       0.0420
    8518.0    4905.8400 1535646.0000    3898.9316     128.9611     129.5187       0.0107    6339.5601    6339.5708     129.5836         23     128.0800       0.0142    6337.0679    6337.0820    6334.6481    6334.6887       0.0405
    8519.0    4909.7600 1535646.0000    3898.9316     128.9599     129.5199       0.0109    6339.4961    6339.5070     129.5838         23     129.0800       0.0167    6336.8402    6336.8570    6334.5581    6334.5965       0.0384
    8520.0    4983.3600 1535646.0000    3898.9316     128.9606     129.5198       0.0125    6339.4269    6339.4394     129.5838         23     130.0800       0.0168    6336.9512    6336.9680    6334.5528    6334.5895       0.0366
    8521.0    5072.6400 1535646.0000    3898.9316     128.9605     129.5198       0.0155    6339.4508    6339.4664     129.5841         23     131.0800       0.0148    6336.8899    6336.9046    6334.5582    6334.5939       0.0357
    8522.0    5124.7200 1535646.0000    3898.9316     128.9629     129.5197       0.0185    6339.4617    6339.4804     129.5842         23     132.0800       0.0128    6336.8837    6336.8964    6334.4295    6334.4651       0.0357
    8523.0    5106.9600 1535646.0000    3898.9316     128.9619     129.5211       0.0207    6339.2480    6339.2688     129.5842         23     133.0800       0.0120    6336.6613    6336.6735    6334.3954    6334.4315       0.0361
    8524.0    5071.1200 1535646.0000    3898.9316     128.9619     129.5206       0.0214    6339.3068    6339.3283     129.5840         23     134.0800       0.0117    6336.7761    6336.7879    6334.3710    6334.4076       0.0368
    8525.0    5054.2800 1535646.0000    3898.9316     128.9620     129.5230       0.0209    6339.3648    6339.3857     129.5842         23     135.0800       0.0115    6336.8011    6336.8127    6334.4868    6334.5250       0.0381
    8526.0    4973.2400 1535646.0000    3898.9316     128.9617     129.5220       0.0181    6339.4138    6339.4317     129.5846         23     136.0800       0.0115    6336.8457    6336.8572    6334.4989    6334.5383       0.0392
    8527.0    4928.2400 1535646.0000    3898.9316     128.9627     129.5218       0.0142    6339.4722    6339.4864     129.5846         23     137.0800       0.0125    6336.8813    6336.8940    6334.4907    6334.5307       0.0400
    8528.0    4905.6800 1535646.0000    3898.9316     128.9638     129.5223       0.0122    6339.5101    6339.5223     129.5849         23     138.0800       0.0148    6336.9522    6336.9671    6334.5871    6334.6271       0.0402
    8529.0    4879.2400 1535646.0000    3898.9316     128.9628     129.5231       0.0129    6339.5910    6339.6040     129.5850         23     139.0800       0.0169    6336.9650    6336.9819    6334.6362    6334.6758       0.0396
