~VERSION INFORMATION
VERS.           2.0   :CWLS Log ASCII Standard - VERSION 2.0
WRAP.           NO    :One Line per depth step
PROD.  Schlumberger   :LAS Producer
PROG.  DLIS to ASCII 2.2                               :LAS Program name and version
CREA.        2020/10/30 12:18                          :LAS Creation date {YYYY/MM/DD hh:mm}
SOURCE.     XPT_HRLA_TLD_MCFL_066LTP.DLIS              :DLIS File Name
FILE-ID.     XPT_HRLA_TLD_MCFL_066LTP                  :File Identification Number
#--------------------------------------------------
~WELL INFORMATION
#MNEM.UNIT      DATA             DESCRIPTION
#---- ------ --------------   -----------------------------
STRT .S         3575.0       :START TIME      
STOP .S         3949.0       :STOP TIME      
STEP .S            1.0       :STEP     
NULL .          -999.25      :NULL VALUE
COMP .        Nexus Energy                             :COMPANY
WELL .        Crux-3                                   :WELL
FLD  .        Crux                                     :FIELD
LOC  .        Easting: 656981.7mE                      :LOCATION
CNTY .        Sedco-703                                :COUNTY
STAT .        Northern Territory                       :STATE
CTRY .        Australia                                :COUNTRY
API  .                                                 :API NUMBER
UWI  .                                                 :UNIQUE WELL ID
DATE .        31-Dec-2007                              :LOG DATE {DD-MMM-YYYY}
SRVC .        Schlumberger                             :SERVICE COMPANY
LATI .DEG     12*57'32.63" S                           :LATITUDE
LONG .DEG     124*26'50.07" E                          :LONGITUDE
GDAT .                                                 :GeoDetic Datum
#-----------------------------------------------------------------------------
~PARAMETER INFORMATION
#MNEM.UNIT    VALUE                      DESCRIPTION
#---- -----   --------------------       ------------------------
RUN  .          1                        :RUN NUMBER
PDAT .        LAT                        :Permanent Datum
EPD  .M           0.000000               :Elevation of Permanent Datum above Mean Sea Level
EPD  .M           0.000000               :Elevation of tool zero above Mean Sea Level
LMF  .          DF                       :Logging Measured From (Name of Logging Elevation Reference)
APD  .M          26.400000               :Elevation of Depth Reference (LMF) above Permanent Datum
#-----------------------------------------------------------------------------
~CURVE INFORMATION
#MNEM.UNIT   API CODE                                  DESCRIPTION
#---- -----  --------                                  -----------------------
TIME .S                                                :TIME {F10.1}
TENS_SL.LBF                                            :Cable Tension {F13.4}
DEPT_SL..1IN                                           :Station logging depth {F13.4}
PDEP_XPT.M                                             :XPT Probe Depth {F13.4}
MTEP_SAP.DEGC                                          :Sapphire Gauge Manometer Temperature {F13.4}
MTEP_HYD.DEGC                                          :Hydrostatic Sapphire Gauge Manometer Temperature {F13.4}
PCO_HYD.PSI                                            :Hydrostatic Sapphire Dynamic Compensation {F13.4}
PND_HYD.PSI                                            :Hydrostatic Sapphire Pressure Without Dynamic Compensation {F13.4}
CP_HYD.PSI                                             :Hydrostatic Sapphire Pressure With Dynamic Compensation {F13.4}
MTEP_QG.DEGC                                           :CQG Manometer Temperature {F13.4}
PTNO_XPT.                                              :XPT Pretest Number {I11}
ETIM_XPT.S                                             :Elapsed Logging Time {F13.4}
PCO_SAP.PSI                                            :Sapphire Dynamic Compensation {F13.4}
PND_SAP.PSI                                            :Sapphire Pressure Without Dynamic Compensation {F13.4}
CP_SAP.PSI                                             :Sapphire Pressure With Dynamic Compensation {F13.4}
QNDP .PSI                                              :CQG Pressure Without Dynamic Compensation {F13.4}
QCP  .PSI                                              :CQG Pressure With Dynamic Compensation {F13.4}
QPCO .PSI                                              :CQG Dynamic Compensation {F13.4}
#-----------------------------------------------------------------------------
# 
#     TIME      TENS_SL      DEPT_SL      PDEP_XPT     MTEP_SAP     MTEP_HYD     PCO_HYD      PND_HYD       CP_HYD      MTEP_QG       PTNO_XPT       ETIM_XPT     PCO_SAP      PND_SAP       CP_SAP        QNDP         QCP          QPCO
#
~A  
# ...
    3680.0    5088.0720 1556924.0000    3952.9780     132.4811     133.0184       0.0081    6424.7092    6424.7172     132.3318         29     105.4710      -0.0602    6421.9804    6421.9203    6418.2047    6419.0054       0.8006
    3681.0    5109.2390 1556924.0000    3952.9780     132.4808     133.0189       0.0062    6424.6650    6424.6714     132.3343         29     106.4710      -0.0714    6418.7947    6418.7232    6415.1590    6415.9276       0.7688
    3682.0    5096.1020 1556924.0000    3952.9780     132.4806     133.0204       0.0066    6424.6494    6424.6560     132.3366         29     107.4710      -0.0760    6414.6293    6414.5532    6411.1735    6411.9041       0.7306
    3683.0    5073.6450 1556924.0000    3952.9780     132.4781     133.0202       0.0096    6424.7532    6424.7628     132.3387         29     108.4710      -0.0757    6411.0239    6410.9483    6407.6014    6408.2924       0.6913
    3684.0    5045.5660 1556924.0000    3952.9780     132.4758     133.0197       0.0124    6424.7944    6424.8066     132.3407         29     109.4710      -0.0724    6406.9763    6406.9039    6403.8205    6404.4739       0.6534
    3685.0    4999.5730 1556924.0000    3952.9780     132.4743     133.0203       0.0126    6424.8439    6424.8565     132.3429         29     110.4710      -0.0665    6403.6528    6403.5864    6400.5214    6401.1396       0.6182
    3686.0    4981.8840 1556924.0000    3952.9780     132.4742     133.0202       0.0112    6424.8373    6424.8488     132.3445         29     111.4710      -0.0574    6400.5114    6400.4540    6397.4260    6398.0116       0.5856
    3687.0    5027.3320 1556924.0000    3952.9780     132.4724     133.0215       0.0104    6424.9080    6424.9183     132.3461         29     112.4710      -0.0466    6396.9370    6396.8903    6394.0438    6394.6007       0.5569
    3688.0    5037.8490 1556924.0000    3952.9780     132.4713     133.0220       0.0106    6424.9784    6424.9891     132.3480         29     113.4710      -0.0359    6393.9987    6393.9628    6391.1209    6391.6541       0.5332
    3689.0    5015.2530 1556924.0000    3952.9780     132.4723     133.0203       0.0105    6424.9221    6424.9326     132.3495         29     114.4710      -0.0256    6391.1829    6391.1572    6388.1803    6388.6951       0.5147
    3690.0    5054.4850 1556924.0000    3952.9780     132.4729     133.0210       0.0088    6424.9353    6424.9441     132.3508         29     115.4710      -0.0150    6388.4969    6388.4819    6385.4482    6385.9490       0.5009
    3691.0    5093.2530 1556924.0000    3952.9780     132.4705     133.0210       0.0063    6424.7860    6424.7922     132.3525         29     116.4710      -0.0063    6385.8680    6385.8616    6382.8854    6383.3765       0.4911
    3692.0    5099.9860 1556924.0000    3952.9780     132.4710     133.0212       0.0046    6424.8195    6424.8241     132.3540         29     117.4710      -0.0064    6384.1581    6384.1515    6381.2439    6381.7161       0.4722
    3693.0    5071.1670 1556924.0000    3952.9780     132.4729     133.0222       0.0042    6424.7670    6424.7710     132.3554         29     118.4710      -0.0552    6384.0155    6383.9603    6381.0119    6381.3730       0.3613
    3694.0    5056.6450 1556924.0000    3952.9780     132.4720     133.0224       0.0038    6424.6046    6424.6084     132.3571         29     119.4710      -0.2286    6383.8369    6383.6084    6380.9026    6380.9270       0.0245
    3695.0    5027.1530 1556924.0000    3952.9780     132.4736     133.0216       0.0026    6424.7290    6424.7316     132.3584         29     120.4710      -0.5591    6383.8202    6383.2609    6380.8084    6380.2289      -0.5795
    3696.0    4980.5150 1556924.0000    3952.9780     132.4706     133.0205       0.0019    6424.6879    6424.6898     132.3598         29     121.4710      -0.9722    6383.6457    6382.6734    6380.7018    6379.3760      -1.3256
    3697.0    4954.9350 1556924.0000    3952.9780     132.4705     133.0227       0.0045    6424.7666    6424.7710     132.3612         29     122.4710      -1.3831    6383.4210    6382.0377    6380.5753    6378.4171      -2.1584
    3698.0    4962.5430 1556924.0000    3952.9780     132.4292     133.0214       0.0074    6424.7867    6424.7941     132.3489         30     123.4710      -1.4958    6081.0814    6079.5854    6083.7120    6081.1797      -2.5322
    3699.0    4993.6590 1556924.0000    3952.9780     132.3450     133.0220       0.0104    6424.9233    6424.9335     132.3267         30     124.4710      -1.4281    5615.4209    5613.9927    5622.8612    5620.0868      -2.7744
    3700.0    5025.9560 1556924.0000    3952.9780     132.3076     133.0215       0.0107    6424.8138    6424.8246     132.3174         30     125.4710      -0.9790    5463.0314    5462.0524    5470.7912    5468.2018      -2.5894
    3701.0    5069.0210 1556924.0000    3952.9780     132.2947     133.0227       0.0096    6424.7798    6424.7893     132.3104         30     126.4710      -0.5315    5396.6305    5396.0991    5403.7048    5401.4855      -2.2194
    3702.0    5106.3620 1556924.0000    3952.9780     132.2921     133.0220       0.0087    6424.7558    6424.7646     132.3024         30     127.4710       0.0908    5358.5058    5358.5967    5364.4343    5362.8099      -1.6244
    3703.0    5120.3550 1556924.0000    3952.9780     132.3223     133.0242       0.0087    6424.6682    6424.6770     132.3030         30     128.4710       0.5919    5495.5464    5496.1381    5497.2454    5496.1585      -1.0868
    3704.0    5123.0000 1556924.0000    3952.9780     132.3601     133.0223       0.0086    6424.6538    6424.6626     132.3046         30     129.4710       0.8673    5644.5597    5645.4268    5643.3000    5642.5905      -0.7097
    3705.0    5104.6310 1556924.0000    3952.9780     132.3842     133.0241       0.0080    6424.5995    6424.6073     132.3022         30     130.4710       0.9205    5686.1200    5687.0406    5683.3266    5682.8401      -0.4865
    3706.0    5073.6380 1556924.0000    3952.9780     132.3952     133.0234       0.0079    6424.6525    6424.6603     132.2996         30     131.4710       0.8108    5694.1539    5694.9647    5691.0040    5690.6304      -0.3736
    3707.0    5055.4060 1556924.0000    3952.9780     132.4051     133.0227       0.0091    6424.7061    6424.7151     132.2979         30     132.4710       0.6275    5695.4461    5696.0737    5692.2547    5691.9502      -0.3044
    3708.0    5042.3480 1556924.0000    3952.9780     132.4106     133.0250       0.0108    6424.7310    6424.7417     132.2968         30     133.4710       0.4538    5695.3698    5695.8235    5692.2018    5691.9906      -0.2115
    3709.0    5031.7610 1556924.0000    3952.9780     132.4172     133.0235       0.0110    6424.7745    6424.7856     132.2966         30     134.4710       0.3334    5695.4228    5695.7563    5692.1365    5692.0624      -0.0740
    3710.0    5018.0510 1556924.0000    3952.9780     132.4214     133.0240       0.0096    6424.7202    6424.7296     132.2968         30     135.4710       0.2618    5695.3666    5695.6283    5692.0793    5692.1581       0.0786
    3711.0    4991.5150 1556924.0000    3952.9780     132.4261     133.0243       0.0080    6424.7832    6424.7911     132.2973         30     136.4710       0.2174    5695.2625    5695.4799    5692.0184    5692.2311       0.2126
    3712.0    4983.8330 1556924.0000    3952.9780     132.4280     133.0254       0.0064    6424.7497    6424.7559     132.2985         30     137.4710       0.1879    5695.1743    5695.3622    5691.9592    5692.2802       0.3209
    3713.0    4974.3340 1556924.0000    3952.9780     132.4303     133.0237       0.0044    6424.6733    6424.6779     132.2995         30     138.4710       0.1653    5695.1253    5695.2907    5691.9063    5692.3137       0.4075
    3714.0    4992.3900 1556924.0000    3952.9780     132.4337     133.0250       0.0031    6424.7642    6424.7671     132.3012         30     139.4710       0.1458    5695.1487    5695.2943    5691.8733    5692.3514       0.4780
