~VERSION INFORMATION
VERS.           2.0   :CWLS Log ASCII Standard - VERSION 2.0
WRAP.           NO    :One Line per depth step
PROD.  Schlumberger   :LAS Producer
PROG.  DLIS to ASCII 2.2                               :LAS Program name and version
CREA.        2020/10/30 12:18                          :LAS Creation date {YYYY/MM/DD hh:mm}
SOURCE.     XPT_HRLA_TLD_MCFL_057LTP.DLIS              :DLIS File Name
FILE-ID.     XPT_HRLA_TLD_MCFL_057LTP                  :File Identification Number
#--------------------------------------------------
~WELL INFORMATION
#MNEM.UNIT      DATA             DESCRIPTION
#---- ------ --------------   -----------------------------
STRT .S         6912.0       :START TIME      
STOP .S         7441.0       :STOP TIME      
STEP .S            1.0       :STEP     
NULL .          -999.25      :NULL VALUE
COMP .        Nexus Energy                             :COMPANY
WELL .        Crux-3                                   :WELL
FLD  .        Crux                                     :FIELD
LOC  .        Easting: 656981.7mE                      :LOCATION
CNTY .        Sedco-703                                :COUNTY
STAT .        Northern Territory                       :STATE
CTRY .        Australia                                :COUNTRY
API  .                                                 :API NUMBER
UWI  .                                                 :UNIQUE WELL ID
DATE .        31-Dec-2007                              :LOG DATE {DD-MMM-YYYY}
SRVC .        Schlumberger                             :SERVICE COMPANY
LATI .DEG     12*57'32.63" S                           :LATITUDE
LONG .DEG     124*26'50.07" E                          :LONGITUDE
GDAT .                                                 :GeoDetic Datum
#-----------------------------------------------------------------------------
~PARAMETER INFORMATION
#MNEM.UNIT    VALUE                      DESCRIPTION
#---- -----   --------------------       ------------------------
RUN  .          1                        :RUN NUMBER
PDAT .        LAT                        :Permanent Datum
EPD  .M           0.000000               :Elevation of Permanent Datum above Mean Sea Level
EPD  .M           0.000000               :Elevation of tool zero above Mean Sea Level
LMF  .          DF                       :Logging Measured From (Name of Logging Elevation Reference)
APD  .M          26.400000               :Elevation of Depth Reference (LMF) above Permanent Datum
#-----------------------------------------------------------------------------
~CURVE INFORMATION
#MNEM.UNIT   API CODE                                  DESCRIPTION
#---- -----  --------                                  -----------------------
TIME .S                                                :TIME {F10.1}
TENS_SL.LBF                                            :Cable Tension {F13.4}
DEPT_SL..1IN                                           :Station logging depth {F13.4}
PDEP_XPT.M                                             :XPT Probe Depth {F13.4}
MTEP_SAP.DEGC                                          :Sapphire Gauge Manometer Temperature {F13.4}
MTEP_HYD.DEGC                                          :Hydrostatic Sapphire Gauge Manometer Temperature {F13.4}
PCO_HYD.PSI                                            :Hydrostatic Sapphire Dynamic Compensation {F13.4}
PND_HYD.PSI                                            :Hydrostatic Sapphire Pressure Without Dynamic Compensation {F13.4}
CP_HYD.PSI                                             :Hydrostatic Sapphire Pressure With Dynamic Compensation {F13.4}
MTEP_QG.DEGC                                           :CQG Manometer Temperature {F13.4}
PTNO_XPT.                                              :XPT Pretest Number {I11}
ETIM_XPT.S                                             :Elapsed Logging Time {F13.4}
PCO_SAP.PSI                                            :Sapphire Dynamic Compensation {F13.4}
PND_SAP.PSI                                            :Sapphire Pressure Without Dynamic Compensation {F13.4}
CP_SAP.PSI                                             :Sapphire Pressure With Dynamic Compensation {F13.4}
QNDP .PSI                                              :CQG Pressure Without Dynamic Compensation {F13.4}
QCP  .PSI                                              :CQG Pressure With Dynamic Compensation {F13.4}
QPCO .PSI                                              :CQG Dynamic Compensation {F13.4}
#-----------------------------------------------------------------------------
# 
#     TIME      TENS_SL      DEPT_SL      PDEP_XPT     MTEP_SAP     MTEP_HYD     PCO_HYD      PND_HYD       CP_HYD      MTEP_QG       PTNO_XPT       ETIM_XPT     PCO_SAP      PND_SAP       CP_SAP        QNDP         QCP          QPCO
#
~A  
# ...
    7087.0    5003.9370 1526236.0000    3875.0305     129.2525     129.7583      -0.0565    6300.7682    6300.7116     129.9690         19     175.0105      -0.0433    5601.6025    5601.5594    5599.4117    5599.3581      -0.0538
    7088.0    4997.9685 1526236.0000    3875.0305     129.2503     129.7580      -0.0575    6300.7426    6300.6851     129.9688         19     176.0105      -0.0439    5601.6164    5601.5724    5599.3953    5599.3384      -0.0568
    7089.0    4995.0735 1526236.0000    3875.0305     129.2501     129.7561      -0.0587    6300.7177    6300.6591     129.9688         19     177.0105      -0.0438    5601.5803    5601.5364    5599.3870    5599.3274      -0.0597
    7090.0    5002.1260 1526236.0000    3875.0305     129.2501     129.7557      -0.0583    6300.6421    6300.5837     129.9685         19     178.0105      -0.0439    5601.6008    5601.5569    5599.3742    5599.3115      -0.0626
    7091.0    5013.3910 1526236.0000    3875.0305     129.2494     129.7538      -0.0559    6300.7222    6300.6663     129.9681         19     179.0105      -0.0438    5601.6748    5601.6309    5599.3659    5599.3003      -0.0655
    7092.0    4955.2440 1526236.0000    3875.0305     129.2468     129.7530      -0.0538    6300.7203    6300.6666     129.9680         19     180.0105      -0.0442    5601.4959    5601.4515    5599.3558    5599.2879      -0.0678
    7093.0    4883.7375 1526236.0000    3875.0305     129.2470     129.7520      -0.0531    6300.7611    6300.7079     129.9678         19     181.0105      -0.0460    5601.4939    5601.4479    5599.3454    5599.2754      -0.0698
    7094.0    4859.2415 1526236.0000    3875.0305     129.2470     129.7512      -0.0529    6300.8512    6300.7983     129.9676         19     182.0105      -0.0478    5601.5265    5601.4788    5599.3393    5599.2673      -0.0719
    7095.0    4881.9790 1526236.0000    3875.0305     129.2460     129.7507      -0.0513    6300.7852    6300.7339     129.9676         19     183.0105      -0.0492    5601.5467    5601.4973    5599.3338    5599.2595      -0.0740
    7096.0    4880.0735 1526236.0000    3875.0305     129.2444     129.7499      -0.0489    6300.7954    6300.7464     129.9673         19     184.0105      -0.0504    5601.5060    5601.4555    5599.3267    5599.2504      -0.0762
    7097.0    4887.0840 1526236.0000    3875.0305     129.2426     129.7469      -0.0484    6300.8530    6300.8047     129.9669         19     185.0105      -0.0513    5601.4102    5601.3589    5599.3199    5599.2415      -0.0782
    7098.0    4894.9790 1526236.0000    3875.0305     129.2423     129.7473      -0.0493    6300.8092    6300.7599     129.9665         19     186.0105      -0.0501    5601.5129    5601.4627    5599.3175    5599.2370      -0.0806
    7099.0    4892.8215 1526236.0000    3875.0305     129.2426     129.7466      -0.0494    6300.8431    6300.7937     129.9664         19     187.0105      -0.0463    5601.4882    5601.4419    5599.3078    5599.2249      -0.0828
    7100.0    4875.6955 1526236.0000    3875.0305     129.2400     129.7464      -0.0483    6300.8722    6300.8239     129.9660         19     188.0105      -0.0426    5601.4052    5601.3625    5599.2976    5599.2128      -0.0848
    7101.0    4846.8005 1526236.0000    3875.0305     129.2386     129.7439      -0.0487    6300.7737    6300.7248     129.9661         19     189.0105      -0.0407    5601.3618    5601.3213    5599.2973    5599.2104      -0.0868
    7102.0    4828.0210 1526236.0000    3875.0305     129.2399     129.7439      -0.0515    6300.7720    6300.7203     129.9656         19     190.0105      -0.0396    5601.4315    5601.3919    5599.2893    5599.2002      -0.0890
    7103.0    4829.9055 1526236.0000    3875.0305     129.2385     129.7429      -0.0541    6300.8226    6300.7686     129.9652         19     191.0105      -0.0390    5601.4401    5601.4011    5599.2880    5599.1969      -0.0913
    7104.0    4821.0210 1526236.0000    3875.0305     129.2353     129.7423      -0.0539    6300.9354    6300.8817     129.9651         19     192.0105      -0.0398    5601.3936    5601.3535    5599.2800    5599.1872      -0.0929
    7105.0    4823.5670 1526236.0000    3875.0305     129.2372     129.7416      -0.0516    6300.9287    6300.8771     129.9648         19     193.0105      -0.0415    5601.4762    5601.4347    5599.2775    5599.1831      -0.0944
    7106.0    4877.9765 1526236.0000    3875.0305     129.2363     129.7395      -0.0504    6300.7947    6300.7443     129.9644         19     194.0105      -0.0419    5601.4653    5601.4233    5599.2732    5599.1768      -0.0963
    7107.0    4970.6510 1526236.0000    3875.0305     129.2349     129.7393      -0.0501    6300.9029    6300.8527     129.9638         19     195.0105      -0.0412    5601.3309    5601.2899    5599.2696    5599.1709      -0.0985
    7108.0    5031.6640 1526236.0000    3875.0305     129.2334     129.7390      -0.0491    6300.8184    6300.7693     129.9638         19     196.0105      -0.0415    5601.4424    5601.4009    5599.2654    5599.1652      -0.1004
    7109.0    4999.9790 1526236.0000    3875.0305     129.2332     129.7384      -0.0479    6300.7881    6300.7403     129.9634         19     197.0105      -0.0432    5601.3957    5601.3524    5599.2598    5599.1574      -0.1024
    7110.0    4997.4120 1526236.0000    3875.0305     129.2341     129.7355      -0.0487    6300.6217    6300.5729     129.9631         19     198.0105      -0.0450    5601.4137    5601.3688    5599.2564    5599.1514      -0.1048
    7111.0    4941.0970 1526236.0000    3875.0305     129.2325     129.7355      -0.0515    6300.7044    6300.6528     129.9627         19     199.0105      -0.0466    5601.3550    5601.3084    5599.2609    5599.1538      -0.1072
    7112.0    4856.5460 1526236.0000    3875.0305     129.2307     129.7353      -0.0530    6300.8148    6300.7617     129.9626         19     200.0105      -0.0488    5601.4394    5601.3907    5599.2554    5599.1467      -0.1089
    7113.0    4907.1180 1526236.0000    3875.0305     129.2285     129.7332      -0.0526    6300.6641    6300.6113     129.9620         19     201.0105      -0.0509    5601.3335    5601.2827    5599.2563    5599.1460      -0.1105
    7114.0    4824.5355 1526236.0000    3875.0305     129.2293     129.7329      -0.0524    6300.9410    6300.8887     129.9617         19     202.0105      -0.0515    5601.3236    5601.2720    5599.2506    5599.1388      -0.1119
    7115.0    4875.0840 1526236.0000    3875.0305     129.2279     129.7313      -0.0540    6300.9255    6300.8715     129.9615         19     203.0105      -0.0502    5601.3580    5601.3079    5599.2508    5599.1380      -0.1126
    7116.0    4883.7140 1526236.0000    3875.0305     129.2267     129.7309      -0.0558    6300.8211    6300.7654     129.9612         19     204.0105      -0.0474    5601.4332    5601.3859    5599.2467    5599.1334      -0.1133
    7117.0    4951.9030 1526236.0000    3875.0305     129.2273     129.7306      -0.0563    6300.8719    6300.8158     129.9608         19     205.0105      -0.0445    5601.3700    5601.3255    5599.2455    5599.1310      -0.1144
    7118.0    5036.8635 1526236.0000    3875.0305     129.2270     129.7290      -0.0558    6300.7944    6300.7388     129.9606         19     206.0105      -0.0426    5601.3923    5601.3498    5599.2437    5599.1276      -0.1162
    7119.0    5023.8845 1526236.0000    3875.0305     129.2244     129.7278      -0.0555    6300.6875    6300.6318     129.9598         19     207.0105      -0.0425    5601.3571    5601.3146    5599.2397    5599.1220      -0.1176
    7120.0    5012.4540 1526236.0000    3875.0305     129.2235     129.7269      -0.0545    6300.6283    6300.5738     129.9596         19     208.0105      -0.0436    5601.3287    5601.2851    5599.2373    5599.1185      -0.1189
    7121.0    4961.0105 1526236.0000    3875.0305     129.2238     129.7248      -0.0523    6300.6604    6300.6083     129.9592         19     209.0105      -0.0443    5601.4102    5601.3658    5599.2424    5599.1216      -0.1207
