~VERSION INFORMATION
VERS.           2.0   :CWLS Log ASCII Standard - VERSION 2.0
WRAP.           NO    :One Line per depth step
PROD.  Schlumberger   :LAS Producer
PROG.  DLIS to ASCII 2.2                               :LAS Program name and version
CREA.        2020/10/30 12:18                          :LAS Creation date {YYYY/MM/DD hh:mm}
SOURCE.     XPT_HRLA_TLD_MCFL_046LTP.DLIS              :DLIS File Name
FILE-ID.     XPT_HRLA_TLD_MCFL_046LTP                  :File Identification Number
#--------------------------------------------------
~WELL INFORMATION
#MNEM.UNIT      DATA             DESCRIPTION
#---- ------ --------------   -----------------------------
STRT .S         4617.0       :START TIME      
STOP .S         5507.0       :STOP TIME      
STEP .S            1.0       :STEP     
NULL .          -999.25      :NULL VALUE
COMP .        Nexus Energy                             :COMPANY
WELL .        Crux-3                                   :WELL
FLD  .        Crux                                     :FIELD
LOC  .        Easting: 656981.7mE                      :LOCATION
CNTY .        Sedco-703                                :COUNTY
STAT .        Northern Territory                       :STATE
CTRY .        Australia                                :COUNTRY
API  .                                                 :API NUMBER
UWI  .                                                 :UNIQUE WELL ID
DATE .        31-Dec-2007                              :LOG DATE {DD-MMM-YYYY}
SRVC .        Schlumberger                             :SERVICE COMPANY
LATI .DEG     12*57'32.63" S                           :LATITUDE
LONG .DEG     124*26'50.07" E                          :LONGITUDE
GDAT .                                                 :GeoDetic Datum
#-----------------------------------------------------------------------------
~PARAMETER INFORMATION
#MNEM.UNIT    VALUE                      DESCRIPTION
#---- -----   --------------------       ------------------------
RUN  .          1                        :RUN NUMBER
PDAT .        LAT                        :Permanent Datum
EPD  .M           0.000000               :Elevation of Permanent Datum above Mean Sea Level
EPD  .M           0.000000               :Elevation of tool zero above Mean Sea Level
LMF  .          DF                       :Logging Measured From (Name of Logging Elevation Reference)
APD  .M          26.400000               :Elevation of Depth Reference (LMF) above Permanent Datum
#-----------------------------------------------------------------------------
~CURVE INFORMATION
#MNEM.UNIT   API CODE                                  DESCRIPTION
#---- -----  --------                                  -----------------------
TIME .S                                                :TIME {F10.1}
TENS_SL.LBF                                            :Cable Tension {F13.4}
DEPT_SL..1IN                                           :Station logging depth {F13.4}
PDEP_XPT.M                                             :XPT Probe Depth {F13.4}
MTEP_SAP.DEGC                                          :Sapphire Gauge Manometer Temperature {F13.4}
MTEP_HYD.DEGC                                          :Hydrostatic Sapphire Gauge Manometer Temperature {F13.4}
PCO_HYD.PSI                                            :Hydrostatic Sapphire Dynamic Compensation {F13.4}
PND_HYD.PSI                                            :Hydrostatic Sapphire Pressure Without Dynamic Compensation {F13.4}
CP_HYD.PSI                                             :Hydrostatic Sapphire Pressure With Dynamic Compensation {F13.4}
MTEP_QG.DEGC                                           :CQG Manometer Temperature {F13.4}
PTNO_XPT.                                              :XPT Pretest Number {I11}
ETIM_XPT.S                                             :Elapsed Logging Time {F13.4}
PCO_SAP.PSI                                            :Sapphire Dynamic Compensation {F13.4}
PND_SAP.PSI                                            :Sapphire Pressure Without Dynamic Compensation {F13.4}
CP_SAP.PSI                                             :Sapphire Pressure With Dynamic Compensation {F13.4}
QNDP .PSI                                              :CQG Pressure Without Dynamic Compensation {F13.4}
QCP  .PSI                                              :CQG Pressure With Dynamic Compensation {F13.4}
QPCO .PSI                                              :CQG Dynamic Compensation {F13.4}
#-----------------------------------------------------------------------------
# 
#     TIME      TENS_SL      DEPT_SL      PDEP_XPT     MTEP_SAP     MTEP_HYD     PCO_HYD      PND_HYD       CP_HYD      MTEP_QG       PTNO_XPT       ETIM_XPT     PCO_SAP      PND_SAP       CP_SAP        QNDP         QCP          QPCO
#
~A  
# ...
    5387.0    4700.0000 1443523.0000    3664.9392     121.9059     122.4826       0.0160    5967.7286    5967.7448     122.5093         10     769.6870       0.0055    5527.2864    5527.2919    5524.6608    5524.7003       0.0394
    5388.0    4728.1670 1443523.0000    3664.9392     121.9054     122.4839       0.0163    5967.8735    5967.8897     122.5095         10     770.6870       0.0076    5527.2532    5527.2610    5524.6739    5524.7135       0.0397
    5389.0    4714.2070 1443523.0000    3664.9392     121.9091     122.4837       0.0170    5967.8953    5967.9124     122.5096         10     771.6870       0.0091    5527.4199    5527.4288    5524.6802    5524.7199       0.0398
    5390.0    4702.6870 1443523.0000    3664.9392     121.9068     122.4843       0.0167    5967.8358    5967.8526     122.5098         10     772.6870       0.0103    5527.3281    5527.3383    5524.6868    5524.7269       0.0400
    5391.0    4724.9840 1443523.0000    3664.9392     121.9085     122.4832       0.0140    5967.6898    5967.7040     122.5097         10     773.6870       0.0108    5527.4022    5527.4129    5524.6902    5524.7293       0.0393
    5392.0    4759.7320 1443523.0000    3664.9392     121.9068     122.4847       0.0100    5967.8252    5967.8352     122.5101         10     774.6870       0.0107    5527.3114    5527.3222    5524.7025    5524.7409       0.0383
    5393.0    4782.6790 1443523.0000    3664.9392     121.9072     122.4841       0.0075    5967.7296    5967.7371     122.5100         10     775.6870       0.0101    5527.3090    5527.3192    5524.7052    5524.7428       0.0374
    5394.0    4793.4960 1443523.0000    3664.9392     121.9068     122.4862       0.0074    5967.7809    5967.7882     122.5105         10     776.6870       0.0105    5527.3463    5527.3566    5524.7174    5524.7545       0.0371
    5395.0    4801.4960 1443523.0000    3664.9392     121.9098     122.4847       0.0077    5967.7651    5967.7729     122.5103         10     777.6870       0.0124    5527.4193    5527.4316    5524.7143    5524.7514       0.0372
    5396.0    4802.6260 1443523.0000    3664.9392     121.9095     122.4846       0.0070    5967.7046    5967.7117     122.5104         10     778.6870       0.0140    5527.3480    5527.3619    5524.7298    5524.7670       0.0373
    5397.0    4802.0000 1443523.0000    3664.9392     121.9091     122.4854       0.0068    5967.7117    5967.7186     122.5102         10     779.6870       0.0130    5527.3711    5527.3844    5524.7357    5524.7733       0.0378
    5398.0    4814.3660 1443523.0000    3664.9392     121.9086     122.4854       0.0080    5967.7222    5967.7301     122.5108         10     780.6870       0.0095    5527.2929    5527.3024    5524.7423    5524.7809       0.0386
    5399.0    4820.6870 1443523.0000    3664.9392     121.9101     122.4859       0.0090    5967.7442    5967.7530     122.5109         10     781.6870       0.0061    5527.4315    5527.4378    5524.7493    5524.7888       0.0396
    5400.0    4814.1300 1443523.0000    3664.9392     121.9083     122.4854       0.0081    5967.6564    5967.6647     122.5109         10     782.6870       0.0042    5527.2835    5527.2879    5524.7527    5524.7932       0.0403
    5401.0    4787.6420 1443523.0000    3664.9392     121.9090     122.4849       0.0070    5967.7501    5967.7570     122.5111         10     783.6870       0.0035    5527.4034    5527.4070    5524.7619    5524.8028       0.0408
    5402.0    4739.2150 1443523.0000    3664.9392     121.9098     122.4862       0.0071    5967.7212    5967.7283     122.5113         10     784.6870       0.0041    5527.4544    5527.4586    5524.7735    5524.8143       0.0408
    5403.0    4697.9550 1443523.0000    3664.9392     121.9098     122.4862       0.0075    5967.6629    5967.6702     122.5113         10     785.6870       0.0055    5527.4096    5527.4150    5524.7763    5524.8169       0.0406
    5404.0    4686.3130 1443523.0000    3664.9392     121.9100     122.4849       0.0070    5967.6655    5967.6724     122.5116         10     786.6870       0.0073    5527.4467    5527.4542    5524.7866    5524.8265       0.0399
    5405.0    4680.5040 1443523.0000    3664.9392     121.9095     122.4867       0.0071    5967.8874    5967.8945     122.5117         10     787.6870       0.0094    5527.3849    5527.3943    5524.7917    5524.8308       0.0391
    5406.0    4693.8010 1443523.0000    3664.9392     121.9092     122.4877       0.0091    5967.7969    5967.8061     122.5120         10     788.6870       0.0125    5527.4317    5527.4444    5524.8010    5524.8396       0.0384
    5407.0    4728.4800 1443523.0000    3664.9392     121.9113     122.4858       0.0111    5967.7420    5967.7533     122.5121         10     789.6870       0.0163    5527.4742    5527.4906    5524.8025    5524.8406       0.0382
    5408.0    4776.7240 1443523.0000    3664.9392     121.9103     122.4868       0.0117    5967.7032    5967.7150     122.5119         10     790.6870       0.0185    5527.4218    5527.4404    5524.8066    5524.8450       0.0384
    5409.0    4818.4190 1443523.0000    3664.9392     121.9088     122.4870       0.0120    5967.7013    5967.7135     122.5121         10     791.6870       0.0182    5527.4594    5527.4775    5524.8184    5524.8570       0.0387
    5410.0    4833.4350 1443523.0000    3664.9392     121.9113     122.4870       0.0148    5967.7468    5967.7617     122.5121         10     792.6870       0.0164    5527.5424    5527.5588    5524.8172    5524.8563       0.0390
    5411.0    4825.3820 1443523.0000    3664.9392     121.9121     122.4885       0.0194    5967.7451    5967.7646     122.5125         10     793.6870       0.0140    5527.4717    5527.4857    5524.8224    5524.8620       0.0395
    5412.0    4810.6950 1443523.0000    3664.9392     121.9117     122.4877       0.0224    5967.6492    5967.6717     122.5122         10     794.6870       0.0107    5527.4572    5527.4679    5524.8240    5524.8635       0.0398
    5413.0    4787.4510 1443523.0000    3664.9392     121.9110     122.4874       0.0207    5967.6961    5967.7168     122.5126         10     795.6870       0.0065    5527.4588    5527.4653    5524.8337    5524.8738       0.0399
    5414.0    4730.2230 1443523.0000    3664.9392     121.9120     122.4885       0.0158    5967.7227    5967.7386     122.5127         10     796.6870       0.0032    5527.5902    5527.5933    5524.8427    5524.8823       0.0397
    5415.0    4708.0000 1443523.0000    3664.9392     121.9106     122.4900       0.0111    5967.7609    5967.7721     122.5126         10     797.6870       0.0021    5527.5085    5527.5105    5524.8504    5524.8904       0.0399
    5416.0    4702.5040 1443523.0000    3664.9392     121.9109     122.4905       0.0079    5967.8478    5967.8559     122.5131         10     798.6870       0.0034    5527.5217    5527.5252    5524.8576    5524.8981       0.0406
    5417.0    4697.9390 1443523.0000    3664.9392     121.9127     122.4883       0.0063    5967.8401    5967.8464     122.5132         10     799.6870       0.0058    5527.5350    5527.5406    5524.8642    5524.9052       0.0411
    5418.0    4695.6260 1443523.0000    3664.9392     121.9110     122.4885       0.0063    5967.8628    5967.8692     122.5133         10     800.6870       0.0073    5527.4495    5527.4568    5524.8673    5524.9083       0.0412
    5419.0    4767.8220 1443523.0000    3664.9392     121.9112     122.4877       0.0092    5967.7373    5967.7465     122.5136         10     801.6870       0.0085    5527.5040    5527.5124    5524.8725    5524.9130       0.0406
    5420.0    4792.0690 1443523.0000    3664.9392     121.9133     122.4886       0.0139    5967.7092    5967.7233     122.5136         10     802.6870       0.0102    5527.5408    5527.5508    5524.8801    5524.9201       0.0400
    5421.0    4805.8620 1443523.0000    3664.9392     121.9129     122.4900       0.0175    5967.7012    5967.7187     122.5139         10     803.6870       0.0120    5527.5838    5527.5960    5524.8777    5524.9178       0.0399
