~VERSION INFORMATION
VERS.           2.0   :CWLS Log ASCII Standard - VERSION 2.0
WRAP.           NO    :One Line per depth step
PROD.  Schlumberger   :LAS Producer
PROG.  DLIS to ASCII 2.2                               :LAS Program name and version
CREA.        2020/10/30 12:18                          :LAS Creation date {YYYY/MM/DD hh:mm}
SOURCE.     XPT_HRLA_TLD_MCFL_060LTP.DLIS              :DLIS File Name
FILE-ID.     XPT_HRLA_TLD_MCFL_060LTP                  :File Identification Number
#--------------------------------------------------
~WELL INFORMATION
#MNEM.UNIT      DATA             DESCRIPTION
#---- ------ --------------   -----------------------------
STRT .S         8759.0       :START TIME      
STOP .S         8943.0       :STOP TIME      
STEP .S            1.0       :STEP     
NULL .          -999.25      :NULL VALUE
COMP .        Nexus Energy                             :COMPANY
WELL .        Crux-3                                   :WELL
FLD  .        Crux                                     :FIELD
LOC  .        Easting: 656981.7mE                      :LOCATION
CNTY .        Sedco-703                                :COUNTY
STAT .        Northern Territory                       :STATE
CTRY .        Australia                                :COUNTRY
API  .                                                 :API NUMBER
UWI  .                                                 :UNIQUE WELL ID
DATE .        31-Dec-2007                              :LOG DATE {DD-MMM-YYYY}
SRVC .        Schlumberger                             :SERVICE COMPANY
LATI .DEG     12*57'32.63" S                           :LATITUDE
LONG .DEG     124*26'50.07" E                          :LONGITUDE
GDAT .                                                 :GeoDetic Datum
#-----------------------------------------------------------------------------
~PARAMETER INFORMATION
#MNEM.UNIT    VALUE                      DESCRIPTION
#---- -----   --------------------       ------------------------
RUN  .          1                        :RUN NUMBER
PDAT .        LAT                        :Permanent Datum
EPD  .M           0.000000               :Elevation of Permanent Datum above Mean Sea Level
EPD  .M           0.000000               :Elevation of tool zero above Mean Sea Level
LMF  .          DF                       :Logging Measured From (Name of Logging Elevation Reference)
APD  .M          26.400000               :Elevation of Depth Reference (LMF) above Permanent Datum
#-----------------------------------------------------------------------------
~CURVE INFORMATION
#MNEM.UNIT   API CODE                                  DESCRIPTION
#---- -----  --------                                  -----------------------
TIME .S                                                :TIME {F10.1}
TENS_SL.LBF                                            :Cable Tension {F13.4}
DEPT_SL..1IN                                           :Station logging depth {F13.4}
PDEP_XPT.M                                             :XPT Probe Depth {F13.4}
MTEP_SAP.DEGC                                          :Sapphire Gauge Manometer Temperature {F13.4}
MTEP_HYD.DEGC                                          :Hydrostatic Sapphire Gauge Manometer Temperature {F13.4}
PCO_HYD.PSI                                            :Hydrostatic Sapphire Dynamic Compensation {F13.4}
PND_HYD.PSI                                            :Hydrostatic Sapphire Pressure Without Dynamic Compensation {F13.4}
CP_HYD.PSI                                             :Hydrostatic Sapphire Pressure With Dynamic Compensation {F13.4}
MTEP_QG.DEGC                                           :CQG Manometer Temperature {F13.4}
PTNO_XPT.                                              :XPT Pretest Number {I11}
ETIM_XPT.S                                             :Elapsed Logging Time {F13.4}
PCO_SAP.PSI                                            :Sapphire Dynamic Compensation {F13.4}
PND_SAP.PSI                                            :Sapphire Pressure Without Dynamic Compensation {F13.4}
CP_SAP.PSI                                             :Sapphire Pressure With Dynamic Compensation {F13.4}
QNDP .PSI                                              :CQG Pressure Without Dynamic Compensation {F13.4}
QCP  .PSI                                              :CQG Pressure With Dynamic Compensation {F13.4}
QPCO .PSI                                              :CQG Dynamic Compensation {F13.4}
#-----------------------------------------------------------------------------
# 
#     TIME      TENS_SL      DEPT_SL      PDEP_XPT     MTEP_SAP     MTEP_HYD     PCO_HYD      PND_HYD       CP_HYD      MTEP_QG       PTNO_XPT       ETIM_XPT     PCO_SAP      PND_SAP       CP_SAP        QNDP         QCP          QPCO
#
~A  
# ...
    8829.0    5104.0540 1538425.0000    3905.9902     129.0411     129.5993       0.0291    6350.3896    6350.4190     129.6334         24      70.0020       0.0190    6347.8816    6347.9005    6345.5166    6345.5898       0.0733
    8830.0    5130.9960 1538425.0000    3905.9902     129.0420     129.6016       0.0329    6350.4146    6350.4476     129.6337         24      71.0020       0.0211    6347.8239    6347.8450    6345.5063    6345.5798       0.0736
    8831.0    5128.9260 1538425.0000    3905.9902     129.0435     129.6000       0.0331    6350.2764    6350.3096     129.6338         24      72.0020       0.0229    6347.9078    6347.9308    6345.4567    6345.5309       0.0741
    8832.0    5091.8840 1538425.0000    3905.9902     129.0430     129.6006       0.0307    6350.3636    6350.3942     129.6342         24      73.0020       0.0246    6348.0073    6348.0319    6345.5663    6345.6410       0.0745
    8833.0    5033.9600 1538425.0000    3905.9902     129.0440     129.6021       0.0281    6350.4599    6350.4879     129.6344         24      74.0020       0.0263    6348.0446    6348.0710    6345.6009    6345.6753       0.0742
    8834.0    5013.9940 1538425.0000    3905.9902     129.0431     129.6024       0.0253    6350.6027    6350.6280     129.6349         24      75.0020       0.0240    6348.0260    6348.0500    6345.6161    6345.6830       0.0670
    8835.0    5010.9340 1538425.0000    3905.9902     129.0429     129.6028       0.0205    6350.4876    6350.5081     129.6350         24      76.0020       0.0117    6348.0661    6348.0778    6345.6254    6345.6712       0.0457
    8836.0    4978.0300 1538425.0000    3905.9902     129.0460     129.6034       0.0142    6350.5544    6350.5687     129.6352         24      77.0020      -0.0105    6348.1244    6348.1137    6345.6643    6345.6754       0.0111
    8837.0    4993.0860 1538425.0000    3905.9902     129.0446     129.6024       0.0090    6350.5435    6350.5523     129.6355         24      78.0020      -0.0356    6347.9810    6347.9453    6345.6314    6345.6040      -0.0274
    8838.0    5036.1520 1538425.0000    3905.9902     129.0450     129.6036       0.0068    6350.5173    6350.5241     129.6356         24      79.0020      -0.0555    6350.6894    6350.6337    6346.4788    6346.4176      -0.0613
    8839.0    5112.0000 1538425.0000    3905.9902     129.0417     129.6031       0.0066    6350.5518    6350.5584     129.6348         24      80.0020      -0.0664    6326.0269    6325.9606    6324.1045    6324.0152      -0.0892
    8840.0    5112.0200 1538425.0000    3905.9902     129.0377     129.6023       0.0076    6350.3018    6350.3096     129.6338         24      81.0020      -0.0672    6297.0537    6296.9863    6295.2515    6295.1411      -0.1104
    8841.0    5122.0220 1538425.0000    3905.9902     129.0374     129.6029       0.0120    6350.3484    6350.3603     129.6339         24      82.0020      -0.0580    6296.7443    6296.6865    6294.9177    6294.7959      -0.1218
    8842.0    5132.9120 1538425.0000    3905.9902     129.0373     129.6039       0.0193    6350.4797    6350.4990     129.6334         24      83.0020      -0.0423    6293.9602    6293.9179    6291.6153    6291.4905      -0.1248
    8843.0    5088.8320 1538425.0000    3905.9902     129.0375     129.6039       0.0260    6350.4995    6350.5254     129.6331         24      84.0020      -0.0259    6292.8777    6292.8518    6289.2457    6289.1202      -0.1256
    8844.0    5005.0380 1538425.0000    3905.9902     129.0380     129.6039       0.0292    6350.4995    6350.5285     129.6329         24      85.0020      -0.0132    6289.4170    6289.4038    6285.6997    6285.5719      -0.1279
    8845.0    5023.8740 1538425.0000    3905.9902     129.0384     129.6058       0.0302    6350.5928    6350.6231     129.6324         24      86.0020      -0.0050    6282.0381    6282.0331    6280.2351    6280.1036      -0.1315
    8846.0    4961.1100 1538425.0000    3905.9902     129.0382     129.6072       0.0301    6350.6775    6350.7077     129.6318         24      87.0020       0.0005    6272.0418    6272.0423    6270.2534    6270.1192      -0.1342
    8847.0    5016.0520 1538425.0000    3905.9902     129.0357     129.6054       0.0273    6350.6274    6350.6547     129.6312         24      88.0020       0.0064    6263.1773    6263.1838    6261.3617    6261.2287      -0.1331
    8848.0    5042.0820 1538425.0000    3905.9902     129.0377     129.6061       0.0221    6350.6345    6350.6566     129.6311         24      89.0020       0.0154    6264.2857    6264.3012    6262.3037    6262.1789      -0.1248
    8849.0    5083.0960 1538425.0000    3905.9902     129.0378     129.6080       0.0179    6350.6557    6350.6738     129.6307         24      90.0020       0.0274    6264.3240    6264.3514    6262.3666    6262.2582      -0.1085
    8850.0    5131.0100 1538425.0000    3905.9902     129.0377     129.6082       0.0164    6350.5982    6350.6147     129.6303         24      91.0020       0.0381    6258.7774    6258.8155    6256.8066    6256.7178      -0.0888
    8851.0    5136.0100 1538425.0000    3905.9902     129.0405     129.6066       0.0156    6350.4578    6350.4735     129.6298         24      92.0020       0.0447    6253.5097    6253.5543    6251.4281    6251.3571      -0.0710
    8852.0    5140.9800 1538425.0000    3905.9902     129.0409     129.6083       0.0150    6350.3574    6350.3726     129.6294         24      93.0020       0.0464    6253.6589    6253.7053    6251.5539    6251.4973      -0.0566
    8853.0    5130.9700 1538425.0000    3905.9902     129.0413     129.6076       0.0157    6350.4100    6350.4258     129.6298         24      94.0020       0.0427    6254.8477    6254.8905    6252.6548    6252.6079      -0.0470
    8854.0    5115.8760 1538425.0000    3905.9902     129.0414     129.6088       0.0178    6350.4642    6350.4819     129.6298         24      95.0020       0.0328    6255.7695    6255.8025    6253.5695    6253.5218      -0.0475
    8855.0    5053.8960 1538425.0000    3905.9902     129.0439     129.6091       0.0200    6350.5469    6350.5669     129.6297         24      96.0020       0.0167    6254.1375    6254.1541    6251.8436    6251.7816      -0.0621
    8856.0    5001.9880 1538425.0000    3905.9902     129.0443     129.6091       0.0215    6350.5204    6350.5421     129.6296         24      97.0020      -0.0035    6255.0796    6255.0760    6252.7524    6252.6631      -0.0892
    8857.0    4995.9400 1538425.0000    3905.9902     129.0435     129.6099       0.0224    6350.6058    6350.6283     129.6294         24      98.0020      -0.0251    6247.3896    6247.3645    6245.2194    6245.0996      -0.1198
    8858.0    4966.0240 1538425.0000    3905.9902     129.0421     129.6106       0.0228    6350.6241    6350.6471     129.6283         24      99.0020      -0.0325    6232.1987    6232.1660    6230.2335    6230.1081      -0.1254
    8859.0    4978.0460 1538425.0000    3905.9902     129.0396     129.6112       0.0232    6350.6330    6350.6561     129.6281         24     100.0020      -0.0016    6217.7889    6217.7874    6215.7691    6215.6997      -0.0694
    8860.0    5001.0820 1538425.0000    3905.9902     129.0393     129.6120       0.0241    6350.6796    6350.7039     129.6275         24     101.0020       0.0722    6204.1574    6204.2295    6202.3109    6202.3595       0.0487
    8861.0    5042.0680 1538425.0000    3905.9902     129.0361     129.6106       0.0248    6350.6241    6350.6490     129.6267         24     102.0020       0.1641    6189.2521    6189.4163    6187.5454    6187.7366       0.1914
    8862.0    5076.0540 1538425.0000    3905.9902     129.0353     129.6114       0.0248    6350.5817    6350.6067     129.6259         24     103.0020       0.2378    6176.9332    6177.1709    6175.1381    6175.4544       0.3162
    8863.0    5103.0700 1538425.0000    3905.9902     129.0507     129.6127       0.0247    6350.5951    6350.6196     129.6305         24     104.0020       0.2788    6286.8343    6287.1132    6282.3253    6282.7407       0.4155
