~VERSION INFORMATION
VERS.           2.0   :CWLS Log ASCII Standard - VERSION 2.0
WRAP.           NO    :One Line per depth step
PROD.  Schlumberger   :LAS Producer
PROG.  DLIS to ASCII 2.2                               :LAS Program name and version
CREA.        2020/10/30 12:18                          :LAS Creation date {YYYY/MM/DD hh:mm}
SOURCE.     XPT_HRLA_TLD_MCFL_057LTP.DLIS              :DLIS File Name
FILE-ID.     XPT_HRLA_TLD_MCFL_057LTP                  :File Identification Number
#--------------------------------------------------
~WELL INFORMATION
#MNEM.UNIT      DATA             DESCRIPTION
#---- ------ --------------   -----------------------------
STRT .S         6912.0       :START TIME      
STOP .S         7441.0       :STOP TIME      
STEP .S            1.0       :STEP     
NULL .          -999.25      :NULL VALUE
COMP .        Nexus Energy                             :COMPANY
WELL .        Crux-3                                   :WELL
FLD  .        Crux                                     :FIELD
LOC  .        Easting: 656981.7mE                      :LOCATION
CNTY .        Sedco-703                                :COUNTY
STAT .        Northern Territory                       :STATE
CTRY .        Australia                                :COUNTRY
API  .                                                 :API NUMBER
UWI  .                                                 :UNIQUE WELL ID
DATE .        31-Dec-2007                              :LOG DATE {DD-MMM-YYYY}
SRVC .        Schlumberger                             :SERVICE COMPANY
LATI .DEG     12*57'32.63" S                           :LATITUDE
LONG .DEG     124*26'50.07" E                          :LONGITUDE
GDAT .                                                 :GeoDetic Datum
#-----------------------------------------------------------------------------
~PARAMETER INFORMATION
#MNEM.UNIT    VALUE                      DESCRIPTION
#---- -----   --------------------       ------------------------
RUN  .          1                        :RUN NUMBER
PDAT .        LAT                        :Permanent Datum
EPD  .M           0.000000               :Elevation of Permanent Datum above Mean Sea Level
EPD  .M           0.000000               :Elevation of tool zero above Mean Sea Level
LMF  .          DF                       :Logging Measured From (Name of Logging Elevation Reference)
APD  .M          26.400000               :Elevation of Depth Reference (LMF) above Permanent Datum
#-----------------------------------------------------------------------------
~CURVE INFORMATION
#MNEM.UNIT   API CODE                                  DESCRIPTION
#---- -----  --------                                  -----------------------
TIME .S                                                :TIME {F10.1}
TENS_SL.LBF                                            :Cable Tension {F13.4}
DEPT_SL..1IN                                           :Station logging depth {F13.4}
PDEP_XPT.M                                             :XPT Probe Depth {F13.4}
MTEP_SAP.DEGC                                          :Sapphire Gauge Manometer Temperature {F13.4}
MTEP_HYD.DEGC                                          :Hydrostatic Sapphire Gauge Manometer Temperature {F13.4}
PCO_HYD.PSI                                            :Hydrostatic Sapphire Dynamic Compensation {F13.4}
PND_HYD.PSI                                            :Hydrostatic Sapphire Pressure Without Dynamic Compensation {F13.4}
CP_HYD.PSI                                             :Hydrostatic Sapphire Pressure With Dynamic Compensation {F13.4}
MTEP_QG.DEGC                                           :CQG Manometer Temperature {F13.4}
PTNO_XPT.                                              :XPT Pretest Number {I11}
ETIM_XPT.S                                             :Elapsed Logging Time {F13.4}
PCO_SAP.PSI                                            :Sapphire Dynamic Compensation {F13.4}
PND_SAP.PSI                                            :Sapphire Pressure Without Dynamic Compensation {F13.4}
CP_SAP.PSI                                             :Sapphire Pressure With Dynamic Compensation {F13.4}
QNDP .PSI                                              :CQG Pressure Without Dynamic Compensation {F13.4}
QCP  .PSI                                              :CQG Pressure With Dynamic Compensation {F13.4}
QPCO .PSI                                              :CQG Dynamic Compensation {F13.4}
#-----------------------------------------------------------------------------
# 
#     TIME      TENS_SL      DEPT_SL      PDEP_XPT     MTEP_SAP     MTEP_HYD     PCO_HYD      PND_HYD       CP_HYD      MTEP_QG       PTNO_XPT       ETIM_XPT     PCO_SAP      PND_SAP       CP_SAP        QNDP         QCP          QPCO
#
~A  
# ...
    6982.0    5009.8215 1526236.0000    3875.0305     129.3688     129.8556      -0.0444    6300.8145    6300.7700     130.0987         18      70.0105      -0.1184    6295.4554    6295.3372    6293.7998    6293.4430      -0.3568
    6983.0    4992.8215 1526236.0000    3875.0305     129.3627     129.8545      -0.0459    6300.7182    6300.6724     130.0964         18      71.0105      -0.1217    6266.8393    6266.7177    6261.2640    6260.8839      -0.3801
    6984.0    4976.0000 1526236.0000    3875.0305     129.3605     129.8541      -0.0475    6300.6815    6300.6341     130.0953         18      72.0105      -0.1203    6256.4455    6256.3255    6249.1687    6248.7741      -0.3948
    6985.0    4974.7820 1526236.0000    3875.0305     129.3582     129.8535      -0.0489    6300.8142    6300.7652     130.0940         18      73.0105      -0.1113    6250.1392    6250.0278    6248.7319    6248.3351      -0.3967
    6986.0    4860.8400 1526236.0000    3875.0305     129.3587     129.8526      -0.0499    6300.8423    6300.7925     130.0930         18      74.0105      -0.0966    6249.7256    6249.6291    6246.8721    6246.4830      -0.3892
    6987.0    4939.3280 1526236.0000    3875.0305     129.3555     129.8510      -0.0503    6301.0073    6300.9570     130.0918         18      75.0105      -0.0851    6246.3237    6246.2388    6243.0645    6242.6812      -0.3834
    6988.0    4876.1575 1526236.0000    3875.0305     129.3553     129.8495      -0.0501    6300.9907    6300.9406     130.0908         18      76.0105      -0.0825    6242.6504    6242.5679    6240.5701    6240.1835      -0.3869
    6989.0    4890.6745 1526236.0000    3875.0305     129.3533     129.8496      -0.0496    6301.0605    6301.0107     130.0892         18      77.0105      -0.0853    6237.9299    6237.8446    6236.4218    6236.0248      -0.3968
    6990.0    4861.1025 1526236.0000    3875.0305     129.3527     129.8489      -0.0493    6301.0496    6301.0003     130.0884         18      78.0105      -0.0873    6235.6428    6235.5554    6234.1570    6233.7507      -0.4061
    6991.0    4965.1155 1526236.0000    3875.0305     129.3500     129.8481      -0.0490    6300.8749    6300.8258     130.0872         18      79.0105      -0.0853    6225.0276    6224.9422    6223.5652    6223.1542      -0.4110
    6992.0    4976.2730 1526236.0000    3875.0305     129.3474     129.8475      -0.0482    6300.8658    6300.8178     130.0854         18      80.0105      -0.0791    6215.0179    6214.9389    6213.5269    6213.1159      -0.4109
    6993.0    5002.1575 1526236.0000    3875.0305     129.3456     129.8443      -0.0464    6300.8813    6300.8349     130.0847         18      81.0105      -0.0672    6214.5985    6214.5313    6213.0894    6212.6852      -0.4040
    6994.0    5016.9160 1526236.0000    3875.0305     129.3456     129.8454      -0.0447    6300.7249    6300.6802     130.0828         18      82.0105      -0.0521    6207.3356    6207.2836    6205.7764    6205.3861      -0.3903
    6995.0    5008.5800 1526236.0000    3875.0305     129.3448     129.8440      -0.0447    6300.7359    6300.6911     130.0817         18      83.0105      -0.0389    6204.0982    6204.0592    6202.5116    6202.1392      -0.3722
    6996.0    4968.1285 1526236.0000    3875.0305     129.3440     129.8435      -0.0477    6300.7541    6300.7062     130.0810         18      84.0105      -0.0301    6204.1756    6204.1454    6202.5994    6202.2470      -0.3524
    6997.0    4885.8320 1526236.0000    3875.0305     129.3451     129.8434      -0.0525    6300.8740    6300.8218     130.0797         18      85.0105      -0.0252    6204.7748    6204.7497    6202.9939    6202.6586      -0.3352
    6998.0    4869.6325 1526236.0000    3875.0305     129.3441     129.8426      -0.0577    6300.8651    6300.8075     130.0788         18      86.0105      -0.0259    6205.3726    6205.3467    6203.5999    6203.2742      -0.3256
    6999.0    4834.9580 1526236.0000    3875.0305     129.3425     129.8405      -0.0624    6300.9026    6300.8400     130.0778         18      87.0105      -0.0351    6203.5940    6203.5587    6201.8543    6201.5261      -0.3284
    7000.0    4831.5565 1526236.0000    3875.0305     129.3425     129.8385      -0.0652    6300.9259    6300.8608     130.0769         18      88.0105      -0.0521    6205.7454    6205.6934    6203.8321    6203.4878      -0.3445
    7001.0    4884.8190 1526236.0000    3875.0305     129.3435     129.8372      -0.0643    6300.8952    6300.8309     130.0760         18      89.0105      -0.0722    6206.4451    6206.3728    6204.5401    6204.1697      -0.3704
    7002.0    4962.4515 1526236.0000    3875.0305     129.3397     129.8367      -0.0588    6300.9210    6300.8620     130.0747         18      90.0105      -0.0935    6199.1408    6199.0473    6197.4104    6197.0072      -0.4032
    7003.0    5004.9265 1526236.0000    3875.0305     129.3390     129.8360      -0.0516    6300.9146    6300.8630     130.0734         18      91.0105      -0.1148    6184.2893    6184.1745    6182.5716    6182.1335      -0.4383
    7004.0    4997.8845 1526236.0000    3875.0305     129.3354     129.8340      -0.0462    6300.7691    6300.7229     130.0719         18      92.0105      -0.1218    6170.5961    6170.4740    6169.1208    6168.6709      -0.4500
    7005.0    4986.4330 1526236.0000    3875.0305     129.3339     129.8340      -0.0434    6300.7728    6300.7294     130.0702         18      93.0105      -0.0907    6156.4757    6156.3851    6155.1112    6154.7094      -0.4018
    7006.0    4932.7165 1526236.0000    3875.0305     129.3302     129.8337      -0.0422    6300.8105    6300.7685     130.0687         18      94.0105      -0.0096    6142.5295    6142.5200    6141.2807    6141.0008      -0.2799
    7007.0    4905.9685 1526236.0000    3875.0305     129.3259     129.8322      -0.0429    6300.7532    6300.7104     130.0669         18      95.0105       0.0952    6129.8506    6129.9457    6128.6696    6128.5461      -0.1233
    7008.0    4903.6300 1526236.0000    3875.0305     129.3242     129.8325      -0.0464    6300.8478    6300.8014     130.0653         18      96.0105       0.1840    6119.4845    6119.6682    6118.4416    6118.4614       0.0197
    7009.0    4963.5250 1526236.0000    3875.0305     129.3277     129.8306      -0.0518    6300.8984    6300.8465     130.0653         18      97.0105       0.2336    6145.7521    6145.9858    6143.7026    6143.8334       0.1307
    7010.0    5012.8740 1526236.0000    3875.0305     129.3530     129.8306      -0.0559    6300.8329    6300.7770     130.0710         18      98.0105       0.2427    6287.6031    6287.8457    6284.2740    6284.4837       0.2097
    7011.0    5000.8845 1526236.0000    3875.0305     129.3582     129.8283      -0.0566    6300.8330    6300.7764     130.0710         18      99.0105       0.2087    6299.8124    6300.0212    6296.2723    6296.5144       0.2420
    7012.0    4990.1890 1526236.0000    3875.0305     129.3570     129.8270      -0.0551    6300.7359    6300.6809     130.0710         18     100.0105       0.1284    6298.2030    6298.3313    6295.1226    6295.3336       0.2111
    7013.0    5006.9395 1526236.0000    3875.0305     129.3558     129.8273      -0.0522    6300.7617    6300.7096     130.0711         18     101.0105       0.0264    6297.3329    6297.3592    6294.3982    6294.5440       0.1459
    7014.0    4906.7795 1526236.0000    3875.0305     129.3542     129.8245      -0.0488    6300.7920    6300.7432     130.0716         18     102.0105      -0.0594    6296.5317    6296.4725    6293.8699    6293.9593       0.0894
    7015.0    4885.9370 1526236.0000    3875.0305     129.3518     129.8250      -0.0452    6300.8322    6300.7871     130.0719         18     103.0105      -0.1062    6296.1478    6296.0415    6293.5758    6293.6358       0.0601
    7016.0    4879.8005 1526236.0000    3875.0305     129.3493     129.8247      -0.0431    6300.9138    6300.8706     130.0721         18     104.0105      -0.1244    6294.1872    6294.0628    6291.7695    6291.8100       0.0405
