~VERSION INFORMATION
VERS.           2.0   :CWLS Log ASCII Standard - VERSION 2.0
WRAP.           NO    :One Line per depth step
PROD.  Schlumberger   :LAS Producer
PROG.  DLIS to ASCII 2.2                               :LAS Program name and version
CREA.        2020/10/30 12:18                          :LAS Creation date {YYYY/MM/DD hh:mm}
SOURCE.     XPT_HRLA_TLD_MCFL_069LTP.DLIS              :DLIS File Name
FILE-ID.     XPT_HRLA_TLD_MCFL_069LTP                  :File Identification Number
#--------------------------------------------------
~WELL INFORMATION
#MNEM.UNIT      DATA             DESCRIPTION
#---- ------ --------------   -----------------------------
STRT .S         1113.0       :START TIME      
STOP .S         1454.0       :STOP TIME      
STEP .S            1.0       :STEP     
NULL .          -999.25      :NULL VALUE
COMP .        Nexus Energy                             :COMPANY
WELL .        Crux-3                                   :WELL
FLD  .        Crux                                     :FIELD
LOC  .        Easting: 656981.7mE                      :LOCATION
CNTY .        Sedco-703                                :COUNTY
STAT .        Northern Territory                       :STATE
CTRY .        Australia                                :COUNTRY
API  .                                                 :API NUMBER
UWI  .                                                 :UNIQUE WELL ID
DATE .        31-Dec-2007                              :LOG DATE {DD-MMM-YYYY}
SRVC .        Schlumberger                             :SERVICE COMPANY
LATI .DEG     12*57'32.63" S                           :LATITUDE
LONG .DEG     124*26'50.07" E                          :LONGITUDE
GDAT .                                                 :GeoDetic Datum
#-----------------------------------------------------------------------------
~PARAMETER INFORMATION
#MNEM.UNIT    VALUE                      DESCRIPTION
#---- -----   --------------------       ------------------------
RUN  .          1                        :RUN NUMBER
PDAT .        LAT                        :Permanent Datum
EPD  .M           0.000000               :Elevation of Permanent Datum above Mean Sea Level
EPD  .M           0.000000               :Elevation of tool zero above Mean Sea Level
LMF  .          DF                       :Logging Measured From (Name of Logging Elevation Reference)
APD  .M          26.400000               :Elevation of Depth Reference (LMF) above Permanent Datum
#-----------------------------------------------------------------------------
~CURVE INFORMATION
#MNEM.UNIT   API CODE                                  DESCRIPTION
#---- -----  --------                                  -----------------------
TIME .S                                                :TIME {F10.1}
TENS_SL.LBF                                            :Cable Tension {F13.4}
DEPT_SL..1IN                                           :Station logging depth {F13.4}
PDEP_XPT.M                                             :XPT Probe Depth {F13.4}
MTEP_SAP.DEGC                                          :Sapphire Gauge Manometer Temperature {F13.4}
MTEP_HYD.DEGC                                          :Hydrostatic Sapphire Gauge Manometer Temperature {F13.4}
PCO_HYD.PSI                                            :Hydrostatic Sapphire Dynamic Compensation {F13.4}
PND_HYD.PSI                                            :Hydrostatic Sapphire Pressure Without Dynamic Compensation {F13.4}
CP_HYD.PSI                                             :Hydrostatic Sapphire Pressure With Dynamic Compensation {F13.4}
MTEP_QG.DEGC                                           :CQG Manometer Temperature {F13.4}
PTNO_XPT.                                              :XPT Pretest Number {I11}
ETIM_XPT.S                                             :Elapsed Logging Time {F13.4}
PCO_SAP.PSI                                            :Sapphire Dynamic Compensation {F13.4}
PND_SAP.PSI                                            :Sapphire Pressure Without Dynamic Compensation {F13.4}
CP_SAP.PSI                                             :Sapphire Pressure With Dynamic Compensation {F13.4}
QNDP .PSI                                              :CQG Pressure Without Dynamic Compensation {F13.4}
QCP  .PSI                                              :CQG Pressure With Dynamic Compensation {F13.4}
QPCO .PSI                                              :CQG Dynamic Compensation {F13.4}
#-----------------------------------------------------------------------------
# 
#     TIME      TENS_SL      DEPT_SL      PDEP_XPT     MTEP_SAP     MTEP_HYD     PCO_HYD      PND_HYD       CP_HYD      MTEP_QG       PTNO_XPT       ETIM_XPT     PCO_SAP      PND_SAP       CP_SAP        QNDP         QCP          QPCO
#
~A  
# ...
    1428.0    4844.0975 1534897.0000    3897.0293     132.4435     132.7105      -0.1178    6336.2717    6336.1538     133.2870         35     314.8951      -0.1380    6333.0353    6332.8973    6332.2995    6331.5522      -0.7472
    1429.0    4858.1123 1534897.0000    3897.0293     132.4408     132.7085      -0.1161    6336.3100    6336.1938     133.2844         35     315.8951      -0.1361    6333.0868    6332.9505    6332.3112    6331.5666      -0.7448
    1430.0    4909.2319 1534897.0000    3897.0293     132.4402     132.7063      -0.1154    6336.3472    6336.2319     133.2822         35     316.8951      -0.1339    6333.1606    6333.0266    6332.3485    6331.6066      -0.7420
    1431.0    4970.4978 1534897.0000    3897.0293     132.4369     132.7033      -0.1159    6336.2554    6336.1394     133.2800         35     317.8951      -0.1322    6333.1073    6332.9753    6332.2913    6331.5522      -0.7393
    1432.0    5023.5465 1534897.0000    3897.0293     132.4345     132.7017      -0.1179    6336.2375    6336.1198     133.2777         35     318.8951      -0.1316    6333.0245    6332.8931    6332.2279    6331.4906      -0.7372
    1433.0    5062.1196 1534897.0000    3897.0293     132.4322     132.6993      -0.1199    6336.2019    6336.0820     133.2754         35     319.8951      -0.1322    6333.0119    6332.8796    6332.2171    6331.4821      -0.7350
    1434.0    5029.2999 1534897.0000    3897.0293     132.4300     132.6975      -0.1214    6336.1561    6336.0347     133.2732         35     320.8951      -0.1332    6332.9897    6332.8566    6332.1659    6331.4332      -0.7328
    1435.0    4996.3560 1534897.0000    3897.0293     132.4262     132.6971      -0.1213    6336.0672    6335.9461     133.2711         35     321.8951      -0.1345    6332.8572    6332.7224    6332.0828    6331.3523      -0.7303
    1436.0    4961.6706 1534897.0000    3897.0293     132.4243     132.6924      -0.1197    6335.9053    6335.7855     133.2686         35     322.8951      -0.1364    6333.1466    6333.0102    6332.3715    6331.6438      -0.7275
    1437.0    4893.5510 1534897.0000    3897.0293     132.4218     132.6902      -0.1167    6335.9464    6335.8299     133.2665         35     323.8951      -0.1380    6333.2215    6333.0835    6332.3865    6331.6616      -0.7250
    1438.0    4894.9513 1534897.0000    3897.0293     132.4202     132.6887      -0.1126    6336.0377    6335.9249     133.2645         35     324.8951      -0.1388    6333.2149    6333.0762    6332.3910    6331.6683      -0.7226
    1439.0    4884.3634 1534897.0000    3897.0293     132.4176     132.6854      -0.1094    6336.1245    6336.0153     133.2622         35     325.8951      -0.1386    6333.3024    6333.1638    6332.4121    6331.6914      -0.7208
    1440.0    4924.1758 1534897.0000    3897.0293     132.4153     132.6857      -0.1081    6336.2485    6336.1405     133.2602         35     326.8951      -0.1379    6333.2910    6333.1531    6332.4496    6331.7299      -0.7196
    1441.0    4890.5096 1534897.0000    3897.0293     132.4127     132.6826      -0.1080    6336.1553    6336.0474     133.2578         35     327.8951      -0.1371    6333.1728    6333.0356    6332.3881    6331.6693      -0.7189
    1442.0    4877.0487 1534897.0000    3897.0293     132.4094     132.6808      -0.1085    6336.1779    6336.0693     133.2555         35     328.8951      -0.1357    6333.1655    6333.0300    6332.3588    6331.6399      -0.7188
    1443.0    4912.7001 1534897.0000    3897.0293     132.4075     132.6801      -0.1101    6336.1889    6336.0789     133.2533         35     329.8951      -0.1334    6333.1807    6333.0472    6332.3283    6331.6095      -0.7188
    1444.0    4980.5539 1534897.0000    3897.0293     132.4063     132.6754      -0.1134    6336.1085    6335.9952     133.2511         35     330.8951      -0.1310    6333.1700    6333.0391    6332.3007    6331.5829      -0.7179
    1445.0    5001.4269 1534897.0000    3897.0293     132.4017     132.6750      -0.1161    6336.1762    6336.0600     133.2491         35     331.8951      -0.1306    6333.0707    6332.9402    6332.2727    6331.5570      -0.7156
    1446.0    5018.2171 1534897.0000    3897.0293     132.3991     132.6737      -0.1160    6336.1211    6336.0052     133.2469         35     332.8951      -0.1318    6332.9952    6332.8635    6332.2146    6331.5015      -0.7130
    1447.0    5037.9025 1534897.0000    3897.0293     132.3956     132.6708      -0.1146    6335.9992    6335.8845     133.2445         35     333.8951      -0.1320    6332.9746    6332.8427    6332.1636    6331.4526      -0.7107
    1448.0    5025.6780 1534897.0000    3897.0293     132.3951     132.6676      -0.1137    6335.9949    6335.8811     133.2425         35     334.8951      -0.1298    6333.0924    6332.9626    6332.2821    6331.5734      -0.7086
    1449.0    4991.7755 1534897.0000    3897.0293     132.3941     132.6664      -0.1136    6336.1427    6335.8701     133.2403         35     335.8951      -0.1294    6333.1218    6333.0483    6332.3095    6331.5991      -0.7081
    1450.0    4902.9631 1534897.0000    3897.0293     132.3891     132.6643      -0.1136    6336.1725    6335.8701     133.2374         35     336.8951      -0.1294    6333.0617    6333.0483    6332.2571    6331.5991      -0.7081
    1451.0    4930.5953 1534897.0000    3897.0293     132.3882     132.6620      -0.1136    6336.1162    6335.8701     133.2361         35     337.8951      -0.1294    6333.2036    6333.0483    6332.3543    6331.5991      -0.7081
    1452.0    4911.7267 1534897.0000    3897.0293     132.3862     132.6600      -0.1136    6336.1750    6335.8701     133.2339         35     338.8951      -0.1294    6333.2960    6333.0483    6332.4618    6331.5991      -0.7081
    1453.0    4924.2171 1534897.0000    3897.0293     132.3835     132.6582      -0.1136    6336.3196    6335.8701     133.2318         35     339.8951      -0.1294    6333.3683    6333.0483    6332.4777    6331.5991      -0.7081
    1454.0    4885.7194 1534897.0000    3897.0293     132.3813     132.6570      -0.1136    6336.1993    6335.8701     133.2296         35     340.8951      -0.1294    6333.2532    6333.0483    6332.3988    6331.5991      -0.7081
