~VERSION INFORMATION
VERS.           2.0   :CWLS Log ASCII Standard - VERSION 2.0
WRAP.           NO    :One Line per depth step
PROD.  Schlumberger   :LAS Producer
PROG.  DLIS to ASCII 2.2                               :LAS Program name and version
CREA.        2020/10/30 12:18                          :LAS Creation date {YYYY/MM/DD hh:mm}
SOURCE.     XPT_HRLA_TLD_MCFL_056LTP.DLIS              :DLIS File Name
FILE-ID.     XPT_HRLA_TLD_MCFL_056LTP                  :File Identification Number
#--------------------------------------------------
~WELL INFORMATION
#MNEM.UNIT      DATA             DESCRIPTION
#---- ------ --------------   -----------------------------
STRT .S         6532.0       :START TIME      
STOP .S         6757.0       :STOP TIME      
STEP .S            1.0       :STEP     
NULL .          -999.25      :NULL VALUE
COMP .        Nexus Energy                             :COMPANY
WELL .        Crux-3                                   :WELL
FLD  .        Crux                                     :FIELD
LOC  .        Easting: 656981.7mE                      :LOCATION
CNTY .        Sedco-703                                :COUNTY
STAT .        Northern Territory                       :STATE
CTRY .        Australia                                :COUNTRY
API  .                                                 :API NUMBER
UWI  .                                                 :UNIQUE WELL ID
DATE .        31-Dec-2007                              :LOG DATE {DD-MMM-YYYY}
SRVC .        Schlumberger                             :SERVICE COMPANY
LATI .DEG     12*57'32.63" S                           :LATITUDE
LONG .DEG     124*26'50.07" E                          :LONGITUDE
GDAT .                                                 :GeoDetic Datum
#-----------------------------------------------------------------------------
~PARAMETER INFORMATION
#MNEM.UNIT    VALUE                      DESCRIPTION
#---- -----   --------------------       ------------------------
RUN  .          1                        :RUN NUMBER
PDAT .        LAT                        :Permanent Datum
EPD  .M           0.000000               :Elevation of Permanent Datum above Mean Sea Level
EPD  .M           0.000000               :Elevation of tool zero above Mean Sea Level
LMF  .          DF                       :Logging Measured From (Name of Logging Elevation Reference)
APD  .M          26.400000               :Elevation of Depth Reference (LMF) above Permanent Datum
#-----------------------------------------------------------------------------
~CURVE INFORMATION
#MNEM.UNIT   API CODE                                  DESCRIPTION
#---- -----  --------                                  -----------------------
TIME .S                                                :TIME {F10.1}
TENS_SL.LBF                                            :Cable Tension {F13.4}
DEPT_SL..1IN                                           :Station logging depth {F13.4}
PDEP_XPT.M                                             :XPT Probe Depth {F13.4}
MTEP_SAP.DEGC                                          :Sapphire Gauge Manometer Temperature {F13.4}
MTEP_HYD.DEGC                                          :Hydrostatic Sapphire Gauge Manometer Temperature {F13.4}
PCO_HYD.PSI                                            :Hydrostatic Sapphire Dynamic Compensation {F13.4}
PND_HYD.PSI                                            :Hydrostatic Sapphire Pressure Without Dynamic Compensation {F13.4}
CP_HYD.PSI                                             :Hydrostatic Sapphire Pressure With Dynamic Compensation {F13.4}
MTEP_QG.DEGC                                           :CQG Manometer Temperature {F13.4}
PTNO_XPT.                                              :XPT Pretest Number {I11}
ETIM_XPT.S                                             :Elapsed Logging Time {F13.4}
PCO_SAP.PSI                                            :Sapphire Dynamic Compensation {F13.4}
PND_SAP.PSI                                            :Sapphire Pressure Without Dynamic Compensation {F13.4}
CP_SAP.PSI                                             :Sapphire Pressure With Dynamic Compensation {F13.4}
QNDP .PSI                                              :CQG Pressure Without Dynamic Compensation {F13.4}
QCP  .PSI                                              :CQG Pressure With Dynamic Compensation {F13.4}
QPCO .PSI                                              :CQG Dynamic Compensation {F13.4}
#-----------------------------------------------------------------------------
# 
#     TIME      TENS_SL      DEPT_SL      PDEP_XPT     MTEP_SAP     MTEP_HYD     PCO_HYD      PND_HYD       CP_HYD      MTEP_QG       PTNO_XPT       ETIM_XPT     PCO_SAP      PND_SAP       CP_SAP        QNDP         QCP          QPCO
#
~A  
# ...
    6672.0    4896.9850 1525238.0000    3872.4954     129.7302     130.2184      -0.0822    6296.6781    6296.5960     130.2583         17     139.9950      -0.0653    6294.2345    6294.1694    6292.3573    6292.2843      -0.0730
    6673.0    4959.6850 1525238.0000    3872.4954     129.7271     130.2159      -0.0777    6296.6612    6296.5836     130.2582         17     140.9950      -0.0676    6294.1541    6294.0867    6292.3183    6292.2450      -0.0733
    6674.0    5030.6450 1525238.0000    3872.4954     129.7264     130.2154      -0.0737    6296.7144    6296.6405     130.2579         17     141.9950      -0.0699    6294.1576    6294.0876    6292.2926    6292.2188      -0.0736
    6675.0    5013.0900 1525238.0000    3872.4954     129.7268     130.2132      -0.0708    6296.6618    6296.5912     130.2576         17     142.9950      -0.0716    6294.0836    6294.0120    6292.2178    6292.1437      -0.0740
    6676.0    4998.0750 1525238.0000    3872.4954     129.7225     130.2123      -0.0694    6296.5421    6296.4728     130.2575         17     143.9950      -0.0718    6293.9309    6293.8591    6292.1487    6292.0745      -0.0744
    6677.0    5004.9650 1525238.0000    3872.4954     129.7237     130.2116      -0.0709    6296.5942    6296.5231     130.2574         17     144.9950      -0.0699    6294.0302    6293.9601    6292.1781    6292.1029      -0.0752
    6678.0    4974.1550 1525238.0000    3872.4954     129.7208     130.2108      -0.0758    6296.6149    6296.5389     130.2571         17     145.9950      -0.0669    6294.0428    6293.9761    6292.2578    6292.1818      -0.0761
    6679.0    4894.4000 1525238.0000    3872.4954     129.7181     130.2085      -0.0812    6296.6219    6296.5409     130.2565         17     146.9950      -0.0638    6294.1246    6294.0606    6292.2952    6292.2176      -0.0775
    6680.0    4884.0500 1525238.0000    3872.4954     129.7188     130.2078      -0.0831    6296.6743    6296.5913     130.2566         17     147.9950      -0.0604    6294.1534    6294.0931    6292.2962    6292.2170      -0.0791
    6681.0    4871.0650 1525238.0000    3872.4954     129.7181     130.2063      -0.0819    6296.7788    6296.6971     130.2560         17     148.9950      -0.0569    6294.2466    6294.1896    6292.3459    6292.2651      -0.0808
    6682.0    4856.0750 1525238.0000    3872.4954     129.7166     130.2032      -0.0808    6296.7456    6296.6651     130.2559         17     149.9950      -0.0547    6294.1922    6294.1375    6292.3826    6292.3001      -0.0824
    6683.0    4876.8950 1525238.0000    3872.4954     129.7158     130.2022      -0.0800    6296.7770    6296.6971     130.2556         17     150.9950      -0.0555    6294.1744    6294.1189    6292.3433    6292.2602      -0.0832
    6684.0    4910.8300 1525238.0000    3872.4954     129.7159     130.2017      -0.0779    6296.7708    6296.6929     130.2555         17     151.9950      -0.0589    6294.2646    6294.2056    6292.3680    6292.2845      -0.0837
    6685.0    4936.8700 1525238.0000    3872.4954     129.7136     130.2002      -0.0756    6296.6540    6296.5783     130.2553         17     152.9950      -0.0639    6294.2041    6294.1401    6292.3295    6292.2455      -0.0841
    6686.0    4950.9300 1525238.0000    3872.4954     129.7133     130.1978      -0.0761    6296.6785    6296.6025     130.2547         17     153.9950      -0.0692    6294.0867    6294.0173    6292.2750    6292.1901      -0.0849
    6687.0    4961.9450 1525238.0000    3872.4954     129.7123     130.1966      -0.0791    6296.6757    6296.5965     130.2547         17     154.9950      -0.0739    6294.1988    6294.1249    6292.3080    6292.2222      -0.0858
    6688.0    4941.1050 1525238.0000    3872.4954     129.7111     130.1961      -0.0809    6296.6705    6296.5895     130.2545         17     155.9950      -0.0772    6294.2382    6294.1610    6292.2888    6292.2024      -0.0866
    6689.0    4906.1750 1525238.0000    3872.4954     129.7076     130.1933      -0.0803    6296.5991    6296.5187     130.2541         17     156.9950      -0.0788    6294.1433    6294.0645    6292.2978    6292.2093      -0.0884
    6690.0    4881.1250 1525238.0000    3872.4954     129.7074     130.1926      -0.0792    6296.6115    6296.5322     130.2540         17     157.9950      -0.0785    6294.1484    6294.0698    6292.3057    6292.2152      -0.0906
    6691.0    4881.0000 1525238.0000    3872.4954     129.7051     130.1908      -0.0778    6296.6739    6296.5962     130.2538         17     158.9950      -0.0764    6294.1203    6294.0441    6292.3155    6292.2232      -0.0922
    6692.0    4939.7050 1525238.0000    3872.4954     129.7035     130.1900      -0.0761    6296.6655    6296.5895     130.2532         18     159.9950      -0.0736    6293.3572    6293.2837    6291.6077    6291.5150      -0.0929
    6693.0    5004.6750 1525238.0000    3872.4954     129.7035     130.1880      -0.0746    6296.6436    6296.5688     130.2529         18     160.9950      -0.0702    6293.4693    6293.3992    6291.6290    6291.5362      -0.0929
    6694.0    5026.8900 1525238.0000    3872.4954     129.7010     130.1864      -0.0740    6296.5876    6296.5134     130.2529         18     161.9950      -0.0669    6293.2955    6293.2286    6291.5253    6291.4325      -0.0926
    6695.0    5015.0600 1525238.0000    3872.4954     129.7017     130.1865      -0.0742    6296.5897    6296.5155     130.2525         18     162.9950      -0.0645    6293.3638    6293.2994    6291.5211    6291.4290      -0.0920
    6696.0    4989.1300 1525238.0000    3872.4954     129.6982     130.1844      -0.0750    6296.5454    6296.4704     130.2520         18     163.9950      -0.0639    6293.3396    6293.2756    6291.5312    6291.4402      -0.0912
    6697.0    4956.1650 1525238.0000    3872.4954     129.6987     130.1830      -0.0771    6296.5288    6296.4517     130.2518         18     164.9950      -0.0644    6294.0840    6294.0195    6292.2302    6292.1394      -0.0909
    6698.0    4879.3850 1525238.0000    3872.4954     129.6993     130.1809      -0.0795    6296.5677    6296.4883     130.2517         18     165.9950      -0.0646    6294.2434    6294.1788    6292.3079    6292.2164      -0.0916
    6699.0    4915.8150 1525238.0000    3872.4954     129.6955     130.1805      -0.0812    6296.6850    6296.6036     130.2514         18     166.9950      -0.0656    6294.1927    6294.1269    6292.3396    6292.2466      -0.0930
    6700.0    4906.0500 1525238.0000    3872.4954     129.6979     130.1792      -0.0823    6296.7325    6296.6500     130.2510         18     167.9950      -0.0682    6294.1990    6294.1307    6292.3808    6292.2861      -0.0945
    6701.0    4857.2450 1525238.0000    3872.4954     129.6918     130.1763      -0.0834    6296.6810    6296.5975     130.2508         18     168.9950      -0.0709    6294.1903    6294.1194    6292.3832    6292.2873      -0.0958
    6702.0    4847.0500 1525238.0000    3872.4954     129.6935     130.1752      -0.0831    6296.6420    6296.5589     130.2504         18     169.9950      -0.0716    6294.2117    6294.1399    6292.3645    6292.2667      -0.0977
    6703.0    4892.7700 1525238.0000    3872.4954     129.6905     130.1735      -0.0804    6296.6123    6296.5317     130.2502         18     170.9950      -0.0706    6294.0371    6293.9663    6292.3521    6292.2524      -0.0996
    6704.0    4979.5650 1525238.0000    3872.4954     129.6894     130.1712      -0.0767    6296.5854    6296.5086     130.2497         18     171.9950      -0.0702    6294.1651    6294.0948    6292.3105    6292.2099      -0.1006
    6705.0    5008.8550 1525238.0000    3872.4954     129.6890     130.1714      -0.0743    6296.6015    6296.5271     130.2497         18     172.9950      -0.0705    6294.1213    6294.0510    6292.3049    6292.2046      -0.1002
    6706.0    5022.9300 1525238.0000    3872.4954     129.6871     130.1712      -0.0734    6296.5840    6296.5108     130.2489         18     173.9950      -0.0697    6294.0638    6293.9940    6292.2974    6292.1973      -0.1002
