~VERSION INFORMATION
VERS.           2.0   :CWLS Log ASCII Standard - VERSION 2.0
WRAP.           NO    :One Line per depth step
PROD.  Schlumberger   :LAS Producer
PROG.  DLIS to ASCII 2.2                               :LAS Program name and version
CREA.        2020/10/30 12:18                          :LAS Creation date {YYYY/MM/DD hh:mm}
SOURCE.     XPT_HRLA_TLD_MCFL_048LTP.DLIS              :DLIS File Name
FILE-ID.     XPT_HRLA_TLD_MCFL_048LTP                  :File Identification Number
#--------------------------------------------------
~WELL INFORMATION
#MNEM.UNIT      DATA             DESCRIPTION
#---- ------ --------------   -----------------------------
STRT .S           91.0       :START TIME      
STOP .S          545.0       :STOP TIME      
STEP .S            1.0       :STEP     
NULL .          -999.25      :NULL VALUE
COMP .        Nexus Energy                             :COMPANY
WELL .        Crux-3                                   :WELL
FLD  .        Crux                                     :FIELD
LOC  .        Easting: 656981.7mE                      :LOCATION
CNTY .        Sedco-703                                :COUNTY
STAT .        Northern Territory                       :STATE
CTRY .        Australia                                :COUNTRY
API  .                                                 :API NUMBER
UWI  .                                                 :UNIQUE WELL ID
DATE .        31-Dec-2007                              :LOG DATE {DD-MMM-YYYY}
SRVC .        Schlumberger                             :SERVICE COMPANY
LATI .DEG     12*57'32.63" S                           :LATITUDE
LONG .DEG     124*26'50.07" E                          :LONGITUDE
GDAT .                                                 :GeoDetic Datum
#-----------------------------------------------------------------------------
~PARAMETER INFORMATION
#MNEM.UNIT    VALUE                      DESCRIPTION
#---- -----   --------------------       ------------------------
RUN  .          1                        :RUN NUMBER
PDAT .        LAT                        :Permanent Datum
EPD  .M           0.000000               :Elevation of Permanent Datum above Mean Sea Level
EPD  .M           0.000000               :Elevation of tool zero above Mean Sea Level
LMF  .          DF                       :Logging Measured From (Name of Logging Elevation Reference)
APD  .M          26.400000               :Elevation of Depth Reference (LMF) above Permanent Datum
#-----------------------------------------------------------------------------
~CURVE INFORMATION
#MNEM.UNIT   API CODE                                  DESCRIPTION
#---- -----  --------                                  -----------------------
TIME .S                                                :TIME {F10.1}
TENS_SL.LBF                                            :Cable Tension {F13.4}
DEPT_SL..1IN                                           :Station logging depth {F13.4}
PDEP_XPT.M                                             :XPT Probe Depth {F13.4}
MTEP_SAP.DEGC                                          :Sapphire Gauge Manometer Temperature {F13.4}
MTEP_HYD.DEGC                                          :Hydrostatic Sapphire Gauge Manometer Temperature {F13.4}
PCO_HYD.PSI                                            :Hydrostatic Sapphire Dynamic Compensation {F13.4}
PND_HYD.PSI                                            :Hydrostatic Sapphire Pressure Without Dynamic Compensation {F13.4}
CP_HYD.PSI                                             :Hydrostatic Sapphire Pressure With Dynamic Compensation {F13.4}
MTEP_QG.DEGC                                           :CQG Manometer Temperature {F13.4}
PTNO_XPT.                                              :XPT Pretest Number {I11}
ETIM_XPT.S                                             :Elapsed Logging Time {F13.4}
PCO_SAP.PSI                                            :Sapphire Dynamic Compensation {F13.4}
PND_SAP.PSI                                            :Sapphire Pressure Without Dynamic Compensation {F13.4}
CP_SAP.PSI                                             :Sapphire Pressure With Dynamic Compensation {F13.4}
QNDP .PSI                                              :CQG Pressure Without Dynamic Compensation {F13.4}
QCP  .PSI                                              :CQG Pressure With Dynamic Compensation {F13.4}
QPCO .PSI                                              :CQG Dynamic Compensation {F13.4}
#-----------------------------------------------------------------------------
# 
#     TIME      TENS_SL      DEPT_SL      PDEP_XPT     MTEP_SAP     MTEP_HYD     PCO_HYD      PND_HYD       CP_HYD      MTEP_QG       PTNO_XPT       ETIM_XPT     PCO_SAP      PND_SAP       CP_SAP        QNDP         QCP          QPCO
#
~A  
# ...
     196.0    4801.9731 1445909.0000    3671.0000     122.0990     122.6555       0.0144    5977.6132    5977.6275     122.6669         10     104.8206      -0.0682    5882.6915    5882.6231    5880.4244    5880.2696      -0.1549
     197.0    4764.7131 1445909.0000    3671.0000     122.0987     122.6561       0.0159    5977.6792    5977.6952     122.6664         10     105.8206      -0.0751    5869.3561    5869.2811    5867.2829    5867.1094      -0.1736
     198.0    4697.0944 1445909.0000    3671.0000     122.0961     122.6557       0.0160    5977.6797    5977.6958     122.6655         10     106.8206      -0.0497    5855.2517    5855.2020    5853.1670    5853.0190      -0.1483
     199.0    4686.4619 1445909.0000    3671.0000     122.0948     122.6564       0.0145    5977.7780    5977.7925     122.6648         10     107.8206       0.0201    5843.6887    5843.7088    5841.7075    5841.6472      -0.0603
     200.0    4676.3319 1445909.0000    3671.0000     122.0922     122.6570       0.0119    5977.8086    5977.8206     122.6641         10     108.8206       0.1174    5831.1683    5831.2858    5829.1924    5829.2608       0.0685
     201.0    4668.2556 1445909.0000    3671.0000     122.0912     122.6561       0.0081    5977.7988    5977.8070     122.6633         10     109.8206       0.2090    5819.7620    5819.9710    5817.6563    5817.8550       0.1987
     202.0    4710.4931 1445909.0000    3671.0000     122.0913     122.6573       0.0040    5977.7278    5977.7318     122.6627         10     110.8206       0.2690    5818.0837    5818.3528    5815.9070    5816.2137       0.3067
     203.0    4788.1119 1445909.0000    3671.0000     122.1182     122.6571       0.0003    5977.7050    5977.7052     122.6693         10     111.8206       0.2917    5974.5892    5974.8808    5970.0436    5970.4349       0.3912
     204.0    4809.5650 1445909.0000    3671.0000     122.1216     122.6576      -0.0017    5977.6953    5977.6938     122.6697         10     112.8206       0.2735    5977.1174    5977.3908    5972.8576    5973.2978       0.4402
     205.0    4811.0000 1445909.0000    3671.0000     122.1254     122.6566      -0.0007    5977.6424    5977.6418     122.6707         10     113.8206       0.2105    5984.7013    5984.9117    5980.5203    5980.9560       0.4356
     206.0    4806.8969 1445909.0000    3671.0000     122.1268     122.6561       0.0032    5977.5159    5977.5189     122.6718         10     114.8206       0.1209    5985.0506    5985.1714    5981.0260    5981.4187       0.3925
     207.0    4817.4888 1445909.0000    3671.0000     122.1268     122.6569       0.0079    5977.5119    5977.5198     122.6729         10     115.8206       0.0375    5984.9286    5984.9663    5981.1454    5981.4924       0.3471
     208.0    4760.9150 1445909.0000    3671.0000     122.1241     122.6565       0.0108    5977.6998    5977.7107     122.6740         10     116.8206      -0.0155    5984.7736    5984.7580    5981.1770    5981.4994       0.3224
     209.0    4681.5294 1445909.0000    3671.0000     122.1245     122.6570       0.0117    5977.7402    5977.7519     122.6750         10     117.8206      -0.0399    5983.1316    5983.0917    5979.6269    5979.9359       0.3089
     210.0    4686.6950 1445909.0000    3671.0000     122.1221     122.6584       0.0123    5977.8254    5977.8376     122.6761         10     118.8206      -0.0474    5981.6962    5981.6488    5978.2952    5978.5873       0.2920
     211.0    4692.6412 1445909.0000    3671.0000     122.1214     122.6576       0.0130    5977.8149    5977.8278     122.6770         10     119.8206      -0.0467    5981.4625    5981.4159    5978.2655    5978.5343       0.2687
     212.0    4705.3094 1445909.0000    3671.0000     122.1215     122.6577       0.0124    5977.8317    5977.8441     122.6778         10     120.8206      -0.0440    5980.7714    5980.7273    5977.6292    5977.8711       0.2418
     213.0    4745.7487 1445909.0000    3671.0000     122.1211     122.6563       0.0112    5977.8565    5977.8677     122.6787         10     121.8206      -0.0438    5979.9929    5979.9489    5976.8545    5977.0668       0.2121
     214.0    4799.9550 1445909.0000    3671.0000     122.1197     122.6584       0.0115    5977.7031    5977.7146     122.6792         10     122.8206      -0.0461    5979.5527    5979.5064    5976.5934    5976.7752       0.1817
     215.0    4781.2781 1445909.0000    3671.0000     122.1201     122.6599       0.0138    5977.7188    5977.7327     122.6798         10     123.8206      -0.0480    5977.8563    5977.8081    5974.9652    5975.1178       0.1525
     216.0    4749.5606 1445909.0000    3671.0000     122.1188     122.6591       0.0137    5977.7659    5977.7795     122.6804         10     124.8206      -0.0474    5974.7286    5974.6812    5971.8788    5971.9979       0.1193
     217.0    4764.5156 1445909.0000    3671.0000     122.1166     122.6587       0.0115    5977.7063    5977.7179     122.6805         10     125.8206      -0.0454    5971.9081    5971.8626    5969.0432    5969.1470       0.1038
     218.0    4742.7400 1445909.0000    3671.0000     122.1158     122.6594       0.0086    5977.6380    5977.6464     122.6810         10     126.8206      -0.0401    5968.9066    5968.8666    5966.1250    5966.2108       0.0858
     219.0    4720.5875 1445909.0000    3671.0000     122.1145     122.6599       0.0082    5977.7784    5977.7867     122.6811         10     127.8206      -0.0273    5966.0978    5966.0705    5963.3604    5963.4302       0.0700
     220.0    4689.9194 1445909.0000    3671.0000     122.1142     122.6598       0.0087    5977.7772    5977.7860     122.6812         10     128.8206      -0.0187    5965.3861    5965.3674    5962.6182    5962.6821       0.0638
     221.0    4697.1300 1445909.0000    3671.0000     122.1140     122.6593       0.0084    5977.7731    5977.7815     122.6815         10     129.8206      -0.0078    5965.2192    5965.2116    5962.4953    5962.5528       0.0574
     222.0    4695.8969 1445909.0000    3671.0000     122.1160     122.6604       0.0075    5977.7610    5977.7684     122.6817         10     130.8206       0.0001    5965.1408    5965.1410    5962.3782    5962.4304       0.0524
     223.0    4681.0494 1445909.0000    3671.0000     122.1146     122.6604       0.0070    5977.7952    5977.8021     122.6818         10     131.8206       0.0052    5964.9974    5965.0027    5962.2595    5962.3079       0.0486
     224.0    4687.0269 1445909.0000    3671.0000     122.1146     122.6604       0.0070    5977.7615    5977.7683     122.6819         10     132.8206       0.0078    5964.8229    5964.8306    5962.0962    5962.1414       0.0454
     225.0    4755.4706 1445909.0000    3671.0000     122.1149     122.6611       0.0072    5977.7689    5977.7762     122.6822         10     133.8206       0.0079    5964.7377    5964.7455    5961.9418    5961.9842       0.0425
     226.0    4768.3588 1445909.0000    3671.0000     122.1155     122.6602       0.0071    5977.6865    5977.6936     122.6822         10     134.8206       0.0065    5964.5886    5964.5953    5961.8074    5961.8480       0.0405
     227.0    4777.8475 1445909.0000    3671.0000     122.1145     122.6608       0.0067    5977.6690    5977.6758     122.6825         10     135.8206       0.0046    5964.3221    5964.3266    5961.6395    5961.6792       0.0398
     228.0    4769.3319 1445909.0000    3671.0000     122.1156     122.6599       0.0067    5977.5996    5977.6064     122.6825         10     136.8206       0.0039    5964.3567    5964.3606    5961.4966    5961.5367       0.0401
     229.0    4763.7175 1445909.0000    3671.0000     122.1145     122.6611       0.0075    5977.6360    5977.6436     122.6825         10     137.8206       0.0020    5964.1994    5964.2013    5961.3729    5961.4078       0.0350
     230.0    4706.3769 1445909.0000    3671.0000     122.1152     122.6614       0.0086    5977.6911    5977.6997     122.6826         10     138.8206      -0.0217    5964.0381    5964.0162    5961.2450    5961.2343      -0.0106
