~VERSION INFORMATION
VERS.           2.0   :CWLS Log ASCII Standard - VERSION 2.0
WRAP.           NO    :One Line per depth step
PROD.  Schlumberger   :LAS Producer
PROG.  DLIS to ASCII 2.2                               :LAS Program name and version
CREA.        2020/10/30 12:18                          :LAS Creation date {YYYY/MM/DD hh:mm}
SOURCE.     XPT_HRLA_TLD_MCFL_040LTP.DLIS              :DLIS File Name
FILE-ID.     XPT_HRLA_TLD_MCFL_040LTP                  :File Identification Number
#--------------------------------------------------
~WELL INFORMATION
#MNEM.UNIT      DATA             DESCRIPTION
#---- ------ --------------   -----------------------------
STRT .S          916.0       :START TIME      
STOP .S         1395.0       :STOP TIME      
STEP .S            1.0       :STEP     
NULL .          -999.25      :NULL VALUE
COMP .        Nexus Energy                             :COMPANY
WELL .        Crux-3                                   :WELL
FLD  .        Crux                                     :FIELD
LOC  .        Easting: 656981.7mE                      :LOCATION
CNTY .        Sedco-703                                :COUNTY
STAT .        Northern Territory                       :STATE
CTRY .        Australia                                :COUNTRY
API  .                                                 :API NUMBER
UWI  .                                                 :UNIQUE WELL ID
DATE .        31-Dec-2007                              :LOG DATE {DD-MMM-YYYY}
SRVC .        Schlumberger                             :SERVICE COMPANY
LATI .DEG     12*57'32.63" S                           :LATITUDE
LONG .DEG     124*26'50.07" E                          :LONGITUDE
GDAT .                                                 :GeoDetic Datum
#-----------------------------------------------------------------------------
~PARAMETER INFORMATION
#MNEM.UNIT    VALUE                      DESCRIPTION
#---- -----   --------------------       ------------------------
RUN  .          1                        :RUN NUMBER
PDAT .        LAT                        :Permanent Datum
EPD  .M           0.000000               :Elevation of Permanent Datum above Mean Sea Level
EPD  .M           0.000000               :Elevation of tool zero above Mean Sea Level
LMF  .          DF                       :Logging Measured From (Name of Logging Elevation Reference)
APD  .M          26.400000               :Elevation of Depth Reference (LMF) above Permanent Datum
#-----------------------------------------------------------------------------
~CURVE INFORMATION
#MNEM.UNIT   API CODE                                  DESCRIPTION
#---- -----  --------                                  -----------------------
TIME .S                                                :TIME {F10.1}
TENS_SL.LBF                                            :Cable Tension {F13.4}
DEPT_SL..1IN                                           :Station logging depth {F13.4}
PDEP_XPT.M                                             :XPT Probe Depth {F13.4}
MTEP_SAP.DEGC                                          :Sapphire Gauge Manometer Temperature {F13.4}
MTEP_HYD.DEGC                                          :Hydrostatic Sapphire Gauge Manometer Temperature {F13.4}
PCO_HYD.PSI                                            :Hydrostatic Sapphire Dynamic Compensation {F13.4}
PND_HYD.PSI                                            :Hydrostatic Sapphire Pressure Without Dynamic Compensation {F13.4}
CP_HYD.PSI                                             :Hydrostatic Sapphire Pressure With Dynamic Compensation {F13.4}
MTEP_QG.DEGC                                           :CQG Manometer Temperature {F13.4}
PTNO_XPT.                                              :XPT Pretest Number {I11}
ETIM_XPT.S                                             :Elapsed Logging Time {F13.4}
PCO_SAP.PSI                                            :Sapphire Dynamic Compensation {F13.4}
PND_SAP.PSI                                            :Sapphire Pressure Without Dynamic Compensation {F13.4}
CP_SAP.PSI                                             :Sapphire Pressure With Dynamic Compensation {F13.4}
QNDP .PSI                                              :CQG Pressure Without Dynamic Compensation {F13.4}
QCP  .PSI                                              :CQG Pressure With Dynamic Compensation {F13.4}
QPCO .PSI                                              :CQG Dynamic Compensation {F13.4}
#-----------------------------------------------------------------------------
# 
#     TIME      TENS_SL      DEPT_SL      PDEP_XPT     MTEP_SAP     MTEP_HYD     PCO_HYD      PND_HYD       CP_HYD      MTEP_QG       PTNO_XPT       ETIM_XPT     PCO_SAP      PND_SAP       CP_SAP        QNDP         QCP          QPCO
#
~A  
# ...
    1371.0    4687.2968 1419728.0000    3604.5000     119.1767     119.7348       0.0116    5871.6295    5871.6411     119.7743          6     454.8453       0.0043    5869.7527    5869.7570    5867.3432    5867.2999      -0.0434
    1372.0    4675.1547 1419728.0000    3604.5000     119.1780     119.7354       0.0090    5871.6010    5871.6101     119.7739          6     455.8453       0.0034    5869.8501    5869.8536    5867.3443    5867.3023      -0.0420
    1373.0    4658.0950 1419728.0000    3604.5000     119.1792     119.7349       0.0071    5871.6944    5871.7014     119.7737          6     456.8453       0.0029    5869.9755    5869.9784    5867.3959    5867.3548      -0.0410
    1374.0    4636.4045 1419728.0000    3604.5000     119.1780     119.7352       0.0061    5871.7874    5871.7933     119.7736          6     457.8453       0.0023    5869.9596    5869.9619    5867.4674    5867.4278      -0.0397
    1375.0    4658.3575 1419728.0000    3604.5000     119.1780     119.7344       0.0060    5871.6510    5871.6569     119.7737          6     458.8453       0.0011    5869.9099    5869.9112    5867.4053    5867.3672      -0.0381
    1376.0    4717.0960 1419728.0000    3604.5000     119.1771     119.7354       0.0076    5871.6612    5871.6688     119.7735          6     459.8453       0.0008    5869.7882    5869.7891    5867.3297    5867.2929      -0.0365
    1377.0    4738.8335 1419728.0000    3604.5000     119.1766     119.7363       0.0108    5871.6704    5871.6813     119.7730          6     460.8453       0.0021    5869.8151    5869.8172    5867.2702    5867.2351      -0.0350
    1378.0    4736.7738 1419728.0000    3604.5000     119.1773     119.7356       0.0137    5871.6626    5871.6763     119.7731          6     461.8453       0.0028    5869.6805    5869.6835    5867.1712    5867.1380      -0.0331
    1379.0    4755.4407 1419728.0000    3604.5000     119.1778     119.7362       0.0152    5871.3934    5871.4085     119.7730          6     462.8453       0.0022    5869.6340    5869.6360    5867.1481    5867.1172      -0.0311
    1380.0    4766.6073 1419728.0000    3604.5000     119.1793     119.7364       0.0157    5871.4422    5871.4578     119.7729          6     463.8453       0.0013    5869.7558    5869.7572    5867.2378    5867.2086      -0.0294
    1381.0    4746.8687 1419728.0000    3604.5000     119.1786     119.7363       0.0162    5871.6108    5871.6270     119.7730          6     464.8453       0.0010    5869.7525    5869.7535    5867.2624    5867.2344      -0.0282
    1382.0    4691.4397 1419728.0000    3604.5000     119.1767     119.7371       0.0160    5871.6183    5871.6344     119.7728          6     465.8453       0.0006    5869.7314    5869.7319    5867.3268    5867.2998      -0.0271
    1383.0    4663.4045 1419728.0000    3604.5000     119.1762     119.7357       0.0142    5871.6689    5871.6829     119.7725          6     466.8453      -0.0003    5869.7396    5869.7391    5867.3869    5867.3610      -0.0260
    1384.0    4650.7023 1419728.0000    3604.5000     119.1786     119.7382       0.0114    5871.7641    5871.7753     119.7726          6     467.8453       0.0001    5870.0917    5870.0919    5867.4777    5867.4528      -0.0250
    1385.0    4653.2262 1419728.0000    3604.5000     119.1771     119.7378       0.0085    5871.8263    5871.8347     119.7725          6     468.8453       0.0013    5869.9503    5869.9516    5867.4454    5867.4213      -0.0240
    1386.0    4628.6425 1419728.0000    3604.5000     119.1772     119.7379       0.0064    5871.7462    5871.7525     119.7726          6     469.8453       0.0009    5869.9478    5869.9487    5867.4271    5867.4043      -0.0228
    1387.0    4711.0607 1419728.0000    3604.5000     119.1768     119.7377       0.0059    5871.6697    5871.6756     119.7724          6     470.8453      -0.0023    5869.8858    5869.8833    5867.3351    5867.3136      -0.0215
    1388.0    4734.6073 1419728.0000    3604.5000     119.1785     119.7378       0.0074    5871.6860    5871.6933     119.7723          6     471.8453      -0.0063    5869.7725    5869.7664    5867.2794    5867.2598      -0.0198
    1389.0    4713.1782 1419728.0000    3604.5000     119.1793     119.7360       0.0109    5871.5809    5871.5918     119.7724          6     472.8453      -0.0071    5869.6554    5869.6482    5867.1430    5867.1250      -0.0181
    1390.0    4733.5122 1419728.0000    3604.5000     119.1781     119.7378       0.0132    5871.3889    5871.4692     119.7723          6     473.8453      -0.0062    5869.5621    5869.5854    5867.1290    5867.1055      -0.0172
    1391.0    4763.3575 1419728.0000    3604.5000     119.1764     119.7386       0.0132    5871.3965    5871.4692     119.7723          6     474.8453      -0.0062    5869.5753    5869.5854    5867.2314    5867.1055      -0.0172
    1392.0    4727.4280 1419728.0000    3604.5000     119.1772     119.7392       0.0132    5871.6414    5871.4692     119.7722          6     475.8453      -0.0062    5869.7020    5869.5854    5867.3162    5867.1055      -0.0172
    1393.0    4703.0950 1419728.0000    3604.5000     119.1782     119.7397       0.0132    5871.7081    5871.4692     119.7721          6     476.8453      -0.0062    5869.8029    5869.5854    5867.3258    5867.1055      -0.0172
    1394.0    4666.1900 1419728.0000    3604.5000     119.1798     119.7398       0.0132    5871.6472    5871.4692     119.7718          6     477.8453      -0.0062    5869.7981    5869.5854    5867.3376    5867.1055      -0.0172
    1395.0    4627.8805 1419728.0000    3604.5000     119.1790     119.7406       0.0132    5871.8678    5871.4692     119.7718          6     478.8453      -0.0062    5869.9559    5869.5854    5867.4500    5867.1055      -0.0172
