~VERSION INFORMATION
VERS.           2.0   :CWLS Log ASCII Standard - VERSION 2.0
WRAP.           NO    :One Line per depth step
PROD.  Schlumberger   :LAS Producer
PROG.  DLIS to ASCII 2.2                               :LAS Program name and version
CREA.        2020/10/30 12:18                          :LAS Creation date {YYYY/MM/DD hh:mm}
SOURCE.     XPT_HRLA_TLD_MCFL_059LTP.DLIS              :DLIS File Name
FILE-ID.     XPT_HRLA_TLD_MCFL_059LTP                  :File Identification Number
#--------------------------------------------------
~WELL INFORMATION
#MNEM.UNIT      DATA             DESCRIPTION
#---- ------ --------------   -----------------------------
STRT .S         8390.0       :START TIME      
STOP .S         8580.0       :STOP TIME      
STEP .S            1.0       :STEP     
NULL .          -999.25      :NULL VALUE
COMP .        Nexus Energy                             :COMPANY
WELL .        Crux-3                                   :WELL
FLD  .        Crux                                     :FIELD
LOC  .        Easting: 656981.7mE                      :LOCATION
CNTY .        Sedco-703                                :COUNTY
STAT .        Northern Territory                       :STATE
CTRY .        Australia                                :COUNTRY
API  .                                                 :API NUMBER
UWI  .                                                 :UNIQUE WELL ID
DATE .        31-Dec-2007                              :LOG DATE {DD-MMM-YYYY}
SRVC .        Schlumberger                             :SERVICE COMPANY
LATI .DEG     12*57'32.63" S                           :LATITUDE
LONG .DEG     124*26'50.07" E                          :LONGITUDE
GDAT .                                                 :GeoDetic Datum
#-----------------------------------------------------------------------------
~PARAMETER INFORMATION
#MNEM.UNIT    VALUE                      DESCRIPTION
#---- -----   --------------------       ------------------------
RUN  .          1                        :RUN NUMBER
PDAT .        LAT                        :Permanent Datum
EPD  .M           0.000000               :Elevation of Permanent Datum above Mean Sea Level
EPD  .M           0.000000               :Elevation of tool zero above Mean Sea Level
LMF  .          DF                       :Logging Measured From (Name of Logging Elevation Reference)
APD  .M          26.400000               :Elevation of Depth Reference (LMF) above Permanent Datum
#-----------------------------------------------------------------------------
~CURVE INFORMATION
#MNEM.UNIT   API CODE                                  DESCRIPTION
#---- -----  --------                                  -----------------------
TIME .S                                                :TIME {F10.1}
TENS_SL.LBF                                            :Cable Tension {F13.4}
DEPT_SL..1IN                                           :Station logging depth {F13.4}
PDEP_XPT.M                                             :XPT Probe Depth {F13.4}
MTEP_SAP.DEGC                                          :Sapphire Gauge Manometer Temperature {F13.4}
MTEP_HYD.DEGC                                          :Hydrostatic Sapphire Gauge Manometer Temperature {F13.4}
PCO_HYD.PSI                                            :Hydrostatic Sapphire Dynamic Compensation {F13.4}
PND_HYD.PSI                                            :Hydrostatic Sapphire Pressure Without Dynamic Compensation {F13.4}
CP_HYD.PSI                                             :Hydrostatic Sapphire Pressure With Dynamic Compensation {F13.4}
MTEP_QG.DEGC                                           :CQG Manometer Temperature {F13.4}
PTNO_XPT.                                              :XPT Pretest Number {I11}
ETIM_XPT.S                                             :Elapsed Logging Time {F13.4}
PCO_SAP.PSI                                            :Sapphire Dynamic Compensation {F13.4}
PND_SAP.PSI                                            :Sapphire Pressure Without Dynamic Compensation {F13.4}
CP_SAP.PSI                                             :Sapphire Pressure With Dynamic Compensation {F13.4}
QNDP .PSI                                              :CQG Pressure Without Dynamic Compensation {F13.4}
QCP  .PSI                                              :CQG Pressure With Dynamic Compensation {F13.4}
QPCO .PSI                                              :CQG Dynamic Compensation {F13.4}
#-----------------------------------------------------------------------------
# 
#     TIME      TENS_SL      DEPT_SL      PDEP_XPT     MTEP_SAP     MTEP_HYD     PCO_HYD      PND_HYD       CP_HYD      MTEP_QG       PTNO_XPT       ETIM_XPT     PCO_SAP      PND_SAP       CP_SAP        QNDP         QCP          QPCO
#
~A  
# ...
    8530.0    4883.6800 1535646.0000    3898.9316     128.9627     129.5226       0.0142    6339.4931    6339.5073     129.5847         23     140.0800       0.0175    6336.8055    6336.8231    6334.6028    6334.6414       0.0384
    8531.0    4904.5200 1535646.0000    3898.9316     128.9626     129.5218       0.0136    6339.4116    6339.4252     129.5851         23     141.0800       0.0172    6336.8833    6336.9004    6334.6448    6334.6824       0.0378
    8532.0    4923.1200 1535646.0000    3898.9316     128.9646     129.5244       0.0116    6339.5166    6339.5280     129.5852         23     142.0800       0.0174    6336.9441    6336.9617    6334.6013    6334.6392       0.0380
    8533.0    4938.6400 1535646.0000    3898.9316     128.9643     129.5234       0.0099    6339.3728    6339.3826     129.5854         23     143.0800       0.0184    6336.8647    6336.8832    6334.5217    6334.5603       0.0385
    8534.0    4973.3200 1535646.0000    3898.9316     128.9647     129.5240       0.0099    6339.3760    6339.3859     129.5857         23     144.0800       0.0192    6336.9095    6336.9287    6334.5527    6334.5913       0.0387
    8535.0    5027.7200 1535646.0000    3898.9316     128.9646     129.5240       0.0109    6339.3881    6339.3991     129.5856         23     145.0800       0.0196    6336.8462    6336.8657    6334.5443    6334.5824       0.0381
    8536.0    5085.0400 1535646.0000    3898.9316     128.9664     129.5233       0.0123    6339.3119    6339.3241     129.5858         23     146.0800       0.0188    6336.8642    6336.8827    6334.5124    6334.5495       0.0373
    8537.0    5118.7200 1535646.0000    3898.9316     128.9651     129.5233       0.0140    6339.2471    6339.2610     129.5861         23     147.0800       0.0162    6336.8075    6336.8237    6334.4335    6334.4690       0.0356
    8538.0    5103.6800 1535646.0000    3898.9316     128.9659     129.5256       0.0165    6339.3201    6339.3365     129.5861         23     148.0800       0.0121    6336.7753    6336.7874    6334.4421    6334.4752       0.0332
    8539.0    5092.8800 1535646.0000    3898.9316     128.9683     129.5248       0.0184    6339.2660    6339.2845     129.5861         23     149.0800       0.0083    6336.7931    6336.8015    6334.4072    6334.4384       0.0311
    8540.0    5004.4400 1535646.0000    3898.9316     128.9670     129.5255       0.0175    6339.2784    6339.2958     129.5864         23     150.0800       0.0060    6336.7701    6336.7760    6334.4196    6334.4499       0.0301
    8541.0    4924.5200 1535646.0000    3898.9316     128.9670     129.5249       0.0145    6339.3375    6339.3521     129.5865         23     151.0800       0.0059    6334.3079    6334.3138    6331.9884    6332.0194       0.0311
    8542.0    4869.0800 1535646.0000    3898.9316     128.9642     129.5263       0.0126    6339.4006    6339.4133     129.5865         24     152.0800       0.0089    6333.9081    6333.9169    6331.5646    6331.5982       0.0335
    8543.0    4823.9200 1535646.0000    3898.9316     128.9663     129.5267       0.0137    6339.4771    6339.4909     129.5864         24     153.0800       0.0146    6334.5215    6334.5362    6332.2694    6332.3063       0.0368
    8544.0    4831.4000 1535646.0000    3898.9316     128.9666     129.5263       0.0161    6339.5215    6339.5374     129.5866         24     154.0800       0.0197    6334.9052    6334.9248    6332.4865    6332.5267       0.0402
    8545.0    4938.2400 1535646.0000    3898.9316     128.9667     129.5256       0.0174    6339.5132    6339.5307     129.5869         24     155.0800       0.0214    6334.7841    6334.8056    6332.4797    6332.5222       0.0424
    8546.0    5063.2000 1535646.0000    3898.9316     128.9684     129.5276       0.0176    6339.5359    6339.5535     129.5870         24     156.0800       0.0198    6336.4752    6336.4950    6334.1204    6334.1640       0.0436
    8547.0    5143.7600 1535646.0000    3898.9316     128.9691     129.5275       0.0172    6339.4625    6339.4798     129.5872         24     157.0800       0.0168    6336.8307    6336.8475    6334.4089    6334.4528       0.0441
    8548.0    5116.4800 1535646.0000    3898.9316     128.9684     129.5282       0.0157    6339.2683    6339.2840     129.5873         24     158.0800       0.0131    6336.7013    6336.7146    6334.3154    6334.3598       0.0445
    8549.0    5090.2800 1535646.0000    3898.9316     128.9692     129.5280       0.0131    6339.2381    6339.2510     129.5872         24     159.0800       0.0100    6336.6454    6336.6555    6334.2907    6334.3351       0.0446
    8550.0    4986.2400 1535646.0000    3898.9316     128.9688     129.5287       0.0099    6339.2700    6339.2800     129.5875         24     160.0800       0.0104    6336.8038    6336.8142    6334.4237    6334.4684       0.0446
    8551.0    4947.8000 1535646.0000    3898.9316     128.9695     129.5281       0.0080    6339.3272    6339.3350     129.5876         24     161.0800       0.0149    6336.9169    6336.9319    6334.4907    6334.5356       0.0450
    8552.0    4996.2000 1535646.0000    3898.9316     128.9697     129.5281       0.0084    6339.4357    6339.4441     129.5878         24     162.0800       0.0205    6336.9668    6336.9872    6334.6242    6334.6691       0.0450
    8553.0    4919.4400 1535646.0000    3898.9316     128.9692     129.5291       0.0116    6339.5629    6339.5745     129.5879         24     163.0800       0.0226    6337.0485    6337.0710    6334.6810    6334.7254       0.0446
    8554.0    4947.6800 1535646.0000    3898.9316     128.9713     129.5286       0.0155    6339.4812    6339.4968     129.5881         24     164.0800       0.0213    6336.9130    6336.9340    6334.5744    6334.6188       0.0442
    8555.0    5080.4800 1535646.0000    3898.9316     128.9719     129.5279       0.0171    6339.3414    6339.3585     129.5881         24     165.0800       0.0190    6336.8988    6336.9177    6334.5230    6334.5668       0.0438
    8556.0    5066.4400 1535646.0000    3898.9316     128.9716     129.5298       0.0169    6339.3780    6339.3948     129.5883         24     166.0800       0.0173    6336.9042    6336.9215    6334.4920    6334.5354       0.0433
    8557.0    5106.5600 1535646.0000    3898.9316     128.9710     129.5308       0.0162    6339.2800    6339.2962     129.5881         24     167.0800       0.0163    6336.6989    6336.7150    6334.3944    6334.4369       0.0426
    8558.0    5106.6800 1535646.0000    3898.9316     128.9721     129.5301       0.0157    6339.2461    6339.2617     129.5886         24     168.0800       0.0159    6336.7509    6336.7669    6334.3990    6334.4420       0.0429
    8559.0    5024.7200 1535646.0000    3898.9316     128.9717     129.5307       0.0143    6339.3880    6339.4023     129.5887         24     169.0800       0.0162    6336.7965    6336.8126    6334.4506    6334.4945       0.0440
    8560.0    4920.9600 1535646.0000    3898.9316     128.9724     129.5301       0.0123    6339.3283    6339.3406     129.5890         24     170.0800       0.0164    6336.8617    6336.8783    6334.5276    6334.5721       0.0446
    8561.0    4954.1200 1535646.0000    3898.9316     128.9730     129.5313       0.0107    6339.1659    6339.1766     129.5890         24     171.0800       0.0159    6336.9686    6336.9846    6334.5717    6334.6157       0.0441
    8562.0    4939.6000 1535646.0000    3898.9316     128.9731     129.5304       0.0104    6339.2762    6339.2864     129.5892         24     172.0800       0.0151    6337.1287    6337.1438    6334.8126    6334.8561       0.0437
    8563.0    4897.7200 1535646.0000    3898.9316     128.9736     129.5316       0.0112    6339.5203    6339.5315     129.5891         24     173.0800       0.0147    6337.1904    6337.2051    6334.7719    6334.8158       0.0441
    8564.0    5007.2800 1535646.0000    3898.9316     128.9726     129.5325       0.0126    6339.3681    6339.3808     129.5895         24     174.0800       0.0146    6336.9713    6336.9860    6334.6150    6334.6594       0.0446
