~VERSION INFORMATION
VERS.           2.0   :CWLS Log ASCII Standard - VERSION 2.0
WRAP.           NO    :One Line per depth step
PROD.  Schlumberger   :LAS Producer
PROG.  DLIS to ASCII 2.2                               :LAS Program name and version
CREA.        2020/10/30 12:18                          :LAS Creation date {YYYY/MM/DD hh:mm}
SOURCE.     XPT_HRLA_TLD_MCFL_059LTP.DLIS              :DLIS File Name
FILE-ID.     XPT_HRLA_TLD_MCFL_059LTP                  :File Identification Number
#--------------------------------------------------
~WELL INFORMATION
#MNEM.UNIT      DATA             DESCRIPTION
#---- ------ --------------   -----------------------------
STRT .S         8390.0       :START TIME      
STOP .S         8580.0       :STOP TIME      
STEP .S            1.0       :STEP     
NULL .          -999.25      :NULL VALUE
COMP .        Nexus Energy                             :COMPANY
WELL .        Crux-3                                   :WELL
FLD  .        Crux                                     :FIELD
LOC  .        Easting: 656981.7mE                      :LOCATION
CNTY .        Sedco-703                                :COUNTY
STAT .        Northern Territory                       :STATE
CTRY .        Australia                                :COUNTRY
API  .                                                 :API NUMBER
UWI  .                                                 :UNIQUE WELL ID
DATE .        31-Dec-2007                              :LOG DATE {DD-MMM-YYYY}
SRVC .        Schlumberger                             :SERVICE COMPANY
LATI .DEG     12*57'32.63" S                           :LATITUDE
LONG .DEG     124*26'50.07" E                          :LONGITUDE
GDAT .                                                 :GeoDetic Datum
#-----------------------------------------------------------------------------
~PARAMETER INFORMATION
#MNEM.UNIT    VALUE                      DESCRIPTION
#---- -----   --------------------       ------------------------
RUN  .          1                        :RUN NUMBER
PDAT .        LAT                        :Permanent Datum
EPD  .M           0.000000               :Elevation of Permanent Datum above Mean Sea Level
EPD  .M           0.000000               :Elevation of tool zero above Mean Sea Level
LMF  .          DF                       :Logging Measured From (Name of Logging Elevation Reference)
APD  .M          26.400000               :Elevation of Depth Reference (LMF) above Permanent Datum
#-----------------------------------------------------------------------------
~CURVE INFORMATION
#MNEM.UNIT   API CODE                                  DESCRIPTION
#---- -----  --------                                  -----------------------
TIME .S                                                :TIME {F10.1}
TENS_SL.LBF                                            :Cable Tension {F13.4}
DEPT_SL..1IN                                           :Station logging depth {F13.4}
PDEP_XPT.M                                             :XPT Probe Depth {F13.4}
MTEP_SAP.DEGC                                          :Sapphire Gauge Manometer Temperature {F13.4}
MTEP_HYD.DEGC                                          :Hydrostatic Sapphire Gauge Manometer Temperature {F13.4}
PCO_HYD.PSI                                            :Hydrostatic Sapphire Dynamic Compensation {F13.4}
PND_HYD.PSI                                            :Hydrostatic Sapphire Pressure Without Dynamic Compensation {F13.4}
CP_HYD.PSI                                             :Hydrostatic Sapphire Pressure With Dynamic Compensation {F13.4}
MTEP_QG.DEGC                                           :CQG Manometer Temperature {F13.4}
PTNO_XPT.                                              :XPT Pretest Number {I11}
ETIM_XPT.S                                             :Elapsed Logging Time {F13.4}
PCO_SAP.PSI                                            :Sapphire Dynamic Compensation {F13.4}
PND_SAP.PSI                                            :Sapphire Pressure Without Dynamic Compensation {F13.4}
CP_SAP.PSI                                             :Sapphire Pressure With Dynamic Compensation {F13.4}
QNDP .PSI                                              :CQG Pressure Without Dynamic Compensation {F13.4}
QCP  .PSI                                              :CQG Pressure With Dynamic Compensation {F13.4}
QPCO .PSI                                              :CQG Dynamic Compensation {F13.4}
#-----------------------------------------------------------------------------
# 
#     TIME      TENS_SL      DEPT_SL      PDEP_XPT     MTEP_SAP     MTEP_HYD     PCO_HYD      PND_HYD       CP_HYD      MTEP_QG       PTNO_XPT       ETIM_XPT     PCO_SAP      PND_SAP       CP_SAP        QNDP         QCP          QPCO
#
~A  
# ...
    8460.0    5121.4400 1535646.0000    3898.9316     128.9394     129.5022       0.0157    6339.4351    6339.4507     129.5739         22      70.0800      -0.0163    6336.8396    6336.8232    6334.5540    6334.5148      -0.0392
    8461.0    5067.4000 1535646.0000    3898.9316     128.9410     129.5037       0.0157    6339.3909    6339.4065     129.5743         22      71.0800      -0.0452    6336.8125    6336.7672    6334.4850    6334.3981      -0.0870
    8462.0    5045.7200 1535646.0000    3898.9316     128.9404     129.5013       0.0172    6339.2526    6339.2699     129.5743         22      72.0800      -0.0709    6336.4566    6336.3857    6334.2382    6334.1077      -0.1306
    8463.0    5004.0000 1535646.0000    3898.9316     128.9407     129.5018       0.0192    6339.3403    6339.3595     129.5731         22      73.0800      -0.0848    6320.9990    6320.9144    6308.9467    6308.7813      -0.1653
    8464.0    4956.0800 1535646.0000    3898.9316     128.9315     129.5037       0.0220    6339.5723    6339.5942     129.5720         22      74.0800      -0.0855    6280.8833    6280.7978    6279.5356    6279.3451      -0.1904
    8465.0    4932.5600 1535646.0000    3898.9316     128.9295     129.5037       0.0238    6339.5723    6339.5962     129.5715         22      75.0800      -0.0739    6273.2261    6273.1523    6271.6963    6271.4944      -0.2019
    8466.0    4916.6400 1535646.0000    3898.9316     128.9309     129.5044       0.0224    6339.5200    6339.5424     129.5710         22      76.0800      -0.0511    6270.9536    6270.9026    6269.3477    6269.1477      -0.1998
    8467.0    4929.6800 1535646.0000    3898.9316     128.9307     129.5052       0.0187    6339.5843    6339.6029     129.5704         22      77.0800      -0.0233    6267.8647    6267.8412    6266.0408    6265.8492      -0.1917
    8468.0    5001.4000 1535646.0000    3898.9316     128.9312     129.5052       0.0161    6339.5566    6339.5726     129.5700         22      78.0800      -0.0001    6266.7994    6266.7992    6263.8378    6263.6508      -0.1870
    8469.0    5079.5600 1535646.0000    3898.9316     128.9327     129.5052       0.0159    6339.4678    6339.4837     129.5695         22      79.0800       0.0118    6264.4766    6264.4885    6260.2256    6260.0367      -0.1888
    8470.0    5131.2800 1535646.0000    3898.9316     128.9315     129.5043       0.0171    6339.4038    6339.4209     129.5685         22      80.0800       0.0147    6249.6357    6249.6504    6247.9067    6247.7144      -0.1923
    8471.0    5123.6400 1535646.0000    3898.9316     128.9304     129.5057       0.0194    6339.4198    6339.4391     129.5679         22      81.0800       0.0160    6244.3326    6244.3485    6242.4649    6242.2740      -0.1908
    8472.0    5127.4800 1535646.0000    3898.9316     128.9337     129.5064       0.0217    6339.4148    6339.4366     129.5674         22      82.0800       0.0217    6243.0834    6243.1049    6241.1685    6240.9882      -0.1802
    8473.0    5080.3600 1535646.0000    3898.9316     128.9321     129.5065       0.0222    6339.3596    6339.3816     129.5668         22      83.0800       0.0318    6235.8372    6235.8692    6233.8161    6233.6545      -0.1614
    8474.0    4999.0400 1535646.0000    3898.9316     128.9328     129.5067       0.0200    6339.4193    6339.4392     129.5665         22      84.0800       0.0432    6232.0283    6232.0715    6230.0195    6229.8808      -0.1386
    8475.0    4940.8000 1535646.0000    3898.9316     128.9342     129.5078       0.0173    6339.4417    6339.4590     129.5658         22      85.0800       0.0525    6231.8171    6231.8695    6229.7497    6229.6342      -0.1153
    8476.0    4925.7200 1535646.0000    3898.9316     128.9339     129.5066       0.0163    6339.4957    6339.5118     129.5657         22      86.0800       0.0560    6233.5194    6233.5755    6231.2774    6231.1823      -0.0952
    8477.0    4911.8800 1535646.0000    3898.9316     128.9364     129.5072       0.0164    6339.5516    6339.5682     129.5655         22      87.0800       0.0501    6234.9549    6235.0051    6232.7683    6232.6847      -0.0836
    8478.0    4927.3600 1535646.0000    3898.9316     128.9390     129.5084       0.0159    6339.5088    6339.5246     129.5651         22      88.0800       0.0334    6236.0684    6236.1017    6233.6853    6233.5993      -0.0860
    8479.0    4994.2000 1535646.0000    3898.9316     128.9396     129.5081       0.0149    6339.5080    6339.5227     129.5653         22      89.0800       0.0089    6234.5687    6234.5775    6232.2243    6232.1213      -0.1029
    8480.0    5057.2800 1535646.0000    3898.9316     128.9399     129.5095       0.0143    6339.5764    6339.5906     129.5650         22      90.0800      -0.0181    6235.6300    6235.6121    6233.2936    6233.1641      -0.1296
    8481.0    5096.7600 1535646.0000    3898.9316     128.9379     129.5103       0.0132    6339.4697    6339.4828     129.5646         22      91.0800      -0.0321    6225.0688    6225.0367    6222.8559    6222.7175      -0.1384
    8482.0    5117.6400 1535646.0000    3898.9316     128.9363     129.5088       0.0099    6339.4531    6339.4630     129.5638         22      92.0800      -0.0104    6209.8054    6209.7948    6207.6650    6207.5694      -0.0956
    8483.0    5122.2800 1535646.0000    3898.9316     128.9339     129.5090       0.0053    6339.3945    6339.3996     129.5632         22      93.0800       0.0582    6195.8909    6195.9492    6193.8971    6193.9091       0.0119
    8484.0    5086.0400 1535646.0000    3898.9316     128.9333     129.5098       0.0035    6339.4032    6339.4066     129.5621         22      94.0800       0.1501    6181.8442    6181.9944    6179.9814    6180.1321       0.1505
    8485.0    5024.9200 1535646.0000    3898.9316     128.9327     129.5089       0.0061    6339.4521    6339.4584     129.5615         22      95.0800       0.2290    6168.3626    6168.5917    6166.5296    6166.8070       0.2776
    8486.0    4976.3200 1535646.0000    3898.9316     128.9353     129.5097       0.0114    6339.4629    6339.4741     129.5624         22      96.0800       0.2744    6197.7052    6197.9798    6195.1045    6195.4837       0.3794
    8487.0    4957.4000 1535646.0000    3898.9316     128.9615     129.5085       0.0169    6339.4922    6339.5092     129.5687         22      97.0800       0.2845    6337.3091    6337.5936    6333.2396    6333.6925       0.4529
    8488.0    4965.9200 1535646.0000    3898.9316     128.9649     129.5088       0.0219    6339.4225    6339.4444     129.5690         22      98.0800       0.2546    6337.9789    6338.2333    6334.0422    6334.5240       0.4819
    8489.0    5014.7600 1535646.0000    3898.9316     128.9655     129.5108       0.0264    6339.5186    6339.5448     129.5700         22      99.0800       0.1811    6337.7658    6337.9470    6333.9884    6334.4401       0.4518
    8490.0    5060.3200 1535646.0000    3898.9316     128.9664     129.5108       0.0288    6339.4142    6339.4430     129.5711         22     100.0800       0.0897    6337.6045    6337.6941    6334.1101    6334.5036       0.3936
    8491.0    5086.9200 1535646.0000    3898.9316     128.9670     129.5119       0.0278    6339.4485    6339.4764     129.5723         22     101.0800       0.0159    6337.3547    6337.3705    6334.0674    6334.4163       0.3489
    8492.0    5081.3600 1535646.0000    3898.9316     128.9646     129.5126       0.0244    6339.4057    6339.4302     129.5734         22     102.0800      -0.0230    6337.3299    6337.3069    6334.1665    6334.4971       0.3307
    8493.0    5023.6000 1535646.0000    3898.9316     128.9642     129.5128       0.0212    6339.4718    6339.4930     129.5744         22     103.0800      -0.0371    6337.1734    6337.1363    6334.2049    6334.5253       0.3205
    8494.0    4970.2000 1535646.0000    3898.9316     128.9625     129.5121       0.0195    6339.3897    6339.4092     129.5754         22     104.0800      -0.0415    6337.0947    6337.0532    6334.2438    6334.5469       0.3031
