~VERSION INFORMATION
VERS.           2.0   :CWLS Log ASCII Standard - VERSION 2.0
WRAP.           NO    :One Line per depth step
PROD.  Schlumberger   :LAS Producer
PROG.  DLIS to ASCII 2.2                               :LAS Program name and version
CREA.        2020/10/30 12:18                          :LAS Creation date {YYYY/MM/DD hh:mm}
SOURCE.     XPT_HRLA_TLD_MCFL_051LTP.DLIS              :DLIS File Name
FILE-ID.     XPT_HRLA_TLD_MCFL_051LTP                  :File Identification Number
#--------------------------------------------------
~WELL INFORMATION
#MNEM.UNIT      DATA             DESCRIPTION
#---- ------ --------------   -----------------------------
STRT .S         3209.0       :START TIME      
STOP .S         3664.0       :STOP TIME      
STEP .S            1.0       :STEP     
NULL .          -999.25      :NULL VALUE
COMP .        Nexus Energy                             :COMPANY
WELL .        Crux-3                                   :WELL
FLD  .        Crux                                     :FIELD
LOC  .        Easting: 656981.7mE                      :LOCATION
CNTY .        Sedco-703                                :COUNTY
STAT .        Northern Territory                       :STATE
CTRY .        Australia                                :COUNTRY
API  .                                                 :API NUMBER
UWI  .                                                 :UNIQUE WELL ID
DATE .        31-Dec-2007                              :LOG DATE {DD-MMM-YYYY}
SRVC .        Schlumberger                             :SERVICE COMPANY
LATI .DEG     12*57'32.63" S                           :LATITUDE
LONG .DEG     124*26'50.07" E                          :LONGITUDE
GDAT .                                                 :GeoDetic Datum
#-----------------------------------------------------------------------------
~PARAMETER INFORMATION
#MNEM.UNIT    VALUE                      DESCRIPTION
#---- -----   --------------------       ------------------------
RUN  .          1                        :RUN NUMBER
PDAT .        LAT                        :Permanent Datum
EPD  .M           0.000000               :Elevation of Permanent Datum above Mean Sea Level
EPD  .M           0.000000               :Elevation of tool zero above Mean Sea Level
LMF  .          DF                       :Logging Measured From (Name of Logging Elevation Reference)
APD  .M          26.400000               :Elevation of Depth Reference (LMF) above Permanent Datum
#-----------------------------------------------------------------------------
~CURVE INFORMATION
#MNEM.UNIT   API CODE                                  DESCRIPTION
#---- -----  --------                                  -----------------------
TIME .S                                                :TIME {F10.1}
TENS_SL.LBF                                            :Cable Tension {F13.4}
DEPT_SL..1IN                                           :Station logging depth {F13.4}
PDEP_XPT.M                                             :XPT Probe Depth {F13.4}
MTEP_SAP.DEGC                                          :Sapphire Gauge Manometer Temperature {F13.4}
MTEP_HYD.DEGC                                          :Hydrostatic Sapphire Gauge Manometer Temperature {F13.4}
PCO_HYD.PSI                                            :Hydrostatic Sapphire Dynamic Compensation {F13.4}
PND_HYD.PSI                                            :Hydrostatic Sapphire Pressure Without Dynamic Compensation {F13.4}
CP_HYD.PSI                                             :Hydrostatic Sapphire Pressure With Dynamic Compensation {F13.4}
MTEP_QG.DEGC                                           :CQG Manometer Temperature {F13.4}
PTNO_XPT.                                              :XPT Pretest Number {I11}
ETIM_XPT.S                                             :Elapsed Logging Time {F13.4}
PCO_SAP.PSI                                            :Sapphire Dynamic Compensation {F13.4}
PND_SAP.PSI                                            :Sapphire Pressure Without Dynamic Compensation {F13.4}
CP_SAP.PSI                                             :Sapphire Pressure With Dynamic Compensation {F13.4}
QNDP .PSI                                              :CQG Pressure Without Dynamic Compensation {F13.4}
QCP  .PSI                                              :CQG Pressure With Dynamic Compensation {F13.4}
QPCO .PSI                                              :CQG Dynamic Compensation {F13.4}
#-----------------------------------------------------------------------------
# 
#     TIME      TENS_SL      DEPT_SL      PDEP_XPT     MTEP_SAP     MTEP_HYD     PCO_HYD      PND_HYD       CP_HYD      MTEP_QG       PTNO_XPT       ETIM_XPT     PCO_SAP      PND_SAP       CP_SAP        QNDP         QCP          QPCO
#
~A  
# ...
    3314.0    5023.4560 1496497.0000    3799.4934     125.1161     125.7283       0.0328    6181.5439    6181.5768     125.3490         14     105.0840      -0.7359    6165.8552    6165.1192    6162.5721    6161.6153      -0.9570
    3315.0    4963.3360 1496497.0000    3799.4934     125.1173     125.7290       0.0340    6181.5518    6181.5857     125.3497         14     106.0840      -1.0709    6165.8348    6164.7640    6162.4513    6160.8861      -1.5653
    3316.0    4964.9000 1496497.0000    3799.4934     125.0983     125.7298       0.0358    6181.5560    6181.5916     125.3451         14     107.0840      -1.2731    6028.8684    6027.5952    6028.7848    6026.7306      -2.0540
    3317.0    4940.8240 1496497.0000    3799.4934     125.0194     125.7313       0.0376    6181.6879    6181.7257     125.3238         15     108.0840      -1.2721    5548.3198    5547.0475    5554.2078    5551.8714      -2.3364
    3318.0    4930.1000 1496497.0000    3799.4934     124.9806     125.7313       0.0380    6181.6362    6181.6743     125.3143         15     109.0840      -1.0375    5380.5096    5379.4720    5386.6350    5384.2910      -2.3440
    3319.0    4955.1000 1496497.0000    3799.4934     124.9636     125.7321       0.0361    6181.5845    6181.6206     125.3070         15     110.0840      -0.5874    5299.1541    5298.5668    5304.9158    5302.8575      -2.0582
    3320.0    4982.7040 1496497.0000    3799.4934     124.9600     125.7329       0.0331    6181.6444    6181.6774     125.3001         15     111.0840      -0.0358    5260.4755    5260.4397    5265.4393    5263.8513      -1.5882
    3321.0    5038.0320 1496497.0000    3799.4934     124.9746     125.7333       0.0314    6181.5979    6181.6293     125.2973         15     112.0840       0.4489    5326.8670    5327.3158    5328.7969    5327.6838      -1.1133
    3322.0    5080.6560 1496497.0000    3799.4934     125.0119     125.7339       0.0322    6181.6036    6181.6358     125.2993         15     113.0840       0.7553    5486.0957    5486.8509    5485.1826    5484.4373      -0.7455
    3323.0    5063.4800 1496497.0000    3799.4934     125.0359     125.7350       0.0342    6181.5472    6181.5815     125.2972         15     114.0840       0.8583    5532.4156    5533.2739    5529.8799    5529.3744      -0.5054
    3324.0    5034.9920 1496497.0000    3799.4934     125.0513     125.7346       0.0346    6181.4543    6181.4890     125.2948         15     115.0840       0.8040    5551.4977    5552.3015    5548.2761    5547.9146      -0.3615
    3325.0    5019.3800 1496497.0000    3799.4934     125.0601     125.7354       0.0326    6181.4393    6181.4720     125.2933         15     116.0840       0.6606    5560.6372    5561.2980    5557.1809    5556.9134      -0.2676
    3326.0    4965.1360 1496497.0000    3799.4934     125.0685     125.7369       0.0304    6181.5754    6181.6057     125.2923         15     117.0840       0.5030    5566.3828    5566.8855    5562.8579    5562.6860      -0.1718
    3327.0    4924.5960 1496497.0000    3799.4934     125.0764     125.7379       0.0298    6181.5861    6181.6159     125.2924         15     118.0840       0.3806    5570.4384    5570.8190    5566.8716    5566.8206      -0.0510
    3328.0    4944.6880 1496497.0000    3799.4934     125.0809     125.7376       0.0302    6181.6245    6181.6547     125.2924         15     119.0840       0.2989    5572.9078    5573.2068    5569.3537    5569.4318       0.0783
    3329.0    4970.7240 1496497.0000    3799.4934     125.0848     125.7372       0.0303    6181.7254    6181.7557     125.2928         15     120.0840       0.2433    5574.6118    5574.8551    5571.0053    5571.1969       0.1915
    3330.0    4937.8560 1496497.0000    3799.4934     125.0890     125.7380       0.0309    6181.6337    6181.6648     125.2939         15     121.0840       0.2030    5575.6901    5575.8933    5572.0714    5572.3547       0.2832
    3331.0    4975.5520 1496497.0000    3799.4934     125.0919     125.7392       0.0337    6181.6323    6181.6660     125.2948         15     122.0840       0.1736    5575.9229    5576.0967    5572.3775    5572.7333       0.3557
    3332.0    5046.6640 1496497.0000    3799.4934     125.0926     125.7400       0.0375    6181.5100    6181.5473     125.2963         15     123.0840       0.1518    5575.9385    5576.0903    5572.4476    5572.8599       0.4122
    3333.0    5045.1000 1496497.0000    3799.4934     125.0961     125.7414       0.0386    6181.5402    6181.5788     125.2980         15     124.0840       0.1331    5576.0186    5576.1514    5572.5169    5572.9779       0.4609
    3334.0    5068.9240 1496497.0000    3799.4934     125.0984     125.7404       0.0349    6181.4682    6181.5029     125.2994         15     125.0840       0.1217    5576.0761    5576.1978    5572.4972    5572.9874       0.4904
    3335.0    5075.4720 1496497.0000    3799.4934     125.1012     125.7420       0.0288    6181.3682    6181.3971     125.3011         15     126.0840       0.1117    5575.9815    5576.0931    5572.4831    5572.9990       0.5159
    3336.0    5034.7320 1496497.0000    3799.4934     125.1024     125.7431       0.0257    6181.4617    6181.4875     125.3029         15     127.0840       0.1016    5576.0672    5576.1688    5572.4820    5573.0181       0.5362
    3337.0    5005.3800 1496497.0000    3799.4934     125.1039     125.7428       0.0265    6181.4653    6181.4916     125.3045         15     128.0840       0.0927    5575.9519    5576.0443    5572.4691    5573.0168       0.5475
    3338.0    4952.3120 1496497.0000    3799.4934     125.1058     125.7427       0.0291    6181.4963    6181.5254     125.3067         15     129.0840       0.0823    5575.9499    5576.0321    5572.4483    5573.0055       0.5570
    3339.0    4924.1760 1496497.0000    3799.4934     125.1071     125.7424       0.0315    6181.5583    6181.5897     125.3083         15     130.0840       0.0740    5575.9734    5576.0474    5572.4350    5572.9989       0.5639
    3340.0    4940.0240 1496497.0000    3799.4934     125.1088     125.7456       0.0351    6181.6018    6181.6369     125.3101         15     131.0840       0.0694    5575.8787    5575.9481    5572.4304    5572.9997       0.5692
    3341.0    4972.2440 1496497.0000    3799.4934     125.1105     125.7450       0.0389    6181.6621    6181.7010     125.3119         15     132.0840       0.0678    5575.9401    5576.0078    5572.4090    5572.9814       0.5725
    3342.0    4967.0240 1496497.0000    3799.4934     125.1107     125.7463       0.0406    6181.6687    6181.7092     125.3138         15     133.0840       0.0669    5575.9252    5575.9921    5572.3855    5572.9593       0.5737
    3343.0    5004.5360 1496497.0000    3799.4934     125.1130     125.7465       0.0393    6181.5618    6181.6009     125.3155         15     134.0840       0.0667    5575.9636    5576.0305    5572.3703    5572.9436       0.5731
    3344.0    5053.1600 1496497.0000    3799.4934     125.1135     125.7473       0.0357    6181.5747    6181.6105     125.3177         15     135.0840       0.0679    5575.8732    5575.9412    5572.3620    5572.9335       0.5715
    3345.0    5043.3280 1496497.0000    3799.4934     125.1152     125.7486       0.0316    6181.5362    6181.5678     125.3194         15     136.0840       0.0690    5575.9001    5575.9690    5572.3481    5572.9173       0.5692
    3346.0    5038.7720 1496497.0000    3799.4934     125.1154     125.7480       0.0282    6181.3991    6181.4275     125.3211         15     137.0840       0.0671    5575.8367    5575.9037    5572.3397    5572.9062       0.5663
    3347.0    5069.2520 1496497.0000    3799.4934     125.1176     125.7490       0.0271    6181.4736    6181.5005     125.3230         15     138.0840       0.0616    5575.8870    5575.9484    5572.3234    5572.8866       0.5631
    3348.0    5066.0360 1496497.0000    3799.4934     125.1193     125.7499       0.0278    6181.5343    6181.5621     125.3249         15     139.0840       0.0554    5575.8455    5575.9009    5572.3045    5572.8640       0.5594
