~VERSION INFORMATION
VERS.           2.0   :CWLS Log ASCII Standard - VERSION 2.0
WRAP.           NO    :One Line per depth step
PROD.  Schlumberger   :LAS Producer
PROG.  DLIS to ASCII 2.2                               :LAS Program name and version
CREA.        2020/10/30 12:18                          :LAS Creation date {YYYY/MM/DD hh:mm}
SOURCE.     XPT_HRLA_TLD_MCFL_069LTP.DLIS              :DLIS File Name
FILE-ID.     XPT_HRLA_TLD_MCFL_069LTP                  :File Identification Number
#--------------------------------------------------
~WELL INFORMATION
#MNEM.UNIT      DATA             DESCRIPTION
#---- ------ --------------   -----------------------------
STRT .S         1113.0       :START TIME      
STOP .S         1454.0       :STOP TIME      
STEP .S            1.0       :STEP     
NULL .          -999.25      :NULL VALUE
COMP .        Nexus Energy                             :COMPANY
WELL .        Crux-3                                   :WELL
FLD  .        Crux                                     :FIELD
LOC  .        Easting: 656981.7mE                      :LOCATION
CNTY .        Sedco-703                                :COUNTY
STAT .        Northern Territory                       :STATE
CTRY .        Australia                                :COUNTRY
API  .                                                 :API NUMBER
UWI  .                                                 :UNIQUE WELL ID
DATE .        31-Dec-2007                              :LOG DATE {DD-MMM-YYYY}
SRVC .        Schlumberger                             :SERVICE COMPANY
LATI .DEG     12*57'32.63" S                           :LATITUDE
LONG .DEG     124*26'50.07" E                          :LONGITUDE
GDAT .                                                 :GeoDetic Datum
#-----------------------------------------------------------------------------
~PARAMETER INFORMATION
#MNEM.UNIT    VALUE                      DESCRIPTION
#---- -----   --------------------       ------------------------
RUN  .          1                        :RUN NUMBER
PDAT .        LAT                        :Permanent Datum
EPD  .M           0.000000               :Elevation of Permanent Datum above Mean Sea Level
EPD  .M           0.000000               :Elevation of tool zero above Mean Sea Level
LMF  .          DF                       :Logging Measured From (Name of Logging Elevation Reference)
APD  .M          26.400000               :Elevation of Depth Reference (LMF) above Permanent Datum
#-----------------------------------------------------------------------------
~CURVE INFORMATION
#MNEM.UNIT   API CODE                                  DESCRIPTION
#---- -----  --------                                  -----------------------
TIME .S                                                :TIME {F10.1}
TENS_SL.LBF                                            :Cable Tension {F13.4}
DEPT_SL..1IN                                           :Station logging depth {F13.4}
PDEP_XPT.M                                             :XPT Probe Depth {F13.4}
MTEP_SAP.DEGC                                          :Sapphire Gauge Manometer Temperature {F13.4}
MTEP_HYD.DEGC                                          :Hydrostatic Sapphire Gauge Manometer Temperature {F13.4}
PCO_HYD.PSI                                            :Hydrostatic Sapphire Dynamic Compensation {F13.4}
PND_HYD.PSI                                            :Hydrostatic Sapphire Pressure Without Dynamic Compensation {F13.4}
CP_HYD.PSI                                             :Hydrostatic Sapphire Pressure With Dynamic Compensation {F13.4}
MTEP_QG.DEGC                                           :CQG Manometer Temperature {F13.4}
PTNO_XPT.                                              :XPT Pretest Number {I11}
ETIM_XPT.S                                             :Elapsed Logging Time {F13.4}
PCO_SAP.PSI                                            :Sapphire Dynamic Compensation {F13.4}
PND_SAP.PSI                                            :Sapphire Pressure Without Dynamic Compensation {F13.4}
CP_SAP.PSI                                             :Sapphire Pressure With Dynamic Compensation {F13.4}
QNDP .PSI                                              :CQG Pressure Without Dynamic Compensation {F13.4}
QCP  .PSI                                              :CQG Pressure With Dynamic Compensation {F13.4}
QPCO .PSI                                              :CQG Dynamic Compensation {F13.4}
#-----------------------------------------------------------------------------
# 
#     TIME      TENS_SL      DEPT_SL      PDEP_XPT     MTEP_SAP     MTEP_HYD     PCO_HYD      PND_HYD       CP_HYD      MTEP_QG       PTNO_XPT       ETIM_XPT     PCO_SAP      PND_SAP       CP_SAP        QNDP         QCP          QPCO
#
~A  
    1113.0    4949.0000 1534897.0000    3897.0293     133.1481     133.5458       0.0000    6335.5107    6335.5107     133.7594         33       0.0000       0.0000    6333.1499    6333.1499    6331.5479    6331.5479       0.0000
    1114.0    4936.4682 1534897.0000    3897.0293     133.1508     133.5435       0.0000    6335.5468    6335.5468     133.7581         33       0.8951       0.0000    6333.1326    6333.1326    6331.5357    6331.5357       0.0000
    1115.0    5014.6661 1534897.0000    3897.0293     133.1477     133.5405       0.0000    6335.5752    6335.5752     133.7572         33       1.8951       0.0000    6332.9642    6332.9642    6331.4878    6331.4878       0.0000
    1116.0    5021.3146 1534897.0000    3897.0293     133.1465     133.5382       0.0000    6335.6724    6335.6724     133.7565         33       2.8951       0.0000    6333.2452    6333.2452    6331.6901    6331.6901       0.0000
    1117.0    5077.3929 1534897.0000    3897.0293     133.1426     133.5359       0.0000    6335.7102    6335.7102     133.7556         33       3.8951       0.0000    6333.1150    6333.1150    6331.6151    6331.6151       0.0000
    1118.0    5055.3560 1534897.0000    3897.0293     133.1416     133.5331       0.0000    6335.6280    6335.6280     133.7547         33       4.8951       0.0000    6333.0448    6333.0448    6331.6068    6331.6068       0.0000
    1119.0    5062.7415 1534897.0000    3897.0293     133.1431     133.5313      -0.0895    6335.6602    6335.5706     133.7537         33       5.8951      -0.0584    6333.0307    6332.9723    6331.4536    6331.2541      -0.1995
    1120.0    5062.2098 1534897.0000    3897.0293     133.1390     133.5283      -0.1377    6335.5056    6335.3679     133.7527         33       6.8951      -0.0884    6332.9793    6332.8909    6331.4285    6331.1195      -0.3089
    1121.0    5025.2999 1534897.0000    3897.0293     133.1378     133.5264      -0.1393    6335.6171    6335.4776     133.7517         33       7.8951      -0.0881    6333.0285    6332.9405    6331.6319    6331.3219      -0.3099
    1122.0    4950.2851 1534897.0000    3897.0293     133.1350     133.5224      -0.1429    6335.6458    6335.5027     133.7507         33       8.8951      -0.0882    6333.1330    6333.0446    6331.6794    6331.3681      -0.3113
    1123.0    4992.1270 1534897.0000    3897.0293     133.1356     133.5201      -0.1464    6335.7627    6335.6163     133.7500         33       9.8951      -0.0882    6333.3105    6333.2222    6331.7625    6331.4486      -0.3138
    1124.0    4936.2364 1534897.0000    3897.0293     133.1334     133.5189      -0.1477    6335.9113    6335.7633     133.7489         33      10.8951      -0.0887    6333.3097    6333.2208    6331.8405    6331.5221      -0.3183
    1125.0    4970.1758 1534897.0000    3897.0293     133.1322     133.5151      -0.1482    6335.9727    6335.8245     133.7481         33      11.8951      -0.0899    6333.4263    6333.3367    6331.8681    6331.5467      -0.3212
    1126.0    4987.5318 1534897.0000    3897.0293     133.1296     133.5115      -0.1496    6335.8742    6335.7248     133.7469         33      12.8951      -0.0916    6333.3500    6333.2582    6331.9094    6331.5851      -0.3242
    1127.0    5019.4343 1534897.0000    3897.0293     133.1283     133.5105      -0.1507    6335.9435    6335.7926     133.7460         33      13.8951      -0.0933    6333.3800    6333.2867    6331.9195    6331.5913      -0.3282
    1128.0    5042.6928 1534897.0000    3897.0293     133.1261     133.5069      -0.1503    6335.8865    6335.7361     133.7451         33      14.8951      -0.0943    6333.2746    6333.1804    6331.8463    6331.5156      -0.3309
    1129.0    5060.2171 1534897.0000    3897.0293     133.1246     133.5041      -0.1494    6335.8974    6335.7480     133.7441         33      15.8951      -0.0958    6333.3229    6333.2272    6331.8921    6331.5581      -0.3338
    1130.0    5056.6293 1534897.0000    3897.0293     133.1228     133.5029      -0.1490    6335.9869    6335.8379     133.7432         33      16.8951      -0.0974    6333.4182    6333.3209    6331.9319    6331.5968      -0.3353
    1131.0    5064.0561 1534897.0000    3897.0293     133.1214     133.4988      -0.1488    6335.9600    6335.8111     133.7422         33      17.8951      -0.0985    6333.2405    6333.1421    6331.8538    6331.5175      -0.3363
    1132.0    5059.6293 1534897.0000    3897.0293     133.1191     133.4957      -0.1490    6335.8484    6335.6995     133.7412         33      18.8951      -0.0983    6333.2717    6333.1735    6331.8846    6331.5462      -0.3382
    1133.0    5049.1536 1534897.0000    3897.0293     133.1174     133.4927      -0.1502    6335.9566    6335.8066     133.7401         33      19.8951      -0.0974    6333.2890    6333.1915    6331.9251    6331.5845      -0.3407
    1134.0    5059.6366 1534897.0000    3897.0293     133.1148     133.4914      -0.1523    6335.9853    6335.8331     133.7390         33      20.8951      -0.0969    6333.2776    6333.1807    6331.8290    6331.4864      -0.3425
    1135.0    5021.6145 1534897.0000    3897.0293     133.1141     133.4889      -0.1550    6335.9558    6335.8010     133.7379         33      21.8951      -0.0977    6333.2780    6333.1804    6331.8641    6331.5204      -0.3438
    1136.0    4975.8242 1534897.0000    3897.0293     133.1131     133.4853      -0.1581    6335.9804    6335.8224     133.7367         33      22.8951      -0.0987    6333.3088    6333.2102    6331.9366    6331.5912      -0.3453
    1137.0    4944.1462 1534897.0000    3897.0293     133.1108     133.4827      -0.1605    6336.1026    6335.9421     133.7359         33      23.8951      -0.0987    6333.4591    6333.3604    6332.0562    6331.7092      -0.3471
    1138.0    4919.5170 1534897.0000    3897.0293     133.1087     133.4780      -0.1612    6335.9437    6335.7825     133.7347         33      24.8951      -0.0986    6333.4589    6333.3603    6332.0015    6331.6519      -0.3495
    1139.0    4913.4195 1534897.0000    3897.0293     133.1063     133.4774      -0.1589    6336.0770    6335.9181     133.7336         33      25.8951      -0.0992    6333.4754    6333.3762    6332.0719    6331.7197      -0.3524
    1140.0    4942.5391 1534897.0000    3897.0293     133.1049     133.4724      -0.1551    6336.0642    6335.9089     133.7328         33      26.8951      -0.1000    6333.5470    6333.4471    6332.0923    6331.7368      -0.3553
    1141.0    4998.8124 1534897.0000    3897.0293     133.1035     133.4726      -0.1504    6336.0656    6335.9153     133.7317         33      27.8951      -0.0995    6333.4688    6333.3691    6332.0699    6331.7110      -0.3587
    1142.0    5051.5465 1534897.0000    3897.0293     133.1011     133.4680      -0.1470    6336.0181    6335.8709     133.7305         33      28.8951      -0.0972    6333.5263    6333.4291    6332.0679    6331.7061      -0.3617
    1143.0    5082.0635 1534897.0000    3897.0293     133.0992     133.4632      -0.1463    6336.0348    6335.8883     133.7294         33      29.8951      -0.0958    6333.4436    6333.3479    6332.0399    6331.6763      -0.3636
    1144.0    5040.2437 1534897.0000    3897.0293     133.0971     133.4627      -0.1470    6335.9628    6335.8158     133.7283         33      30.8951      -0.0958    6333.3466    6333.2509    6332.0152    6331.6500      -0.3651
    1145.0    4989.3486 1534897.0000    3897.0293     133.0940     133.4616      -0.1479    6336.0804    6335.9325     133.7272         33      31.8951      -0.0978    6333.3464    6333.2486    6331.9812    6331.6146      -0.3665
    1146.0    4957.1462 1534897.0000    3897.0293     133.0950     133.4569      -0.1494    6336.0285    6335.8793     133.7259         33      32.8951      -0.0996    6333.4496    6333.3502    6332.0394    6331.6711      -0.3683
    1147.0    4912.8242 1534897.0000    3897.0293     133.0908     133.4566      -0.1516    6336.0174    6335.8655     133.7249         33      33.8951      -0.1010    6333.2858    6333.1848    6332.0598    6331.6892      -0.3706
