~VERSION INFORMATION
VERS.           2.0   :CWLS Log ASCII Standard - VERSION 2.0
WRAP.           NO    :One Line per depth step
PROD.  Schlumberger   :LAS Producer
PROG.  DLIS to ASCII 2.2                               :LAS Program name and version
CREA.        2020/10/30 12:18                          :LAS Creation date {YYYY/MM/DD hh:mm}
SOURCE.     XPT_HRLA_TLD_MCFL_066LTP.DLIS              :DLIS File Name
FILE-ID.     XPT_HRLA_TLD_MCFL_066LTP                  :File Identification Number
#--------------------------------------------------
~WELL INFORMATION
#MNEM.UNIT      DATA             DESCRIPTION
#---- ------ --------------   -----------------------------
STRT .S         3575.0       :START TIME      
STOP .S         3949.0       :STOP TIME      
STEP .S            1.0       :STEP     
NULL .          -999.25      :NULL VALUE
COMP .        Nexus Energy                             :COMPANY
WELL .        Crux-3                                   :WELL
FLD  .        Crux                                     :FIELD
LOC  .        Easting: 656981.7mE                      :LOCATION
CNTY .        Sedco-703                                :COUNTY
STAT .        Northern Territory                       :STATE
CTRY .        Australia                                :COUNTRY
API  .                                                 :API NUMBER
UWI  .                                                 :UNIQUE WELL ID
DATE .        31-Dec-2007                              :LOG DATE {DD-MMM-YYYY}
SRVC .        Schlumberger                             :SERVICE COMPANY
LATI .DEG     12*57'32.63" S                           :LATITUDE
LONG .DEG     124*26'50.07" E                          :LONGITUDE
GDAT .                                                 :GeoDetic Datum
#-----------------------------------------------------------------------------
~PARAMETER INFORMATION
#MNEM.UNIT    VALUE                      DESCRIPTION
#---- -----   --------------------       ------------------------
RUN  .          1                        :RUN NUMBER
PDAT .        LAT                        :Permanent Datum
EPD  .M           0.000000               :Elevation of Permanent Datum above Mean Sea Level
EPD  .M           0.000000               :Elevation of tool zero above Mean Sea Level
LMF  .          DF                       :Logging Measured From (Name of Logging Elevation Reference)
APD  .M          26.400000               :Elevation of Depth Reference (LMF) above Permanent Datum
#-----------------------------------------------------------------------------
~CURVE INFORMATION
#MNEM.UNIT   API CODE                                  DESCRIPTION
#---- -----  --------                                  -----------------------
TIME .S                                                :TIME {F10.1}
TENS_SL.LBF                                            :Cable Tension {F13.4}
DEPT_SL..1IN                                           :Station logging depth {F13.4}
PDEP_XPT.M                                             :XPT Probe Depth {F13.4}
MTEP_SAP.DEGC                                          :Sapphire Gauge Manometer Temperature {F13.4}
MTEP_HYD.DEGC                                          :Hydrostatic Sapphire Gauge Manometer Temperature {F13.4}
PCO_HYD.PSI                                            :Hydrostatic Sapphire Dynamic Compensation {F13.4}
PND_HYD.PSI                                            :Hydrostatic Sapphire Pressure Without Dynamic Compensation {F13.4}
CP_HYD.PSI                                             :Hydrostatic Sapphire Pressure With Dynamic Compensation {F13.4}
MTEP_QG.DEGC                                           :CQG Manometer Temperature {F13.4}
PTNO_XPT.                                              :XPT Pretest Number {I11}
ETIM_XPT.S                                             :Elapsed Logging Time {F13.4}
PCO_SAP.PSI                                            :Sapphire Dynamic Compensation {F13.4}
PND_SAP.PSI                                            :Sapphire Pressure Without Dynamic Compensation {F13.4}
CP_SAP.PSI                                             :Sapphire Pressure With Dynamic Compensation {F13.4}
QNDP .PSI                                              :CQG Pressure Without Dynamic Compensation {F13.4}
QCP  .PSI                                              :CQG Pressure With Dynamic Compensation {F13.4}
QPCO .PSI                                              :CQG Dynamic Compensation {F13.4}
#-----------------------------------------------------------------------------
# 
#     TIME      TENS_SL      DEPT_SL      PDEP_XPT     MTEP_SAP     MTEP_HYD     PCO_HYD      PND_HYD       CP_HYD      MTEP_QG       PTNO_XPT       ETIM_XPT     PCO_SAP      PND_SAP       CP_SAP        QNDP         QCP          QPCO
#
~A  
# ...
    3785.0    5077.1230 1556924.0000    3952.9780     132.4841     133.0342       0.0022    6424.6823    6424.6846     132.4315         31     210.4710      -0.0470    5694.7343    5694.6874    5690.8954    5691.7460       0.8506
    3786.0    5068.9280 1556924.0000    3952.9780     132.4828     133.0335      -0.0022    6424.5794    6424.5771     132.4337         31     211.4710      -0.0459    5694.7037    5694.6577    5691.0195    5691.8440       0.8247
    3787.0    5059.5360 1556924.0000    3952.9780     132.4846     133.0357      -0.0035    6424.6641    6424.6606     132.4364         31     212.4710      -0.0422    5694.7796    5694.7373    5691.1347    5691.9293       0.7944
    3788.0    5066.5870 1556924.0000    3952.9780     132.4828     133.0342      -0.0038    6424.5957    6424.5920     132.4388         31     213.4710      -0.0388    5694.8786    5694.8398    5691.2274    5691.9899       0.7627
    3789.0    5061.7030 1556924.0000    3952.9780     132.4814     133.0327      -0.0042    6424.5678    6424.5634     132.4408         31     214.4710      -0.0378    5694.6917    5694.6541    5691.3065    5692.0379       0.7315
    3790.0    5011.8420 1556924.0000    3952.9780     132.4805     133.0335      -0.0018    6424.5940    6424.5923     132.4431         31     215.4710      -0.0370    5694.7183    5694.6813    5691.3710    5692.0727       0.7016
    3791.0    4960.4710 1556924.0000    3952.9780     132.4810     133.0346       0.0035    6424.7130    6424.7166     132.4455         31     216.4710      -0.0346    5694.9141    5694.8795    5691.4306    5692.1041       0.6735
    3792.0    4966.6520 1556924.0000    3952.9780     132.4815     133.0334       0.0081    6424.6425    6424.6507     132.4475         31     217.4710      -0.0314    5694.8379    5694.8065    5691.4816    5692.1297       0.6479
    3793.0    4970.1740 1556924.0000    3952.9780     132.4783     133.0342       0.0090    6424.7762    6424.7850     132.4494         31     218.4710      -0.0292    5694.8193    5694.7902    5691.5269    5692.1518       0.6251
    3794.0    4961.3480 1556924.0000    3952.9780     132.4786     133.0349       0.0082    6424.7773    6424.7856     132.4511         31     219.4710      -0.0266    5694.8366    5694.8099    5691.5607    5692.1663       0.6056
    3795.0    4966.7750 1556924.0000    3952.9780     132.4782     133.0349       0.0080    6424.7773    6424.7852     132.4530         31     220.4710      -0.0209    5694.8778    5694.8570    5691.5988    5692.1867       0.5881
    3796.0    5031.3390 1556924.0000    3952.9780     132.4780     133.0346       0.0081    6424.6056    6424.6139     132.4545         31     221.4710      -0.0136    5694.8704    5694.8567    5691.6265    5692.1982       0.5717
    3797.0    5080.5220 1556924.0000    3952.9780     132.4780     133.0343       0.0086    6424.5280    6424.5366     132.4564         31     222.4710      -0.0075    5694.9424    5694.9349    5691.6534    5692.2104       0.5571
    3798.0    5090.7820 1556924.0000    3952.9780     132.4781     133.0357       0.0101    6424.7246    6424.7348     132.4584         31     223.4710      -0.0040    5694.9040    5694.9000    5691.6752    5692.2204       0.5451
    3799.0    5109.7030 1556924.0000    3952.9780     132.4775     133.0343       0.0120    6424.4996    6424.5114     132.4599         31     224.4710      -0.0007    5694.8804    5694.8797    5691.6992    5692.2337       0.5346
    3800.0    5098.4640 1556924.0000    3952.9780     132.4786     133.0354       0.0127    6424.5394    6424.5521     132.4614         31     225.4710       0.0024    5694.9234    5694.9259    5691.7221    5692.2465       0.5245
    3801.0    5073.0440 1556924.0000    3952.9780     132.4789     133.0364       0.0118    6424.6118    6424.6236     132.4630         31     226.4710       0.0028    5694.9302    5694.9332    5691.7360    5692.2509       0.5150
    3802.0    5021.5010 1556924.0000    3952.9780     132.4775     133.0359       0.0095    6424.6055    6424.6150     132.4645         31     227.4710      -0.0002    5694.9246    5694.9244    5691.7529    5692.2601       0.5072
    3803.0    4963.8050 1556924.0000    3952.9780     132.4784     133.0364       0.0061    6424.6493    6424.6555     132.4661         31     228.4710      -0.0035    5694.9130    5694.9095    5691.7673    5692.2676       0.5004
    3804.0    4944.7100 1556924.0000    3952.9780     132.4780     133.0356       0.0038    6424.6301    6424.6340     132.4679         31     229.4710      -0.0037    5694.9828    5694.9793    5691.7801    5692.2744       0.4941
    3805.0    4943.8770 1556924.0000    3952.9780     132.4787     133.0362       0.0036    6424.7675    6424.7710     132.4693         31     230.4710      -0.0018    5694.8996    5694.8977    5691.7974    5692.2858       0.4882
    3806.0    4956.3110 1556924.0000    3952.9780     132.4770     133.0367       0.0049    6424.7008    6424.7057     132.4707         31     231.4710      -0.0000    5694.9608    5694.9606    5691.8025    5692.2861       0.4837
    3807.0    4996.8400 1556924.0000    3952.9780     132.4788     133.0348       0.0061    6424.5671    6424.5734     132.4717         31     232.4710       0.0007    5694.8890    5694.8900    5691.8139    5692.2935       0.4796
    3808.0    5050.0280 1556924.0000    3952.9780     132.4788     133.0372       0.0081    6424.7647    6424.7727     132.4735         31     233.4710       0.0021    5694.9606    5694.9627    5691.8232    5692.2990       0.4757
    3809.0    5106.7240 1556924.0000    3952.9780     132.4788     133.0369       0.0119    6424.6511    6424.6628     132.4749         31     234.4710       0.0039    5694.9296    5694.9333    5691.8317    5692.3038       0.4723
    3810.0    5108.3340 1556924.0000    3952.9780     132.4776     133.0365       0.0145    6424.5633    6424.5779     132.4766         31     235.4710       0.0044    5694.9883    5694.9927    5691.8400    5692.3092       0.4691
    3811.0    5074.5800 1556924.0000    3952.9780     132.4789     133.0372       0.0137    6424.6196    6424.6332     132.4777         31     236.4710       0.0024    5694.8994    5694.9016    5691.8474    5692.3135       0.4659
    3812.0    5047.9860 1556924.0000    3952.9780     132.4783     133.0377       0.0104    6424.5647    6424.5749     132.4792         31     237.4710      -0.0008    5694.9204    5694.9194    5691.8546    5692.3169       0.4623
    3813.0    4997.5010 1556924.0000    3952.9780     132.4793     133.0380       0.0071    6424.5615    6424.5685     132.4808         31     238.4710      -0.0020    5695.0212    5695.0192    5691.8665    5692.3256       0.4592
    3814.0    4972.3040 1556924.0000    3952.9780     132.4788     133.0387       0.0043    6424.6362    6424.6404     132.4819         31     239.4710      -0.0000    5694.9702    5694.9699    5691.8652    5692.3221       0.4570
    3815.0    4958.1530 1556924.0000    3952.9780     132.4781     133.0369       0.0011    6424.6778    6424.6787     132.4835         31     240.4710       0.0029    5694.8841    5694.8871    5691.8749    5692.3302       0.4552
    3816.0    4975.1000 1556924.0000    3952.9780     132.4780     133.0365      -0.0008    6424.7337    6424.7328     132.4849         31     241.4710       0.0050    5694.8845    5694.8893    5691.8784    5692.3316       0.4532
    3817.0    5005.3920 1556924.0000    3952.9780     132.4782     133.0380       0.0003    6424.7885    6424.7887     132.4862         31     242.4710       0.0075    5694.8946    5694.9021    5691.8795    5692.3305       0.4511
    3818.0    5020.5060 1556924.0000    3952.9780     132.4786     133.0371       0.0034    6424.7613    6424.7648     132.4876         31     243.4710       0.0111    5694.9020    5694.9131    5691.8900    5692.3394       0.4495
    3819.0    5073.5360 1556924.0000    3952.9780     132.4785     133.0372       0.0064    6424.6230    6424.6293     132.4889         31     244.4710       0.0140    5694.8779    5694.8920    5691.8900    5692.3383       0.4483
