~VERSION INFORMATION
VERS.           2.0   :CWLS Log ASCII Standard - VERSION 2.0
WRAP.           NO    :One Line per depth step
PROD.  Schlumberger   :LAS Producer
PROG.  DLIS to ASCII 2.2                               :LAS Program name and version
CREA.        2020/10/30 12:18                          :LAS Creation date {YYYY/MM/DD hh:mm}
SOURCE.     XPT_HRLA_TLD_MCFL_056LTP.DLIS              :DLIS File Name
FILE-ID.     XPT_HRLA_TLD_MCFL_056LTP                  :File Identification Number
#--------------------------------------------------
~WELL INFORMATION
#MNEM.UNIT      DATA             DESCRIPTION
#---- ------ --------------   -----------------------------
STRT .S         6532.0       :START TIME      
STOP .S         6757.0       :STOP TIME      
STEP .S            1.0       :STEP     
NULL .          -999.25      :NULL VALUE
COMP .        Nexus Energy                             :COMPANY
WELL .        Crux-3                                   :WELL
FLD  .        Crux                                     :FIELD
LOC  .        Easting: 656981.7mE                      :LOCATION
CNTY .        Sedco-703                                :COUNTY
STAT .        Northern Territory                       :STATE
CTRY .        Australia                                :COUNTRY
API  .                                                 :API NUMBER
UWI  .                                                 :UNIQUE WELL ID
DATE .        31-Dec-2007                              :LOG DATE {DD-MMM-YYYY}
SRVC .        Schlumberger                             :SERVICE COMPANY
LATI .DEG     12*57'32.63" S                           :LATITUDE
LONG .DEG     124*26'50.07" E                          :LONGITUDE
GDAT .                                                 :GeoDetic Datum
#-----------------------------------------------------------------------------
~PARAMETER INFORMATION
#MNEM.UNIT    VALUE                      DESCRIPTION
#---- -----   --------------------       ------------------------
RUN  .          1                        :RUN NUMBER
PDAT .        LAT                        :Permanent Datum
EPD  .M           0.000000               :Elevation of Permanent Datum above Mean Sea Level
EPD  .M           0.000000               :Elevation of tool zero above Mean Sea Level
LMF  .          DF                       :Logging Measured From (Name of Logging Elevation Reference)
APD  .M          26.400000               :Elevation of Depth Reference (LMF) above Permanent Datum
#-----------------------------------------------------------------------------
~CURVE INFORMATION
#MNEM.UNIT   API CODE                                  DESCRIPTION
#---- -----  --------                                  -----------------------
TIME .S                                                :TIME {F10.1}
TENS_SL.LBF                                            :Cable Tension {F13.4}
DEPT_SL..1IN                                           :Station logging depth {F13.4}
PDEP_XPT.M                                             :XPT Probe Depth {F13.4}
MTEP_SAP.DEGC                                          :Sapphire Gauge Manometer Temperature {F13.4}
MTEP_HYD.DEGC                                          :Hydrostatic Sapphire Gauge Manometer Temperature {F13.4}
PCO_HYD.PSI                                            :Hydrostatic Sapphire Dynamic Compensation {F13.4}
PND_HYD.PSI                                            :Hydrostatic Sapphire Pressure Without Dynamic Compensation {F13.4}
CP_HYD.PSI                                             :Hydrostatic Sapphire Pressure With Dynamic Compensation {F13.4}
MTEP_QG.DEGC                                           :CQG Manometer Temperature {F13.4}
PTNO_XPT.                                              :XPT Pretest Number {I11}
ETIM_XPT.S                                             :Elapsed Logging Time {F13.4}
PCO_SAP.PSI                                            :Sapphire Dynamic Compensation {F13.4}
PND_SAP.PSI                                            :Sapphire Pressure Without Dynamic Compensation {F13.4}
CP_SAP.PSI                                             :Sapphire Pressure With Dynamic Compensation {F13.4}
QNDP .PSI                                              :CQG Pressure Without Dynamic Compensation {F13.4}
QCP  .PSI                                              :CQG Pressure With Dynamic Compensation {F13.4}
QPCO .PSI                                              :CQG Dynamic Compensation {F13.4}
#-----------------------------------------------------------------------------
# 
#     TIME      TENS_SL      DEPT_SL      PDEP_XPT     MTEP_SAP     MTEP_HYD     PCO_HYD      PND_HYD       CP_HYD      MTEP_QG       PTNO_XPT       ETIM_XPT     PCO_SAP      PND_SAP       CP_SAP        QNDP         QCP          QPCO
#
~A  
# ...
    6602.0    5012.1000 1525238.0000    3872.4954     129.7966     130.3139      -0.0703    6296.7637    6296.6932     130.2559         16      69.9950      -0.0664    6218.0011    6217.9348    6216.0872    6215.9381      -0.1490
    6603.0    4957.2750 1525238.0000    3872.4954     129.7974     130.3139      -0.0672    6296.7488    6296.6815     130.2555         16      70.9950      -0.0628    6218.9330    6218.8703    6216.9596    6216.8202      -0.1395
    6604.0    4902.2750 1525238.0000    3872.4954     129.7957     130.3113      -0.0642    6296.6948    6296.6308     130.2551         16      71.9950      -0.0568    6216.3223    6216.2657    6214.4482    6214.3188      -0.1293
    6605.0    4887.0750 1525238.0000    3872.4954     129.7943     130.3106      -0.0635    6296.8268    6296.7633     130.2545         16      72.9950      -0.0522    6206.4522    6206.4001    6204.6236    6204.5027      -0.1209
    6606.0    4900.9300 1525238.0000    3872.4954     129.7925     130.3092      -0.0652    6296.8200    6296.7549     130.2539         16      73.9950      -0.0503    6207.0917    6207.0414    6205.2041    6205.0890      -0.1151
    6607.0    4914.9300 1525238.0000    3872.4954     129.7907     130.3087      -0.0679    6296.8174    6296.7496     130.2539         16      74.9950      -0.0513    6207.3977    6207.3464    6205.4249    6205.3116      -0.1132
    6608.0    4943.8550 1525238.0000    3872.4954     129.7912     130.3073      -0.0708    6296.8934    6296.8227     130.2535         16      75.9950      -0.0569    6207.0927    6207.0358    6205.0062    6204.8869      -0.1193
    6609.0    4967.8800 1525238.0000    3872.4954     129.7931     130.3066      -0.0752    6296.8338    6296.7587     130.2532         16      76.9950      -0.0696    6206.1870    6206.1174    6204.0974    6203.9606      -0.1369
    6610.0    4975.9600 1525238.0000    3872.4954     129.7895     130.3045      -0.0809    6296.8325    6296.7515     130.2533         16      77.9950      -0.0886    6206.2731    6206.1843    6204.3037    6204.1393      -0.1644
    6611.0    4935.2050 1525238.0000    3872.4954     129.7886     130.3029      -0.0851    6296.7452    6296.6601     130.2524         16      78.9950      -0.1105    6195.7117    6195.6013    6193.6965    6193.4985      -0.1980
    6612.0    4884.2550 1525238.0000    3872.4954     129.7861     130.3017      -0.0851    6296.7737    6296.6885     130.2516         16      79.9950      -0.1280    6183.0499    6182.9220    6181.1673    6180.9384      -0.2289
    6613.0    4913.8500 1525238.0000    3872.4954     129.7812     130.2999      -0.0817    6296.7528    6296.6712     130.2505         16      80.9950      -0.1244    6169.2752    6169.1507    6167.6843    6167.4566      -0.2278
    6614.0    4945.8400 1525238.0000    3872.4954     129.7802     130.2974      -0.0778    6296.8285    6296.7506     130.2499         16      81.9950      -0.0774    6156.1841    6156.1066    6154.5469    6154.3883      -0.1585
    6615.0    4962.9150 1525238.0000    3872.4954     129.7756     130.2968      -0.0739    6296.7817    6296.7077     130.2489         16      82.9950       0.0115    6143.8006    6143.8120    6142.4127    6142.3867      -0.0260
    6616.0    5033.6450 1525238.0000    3872.4954     129.7744     130.2961      -0.0699    6296.7142    6296.6444     130.2482         16      83.9950       0.1118    6131.5015    6131.6134    6130.0794    6130.2051       0.1256
    6617.0    5004.1500 1525238.0000    3872.4954     129.7726     130.2953      -0.0676    6296.8262    6296.7586     130.2471         16      84.9950       0.1859    6121.5380    6121.7241    6120.1475    6120.4006       0.2530
    6618.0    5023.9000 1525238.0000    3872.4954     129.7876     130.2924      -0.0697    6296.6949    6296.6251     130.2519         16      85.9950       0.2212    6240.6878    6240.9090    6236.8563    6237.2077       0.3514
    6619.0    5018.0300 1525238.0000    3872.4954     129.7999     130.2915      -0.0748    6296.5447    6296.4701     130.2546         16      86.9950       0.2175    6295.2051    6295.4224    6291.7590    6292.1762       0.4171
    6620.0    5004.0700 1525238.0000    3872.4954     129.8021     130.2901      -0.0779    6296.5664    6296.4886     130.2546         16      87.9950       0.1708    6295.1520    6295.3226    6291.7563    6292.1859       0.4296
    6621.0    4908.4800 1525238.0000    3872.4954     129.8021     130.2895      -0.0775    6296.6637    6296.5864     130.2553         16      88.9950       0.0867    6295.0729    6295.1594    6291.8272    6292.2134       0.3863
    6622.0    4927.9000 1525238.0000    3872.4954     129.8010     130.2870      -0.0756    6296.7971    6296.7214     130.2564         16      89.9950      -0.0055    6295.0312    6295.0257    6291.9209    6292.2445       0.3236
    6623.0    4879.2450 1525238.0000    3872.4954     129.7985     130.2853      -0.0748    6296.7476    6296.6729     130.2575         16      90.9950      -0.0722    6294.8977    6294.8255    6292.0812    6292.3632       0.2821
    6624.0    4888.9500 1525238.0000    3872.4954     129.7967     130.2851      -0.0743    6296.8719    6296.7975     130.2583         16      91.9950      -0.1044    6294.7872    6294.6828    6292.0992    6292.3651       0.2659
    6625.0    4939.7450 1525238.0000    3872.4954     129.7920     130.2847      -0.0724    6296.8921    6296.8198     130.2592         16      92.9950      -0.1149    6294.7026    6294.5879    6292.1077    6292.3632       0.2555
    6626.0    4979.8000 1525238.0000    3872.4954     129.7928     130.2824      -0.0714    6296.8276    6296.7562     130.2599         16      93.9950      -0.1172    6294.6390    6294.5218    6292.1675    6292.4046       0.2370
    6627.0    5033.7300 1525238.0000    3872.4954     129.7904     130.2824      -0.0743    6296.8687    6296.7945     130.2606         16      94.9950      -0.1155    6294.5068    6294.3912    6292.1229    6292.3365       0.2135
    6628.0    5029.0250 1525238.0000    3872.4954     129.7875     130.2778      -0.0800    6296.7593    6296.6792     130.2614         16      95.9950      -0.1118    6294.3000    6294.1881    6292.0556    6292.2437       0.1882
    6629.0    5030.9900 1525238.0000    3872.4954     129.7864     130.2796      -0.0834    6296.6992    6296.6157     130.2618         16      96.9950      -0.1071    6294.2655    6294.1584    6292.0542    6292.2169       0.1629
    6630.0    4996.1750 1525238.0000    3872.4954     129.7820     130.2771      -0.0822    6296.7318    6296.6494     130.2621         16      97.9950      -0.1029    6294.3123    6294.2094    6292.1016    6292.2399       0.1384
    6631.0    4941.2750 1525238.0000    3872.4954     129.7804     130.2755      -0.0790    6296.6743    6296.5952     130.2626         16      98.9950      -0.0989    6294.2279    6294.1288    6292.1393    6292.2547       0.1152
    6632.0    4877.3200 1525238.0000    3872.4954     129.7810     130.2725      -0.0764    6296.6418    6296.5655     130.2629         16      99.9950      -0.0958    6294.3499    6294.2540    6292.1634    6292.2577       0.0942
    6633.0    4912.8200 1525238.0000    3872.4954     129.7778     130.2725      -0.0740    6296.6811    6296.6070     130.2630         16     100.9950      -0.0939    6294.3225    6294.2285    6292.2516    6292.3267       0.0752
    6634.0    4867.2300 1525238.0000    3872.4954     129.7770     130.2710      -0.0714    6296.8667    6296.7954     130.2638         16     101.9950      -0.0929    6294.4626    6294.3698    6292.3483    6292.4065       0.0582
    6635.0    4857.0500 1525238.0000    3872.4954     129.7742     130.2690      -0.0703    6296.8519    6296.7816     130.2634         16     102.9950      -0.0906    6294.2934    6294.2029    6292.3320    6292.3745       0.0427
    6636.0    4906.7500 1525238.0000    3872.4954     129.7739     130.2700      -0.0720    6296.8777    6296.8058     130.2635         16     103.9950      -0.0850    6294.2463    6294.1612    6292.2618    6292.2909       0.0290
