~VERSION INFORMATION
VERS.           2.0   :CWLS Log ASCII Standard - VERSION 2.0
WRAP.           NO    :One Line per depth step
PROD.  Schlumberger   :LAS Producer
PROG.  DLIS to ASCII 2.2                               :LAS Program name and version
CREA.        2020/10/30 12:18                          :LAS Creation date {YYYY/MM/DD hh:mm}
SOURCE.     XPT_HRLA_TLD_MCFL_048LTP.DLIS              :DLIS File Name
FILE-ID.     XPT_HRLA_TLD_MCFL_048LTP                  :File Identification Number
#--------------------------------------------------
~WELL INFORMATION
#MNEM.UNIT      DATA             DESCRIPTION
#---- ------ --------------   -----------------------------
STRT .S           91.0       :START TIME      
STOP .S          545.0       :STOP TIME      
STEP .S            1.0       :STEP     
NULL .          -999.25      :NULL VALUE
COMP .        Nexus Energy                             :COMPANY
WELL .        Crux-3                                   :WELL
FLD  .        Crux                                     :FIELD
LOC  .        Easting: 656981.7mE                      :LOCATION
CNTY .        Sedco-703                                :COUNTY
STAT .        Northern Territory                       :STATE
CTRY .        Australia                                :COUNTRY
API  .                                                 :API NUMBER
UWI  .                                                 :UNIQUE WELL ID
DATE .        31-Dec-2007                              :LOG DATE {DD-MMM-YYYY}
SRVC .        Schlumberger                             :SERVICE COMPANY
LATI .DEG     12*57'32.63" S                           :LATITUDE
LONG .DEG     124*26'50.07" E                          :LONGITUDE
GDAT .                                                 :GeoDetic Datum
#-----------------------------------------------------------------------------
~PARAMETER INFORMATION
#MNEM.UNIT    VALUE                      DESCRIPTION
#---- -----   --------------------       ------------------------
RUN  .          1                        :RUN NUMBER
PDAT .        LAT                        :Permanent Datum
EPD  .M           0.000000               :Elevation of Permanent Datum above Mean Sea Level
EPD  .M           0.000000               :Elevation of tool zero above Mean Sea Level
LMF  .          DF                       :Logging Measured From (Name of Logging Elevation Reference)
APD  .M          26.400000               :Elevation of Depth Reference (LMF) above Permanent Datum
#-----------------------------------------------------------------------------
~CURVE INFORMATION
#MNEM.UNIT   API CODE                                  DESCRIPTION
#---- -----  --------                                  -----------------------
TIME .S                                                :TIME {F10.1}
TENS_SL.LBF                                            :Cable Tension {F13.4}
DEPT_SL..1IN                                           :Station logging depth {F13.4}
PDEP_XPT.M                                             :XPT Probe Depth {F13.4}
MTEP_SAP.DEGC                                          :Sapphire Gauge Manometer Temperature {F13.4}
MTEP_HYD.DEGC                                          :Hydrostatic Sapphire Gauge Manometer Temperature {F13.4}
PCO_HYD.PSI                                            :Hydrostatic Sapphire Dynamic Compensation {F13.4}
PND_HYD.PSI                                            :Hydrostatic Sapphire Pressure Without Dynamic Compensation {F13.4}
CP_HYD.PSI                                             :Hydrostatic Sapphire Pressure With Dynamic Compensation {F13.4}
MTEP_QG.DEGC                                           :CQG Manometer Temperature {F13.4}
PTNO_XPT.                                              :XPT Pretest Number {I11}
ETIM_XPT.S                                             :Elapsed Logging Time {F13.4}
PCO_SAP.PSI                                            :Sapphire Dynamic Compensation {F13.4}
PND_SAP.PSI                                            :Sapphire Pressure Without Dynamic Compensation {F13.4}
CP_SAP.PSI                                             :Sapphire Pressure With Dynamic Compensation {F13.4}
QNDP .PSI                                              :CQG Pressure Without Dynamic Compensation {F13.4}
QCP  .PSI                                              :CQG Pressure With Dynamic Compensation {F13.4}
QPCO .PSI                                              :CQG Dynamic Compensation {F13.4}
#-----------------------------------------------------------------------------
# 
#     TIME      TENS_SL      DEPT_SL      PDEP_XPT     MTEP_SAP     MTEP_HYD     PCO_HYD      PND_HYD       CP_HYD      MTEP_QG       PTNO_XPT       ETIM_XPT     PCO_SAP      PND_SAP       CP_SAP        QNDP         QCP          QPCO
#
~A  
# ...
     161.0    4707.4350 1445909.0000    3671.0000     122.1018     122.6499       0.0081    5977.8023    5977.8105     122.6693         10      69.8206       0.0109    5975.9281    5975.9392    5973.1243    5973.1819       0.0576
     162.0    4779.8562 1445909.0000    3671.0000     122.1024     122.6502       0.0088    5977.6942    5977.7030     122.6696         10      70.8206       0.0123    5975.9976    5976.0099    5973.0431    5973.1012       0.0579
     163.0    4811.5919 1445909.0000    3671.0000     122.1027     122.6503       0.0095    5977.6377    5977.6472     122.6698         10      71.8206       0.0141    5975.8872    5975.9013    5973.0204    5973.0787       0.0583
     164.0    4808.4350 1445909.0000    3671.0000     122.1026     122.6501       0.0099    5977.5867    5977.5964     122.6698         10      72.8206       0.0147    5975.8868    5975.9015    5972.9794    5973.0384       0.0589
     165.0    4808.6412 1445909.0000    3671.0000     122.1030     122.6503       0.0091    5977.5780    5977.5872     122.6700         10      73.8206       0.0140    5975.8924    5975.9065    5972.9807    5973.0398       0.0590
     166.0    4802.4350 1445909.0000    3671.0000     122.1038     122.6495       0.0069    5977.5698    5977.5768     122.6704         10      74.8206       0.0128    5975.8015    5975.8145    5972.9690    5973.0279       0.0589
     167.0    4731.2469 1445909.0000    3671.0000     122.1029     122.6508       0.0045    5977.6328    5977.6374     122.6704         10      75.8206       0.0112    5975.8512    5975.8626    5973.0127    5973.0712       0.0588
     168.0    4715.1794 1445909.0000    3671.0000     122.1055     122.6517       0.0038    5977.6553    5977.6592     122.6709         10      76.8206       0.0083    5976.0081    5976.0163    5973.0689    5973.1275       0.0585
     169.0    4694.4844 1445909.0000    3671.0000     122.1053     122.6503       0.0051    5977.7092    5977.7143     122.6709         10      77.8206       0.0034    5975.9883    5975.9917    5973.1401    5973.1982       0.0581
     170.0    4689.1794 1445909.0000    3671.0000     122.1042     122.6510       0.0074    5977.7645    5977.7720     122.6713         10      78.8206      -0.0013    5976.0701    5976.0689    5973.1893    5973.2469       0.0577
     171.0    4708.6950 1445909.0000    3671.0000     122.1041     122.6489       0.0104    5977.6831    5977.6934     122.6712         10      79.8206      -0.0030    5976.0219    5976.0189    5973.1729    5973.2305       0.0575
     172.0    4773.7262 1445909.0000    3671.0000     122.1030     122.6504       0.0139    5977.6512    5977.6653     122.6712         10      80.8206      -0.0011    5975.9670    5975.9659    5973.0881    5973.1450       0.0568
     173.0    4773.0494 1445909.0000    3671.0000     122.1029     122.6510       0.0167    5977.6236    5977.6401     122.6717         10      81.8206       0.0002    5975.8017    5975.8017    5973.0232    5973.0751       0.0517
     174.0    4807.7487 1445909.0000    3671.0000     122.1048     122.6504       0.0160    5977.5233    5977.5393     122.6716         10      82.8206      -0.0034    5975.7628    5975.7592    5972.9848    5973.0229       0.0382
     175.0    4821.7444 1445909.0000    3671.0000     122.1045     122.6525       0.0116    5977.4338    5977.4455     122.6721         10      83.8206      -0.0119    5975.6895    5975.6776    5972.8840    5972.9006       0.0165
     176.0    4818.0763 1445909.0000    3671.0000     122.1058     122.6520       0.0060    5977.5054    5977.5116     122.6722         10      84.8206      -0.0218    5975.7219    5975.7002    5972.9599    5972.9516      -0.0082
     177.0    4803.8700 1445909.0000    3671.0000     122.1038     122.6533       0.0022    5977.5586    5977.5609     122.6722         10      85.8206      -0.0294    5975.9345    5975.9050    5973.0962    5973.0640      -0.0324
     178.0    4727.1438 1445909.0000    3671.0000     122.1016     122.6510       0.0009    5977.5859    5977.5869     122.6716         10      86.8206      -0.0346    5956.5413    5956.5068    5954.2024    5954.1451      -0.0573
     179.0    4694.5875 1445909.0000    3671.0000     122.1011     122.6514       0.0023    5977.6497    5977.6519     122.6713         10      87.8206      -0.0371    5945.6724    5945.6354    5943.3346    5943.2529      -0.0817
     180.0    4692.6412 1445909.0000    3671.0000     122.1000     122.6514       0.0072    5977.7729    5977.7799     122.6716         10      88.8206      -0.0366    5944.0366    5944.0000    5941.7298    5941.6305      -0.0992
     181.0    4690.5381 1445909.0000    3671.0000     122.1002     122.6518       0.0144    5977.7729    5977.7874     122.6710         10      89.8206      -0.0329    5940.9258    5940.8927    5936.9237    5936.8168      -0.1069
     182.0    4704.7712 1445909.0000    3671.0000     122.1008     122.6533       0.0206    5977.7891    5977.8097     122.6707         10      90.8206      -0.0284    5933.4316    5933.4031    5931.2241    5931.1140      -0.1101
     183.0    4748.2106 1445909.0000    3671.0000     122.0993     122.6525       0.0224    5977.7212    5977.7436     122.6697         10      91.8206      -0.0257    5919.9038    5919.8780    5917.8608    5917.7465      -0.1142
     184.0    4809.5200 1445909.0000    3671.0000     122.0989     122.6532       0.0205    5977.7275    5977.7481     122.6697         10      92.8206      -0.0241    5919.4699    5919.4457    5916.3279    5916.2114      -0.1164
     185.0    4817.7175 1445909.0000    3671.0000     122.0974     122.6546       0.0181    5977.6988    5977.7169     122.6693         10      93.8206      -0.0204    5919.0771    5919.0566    5916.9724    5916.8609      -0.1114
     186.0    4784.1750 1445909.0000    3671.0000     122.0970     122.6547       0.0161    5977.6799    5977.6959     122.6692         10      94.8206      -0.0110    5918.5178    5918.5069    5913.3047    5913.2049      -0.1000
     187.0    4772.0763 1445909.0000    3671.0000     122.0979     122.6533       0.0132    5977.6094    5977.6227     122.6683         10      95.8206       0.0033    5909.7114    5909.7149    5902.2407    5902.1534      -0.0872
     188.0    4746.3813 1445909.0000    3671.0000     122.0965     122.6548       0.0092    5977.6656    5977.6748     122.6681         10      96.8206       0.0184    5902.9129    5902.9313    5900.6355    5900.5616      -0.0741
     189.0    4696.6862 1445909.0000    3671.0000     122.0984     122.6553       0.0060    5977.7310    5977.7368     122.6682         10      97.8206       0.0309    5904.0532    5904.0842    5901.6660    5901.6073      -0.0585
     190.0    4694.3856 1445909.0000    3671.0000     122.0998     122.6553       0.0043    5977.7151    5977.7193     122.6679         10      98.8206       0.0380    5904.2987    5904.3366    5901.9336    5901.8893      -0.0442
     191.0    4696.8206 1445909.0000    3671.0000     122.1001     122.6551       0.0035    5977.7878    5977.7913     122.6679         10      99.8206       0.0371    5904.9441    5904.9812    5902.4730    5902.4339      -0.0389
     192.0    4723.2600 1445909.0000    3671.0000     122.0994     122.6539       0.0034    5977.7164    5977.7198     122.6676         10     100.8206       0.0254    5905.9141    5905.9396    5903.3515    5903.3048      -0.0467
     193.0    4784.8025 1445909.0000    3671.0000     122.1017     122.6546       0.0049    5977.7072    5977.7123     122.6679         10     101.8206       0.0044    5909.5350    5909.5394    5906.9484    5906.8832      -0.0652
     194.0    4801.9237 1445909.0000    3671.0000     122.1035     122.6546       0.0081    5977.6413    5977.6494     122.6678         10     102.8206      -0.0214    5907.4157    5907.3943    5904.7807    5904.6901      -0.0907
     195.0    4809.5650 1445909.0000    3671.0000     122.1030     122.6553       0.0116    5977.6632    5977.6749     122.6672         10     103.8206      -0.0470    5894.6185    5894.5716    5892.0766    5891.9548      -0.1218
