~VERSION INFORMATION
VERS.           2.0   :CWLS Log ASCII Standard - VERSION 2.0
WRAP.           NO    :One Line per depth step
PROD.  Schlumberger   :LAS Producer
PROG.  DLIS to ASCII 2.2                               :LAS Program name and version
CREA.        2020/10/30 12:18                          :LAS Creation date {YYYY/MM/DD hh:mm}
SOURCE.     XPT_HRLA_TLD_MCFL_045LTP.DLIS              :DLIS File Name
FILE-ID.     XPT_HRLA_TLD_MCFL_045LTP                  :File Identification Number
#--------------------------------------------------
~WELL INFORMATION
#MNEM.UNIT      DATA             DESCRIPTION
#---- ------ --------------   -----------------------------
STRT .S         3688.0       :START TIME      
STOP .S         4251.0       :STOP TIME      
STEP .S            1.0       :STEP     
NULL .          -999.25      :NULL VALUE
COMP .        Nexus Energy                             :COMPANY
WELL .        Crux-3                                   :WELL
FLD  .        Crux                                     :FIELD
LOC  .        Easting: 656981.7mE                      :LOCATION
CNTY .        Sedco-703                                :COUNTY
STAT .        Northern Territory                       :STATE
CTRY .        Australia                                :COUNTRY
API  .                                                 :API NUMBER
UWI  .                                                 :UNIQUE WELL ID
DATE .        31-Dec-2007                              :LOG DATE {DD-MMM-YYYY}
SRVC .        Schlumberger                             :SERVICE COMPANY
LATI .DEG     12*57'32.63" S                           :LATITUDE
LONG .DEG     124*26'50.07" E                          :LONGITUDE
GDAT .                                                 :GeoDetic Datum
#-----------------------------------------------------------------------------
~PARAMETER INFORMATION
#MNEM.UNIT    VALUE                      DESCRIPTION
#---- -----   --------------------       ------------------------
RUN  .          1                        :RUN NUMBER
PDAT .        LAT                        :Permanent Datum
EPD  .M           0.000000               :Elevation of Permanent Datum above Mean Sea Level
EPD  .M           0.000000               :Elevation of tool zero above Mean Sea Level
LMF  .          DF                       :Logging Measured From (Name of Logging Elevation Reference)
APD  .M          26.400000               :Elevation of Depth Reference (LMF) above Permanent Datum
#-----------------------------------------------------------------------------
~CURVE INFORMATION
#MNEM.UNIT   API CODE                                  DESCRIPTION
#---- -----  --------                                  -----------------------
TIME .S                                                :TIME {F10.1}
TENS_SL.LBF                                            :Cable Tension {F13.4}
DEPT_SL..1IN                                           :Station logging depth {F13.4}
PDEP_XPT.M                                             :XPT Probe Depth {F13.4}
MTEP_SAP.DEGC                                          :Sapphire Gauge Manometer Temperature {F13.4}
MTEP_HYD.DEGC                                          :Hydrostatic Sapphire Gauge Manometer Temperature {F13.4}
PCO_HYD.PSI                                            :Hydrostatic Sapphire Dynamic Compensation {F13.4}
PND_HYD.PSI                                            :Hydrostatic Sapphire Pressure Without Dynamic Compensation {F13.4}
CP_HYD.PSI                                             :Hydrostatic Sapphire Pressure With Dynamic Compensation {F13.4}
MTEP_QG.DEGC                                           :CQG Manometer Temperature {F13.4}
PTNO_XPT.                                              :XPT Pretest Number {I11}
ETIM_XPT.S                                             :Elapsed Logging Time {F13.4}
PCO_SAP.PSI                                            :Sapphire Dynamic Compensation {F13.4}
PND_SAP.PSI                                            :Sapphire Pressure Without Dynamic Compensation {F13.4}
CP_SAP.PSI                                             :Sapphire Pressure With Dynamic Compensation {F13.4}
QNDP .PSI                                              :CQG Pressure Without Dynamic Compensation {F13.4}
QCP  .PSI                                              :CQG Pressure With Dynamic Compensation {F13.4}
QPCO .PSI                                              :CQG Dynamic Compensation {F13.4}
#-----------------------------------------------------------------------------
# 
#     TIME      TENS_SL      DEPT_SL      PDEP_XPT     MTEP_SAP     MTEP_HYD     PCO_HYD      PND_HYD       CP_HYD      MTEP_QG       PTNO_XPT       ETIM_XPT     PCO_SAP      PND_SAP       CP_SAP        QNDP         QCP          QPCO
#
~A  
# ...
    3898.0    4762.8000 1440603.0000    3657.5227     121.8795     122.4108      -0.0172    5955.5659    5955.5489     122.4674          7     210.0725      -0.0146    5525.1589    5525.1443    5522.4431    5522.5153       0.0721
    3899.0    4841.5675 1440603.0000    3657.5227     121.8811     122.4107      -0.0158    5955.5217    5955.5059     122.4675          7     211.0725      -0.0147    5525.1957    5525.1811    5522.4375    5522.5075       0.0701
    3900.0    4903.5525 1440603.0000    3657.5227     121.8794     122.4101      -0.0156    5955.3305    5955.3149     122.4676          7     212.0725      -0.0130    5525.2178    5525.2046    5522.4308    5522.4982       0.0676
    3901.0    4950.0875 1440603.0000    3657.5227     121.8789     122.4098      -0.0163    5955.3534    5955.3371     122.4679          7     213.0725      -0.0106    5525.0789    5525.0683    5522.4272    5522.4925       0.0654
    3902.0    4963.2750 1440603.0000    3657.5227     121.8784     122.4099      -0.0170    5955.2321    5955.2150     122.4681          7     214.0725      -0.0083    5525.0934    5525.0852    5522.4246    5522.4883       0.0637
    3903.0    4946.9675 1440603.0000    3657.5227     121.8789     122.4100      -0.0163    5955.2476    5955.2314     122.4684          7     215.0725      -0.0068    5525.0724    5525.0655    5522.4200    5522.4820       0.0619
    3904.0    4850.0400 1440603.0000    3657.5227     121.8793     122.4093      -0.0147    5955.3110    5955.2965     122.4687          7     216.0725      -0.0065    5525.1274    5525.1209    5522.4218    5522.4817       0.0599
    3905.0    4755.3450 1440603.0000    3657.5227     121.8779     122.4079      -0.0130    5955.1768    5955.1639     122.4687          7     217.0725      -0.0071    5525.1412    5525.1341    5522.4161    5522.4744       0.0584
    3906.0    4679.5925 1440603.0000    3657.5227     121.8782     122.4086      -0.0110    5955.4667    5955.4559     122.4688          7     218.0725      -0.0082    5525.0929    5525.0847    5522.4180    5522.4752       0.0574
    3907.0    4636.3625 1440603.0000    3657.5227     121.8775     122.4080      -0.0080    5955.4308    5955.4228     122.4691          7     219.0725      -0.0100    5525.1418    5525.1318    5522.4242    5522.4802       0.0560
    3908.0    4649.6275 1440603.0000    3657.5227     121.8773     122.4087      -0.0059    5955.5432    5955.5374     122.4694          7     220.0725      -0.0131    5525.1612    5525.1479    5522.4265    5522.4809       0.0543
    3909.0    4777.5450 1440603.0000    3657.5227     121.8796     122.4086      -0.0069    5955.6024    5955.5956     122.4695          7     221.0725      -0.0162    5525.2494    5525.2333    5522.4246    5522.4769       0.0525
    3910.0    4998.5200 1440603.0000    3657.5227     121.8785     122.4079      -0.0109    5955.5423    5955.5312     122.4697          7     222.0725      -0.0186    5525.1287    5525.1101    5522.4249    5522.4757       0.0509
    3911.0    4956.0300 1440603.0000    3657.5227     121.8766     122.4088      -0.0155    5955.5012    5955.4857     122.4699          7     223.0725      -0.0208    5525.1293    5525.1085    5522.4233    5522.4729       0.0495
    3912.0    4982.5075 1440603.0000    3657.5227     121.8765     122.4078      -0.0183    5955.1847    5955.1662     122.4700          7     224.0725      -0.0228    5525.2108    5525.1879    5522.4186    5522.4669       0.0482
    3913.0    4986.6075 1440603.0000    3657.5227     121.8756     122.4069      -0.0191    5955.0022    5954.9832     122.4701          7     225.0725      -0.0234    5525.0207    5524.9974    5522.4227    5522.4695       0.0468
    3914.0    4950.2725 1440603.0000    3657.5227     121.8759     122.4073      -0.0182    5955.2735    5955.2552     122.4703          7     226.0725      -0.0215    5525.1492    5525.1278    5522.4202    5522.4658       0.0454
    3915.0    4874.2450 1440603.0000    3657.5227     121.8753     122.4063      -0.0162    5955.2793    5955.2631     122.4704          7     227.0725      -0.0182    5525.0323    5525.0142    5522.4203    5522.4647       0.0446
    3916.0    4840.2325 1440603.0000    3657.5227     121.8748     122.4051      -0.0138    5955.2508    5955.2369     122.4705          7     228.0725      -0.0162    5525.1557    5525.1396    5522.4168    5522.4606       0.0438
    3917.0    4859.0450 1440603.0000    3657.5227     121.8749     122.4061      -0.0119    5955.4566    5955.4447     122.4708          7     229.0725      -0.0164    5525.0420    5525.0256    5522.4123    5522.4550       0.0427
    3918.0    4898.4350 1440603.0000    3657.5227     121.8739     122.4070      -0.0113    5955.4067    5955.3955     122.4712          7     230.0725      -0.0175    5524.9930    5524.9754    5522.4120    5522.4530       0.0409
    3919.0    4910.0900 1440603.0000    3657.5227     121.8749     122.4049      -0.0125    5955.3992    5955.3868     122.4711          7     231.0725      -0.0180    5525.1184    5525.1004    5522.4084    5522.4474       0.0389
    3920.0    4987.5650 1440603.0000    3657.5227     121.8736     122.4060      -0.0152    5955.4329    5955.4177     122.4711          7     232.0725      -0.0175    5525.0882    5525.0709    5522.4123    5522.4499       0.0376
    3921.0    4981.1300 1440603.0000    3657.5227     121.8732     122.4047      -0.0182    5955.3232    5955.3052     122.4716          7     233.0725      -0.0168    5525.0222    5525.0055    5522.4157    5522.4524       0.0367
    3922.0    4968.4050 1440603.0000    3657.5227     121.8739     122.4055      -0.0202    5955.1893    5955.1692     122.4715          7     234.0725      -0.0157    5525.0722    5525.0565    5522.4070    5522.4425       0.0356
    3923.0    4949.0150 1440603.0000    3657.5227     121.8727     122.4040      -0.0212    5955.1590    5955.1377     122.4714          7     235.0725      -0.0139    5525.0120    5524.9981    5522.4122    5522.4461       0.0340
    3924.0    4956.3450 1440603.0000    3657.5227     121.8731     122.4047      -0.0210    5955.2907    5955.2697     122.4716          7     236.0725      -0.0119    5525.1274    5525.1156    5522.4092    5522.4420       0.0326
    3925.0    4883.4925 1440603.0000    3657.5227     121.8733     122.4032      -0.0194    5955.2850    5955.2656     122.4717          7     237.0725      -0.0115    5525.1198    5525.1085    5522.4163    5522.4484       0.0321
    3926.0    4875.4775 1440603.0000    3657.5227     121.8727     122.4032      -0.0169    5955.4523    5955.4353     122.4718          7     238.0725      -0.0129    5524.9854    5524.9724    5522.4076    5522.4391       0.0315
    3927.0    4855.1300 1440603.0000    3657.5227     121.8720     122.4032      -0.0146    5955.4751    5955.4604     122.4716          7     239.0725      -0.0152    5525.1412    5525.1261    5522.4064    5522.4367       0.0303
    3928.0    4842.5500 1440603.0000    3657.5227     121.8719     122.4027      -0.0123    5955.5405    5955.5284     122.4721          7     240.0725      -0.0164    5524.9875    5524.9709    5522.4066    5522.4359       0.0292
    3929.0    4826.7550 1440603.0000    3657.5227     121.8720     122.4025      -0.0097    5955.5040    5955.4943     122.4721          7     241.0725      -0.0161    5525.1079    5525.0918    5522.4014    5522.4299       0.0284
    3930.0    4867.9450 1440603.0000    3657.5227     121.8713     122.4032      -0.0080    5955.4923    5955.4844     122.4720          7     242.0725      -0.0152    5524.9165    5524.9014    5522.4021    5522.4299       0.0277
    3931.0    4944.7975 1440603.0000    3657.5227     121.8720     122.4010      -0.0094    5955.4033    5955.3938     122.4723          7     243.0725      -0.0143    5525.0863    5525.0721    5522.3981    5522.4249       0.0267
    3932.0    4956.3775 1440603.0000    3657.5227     121.8697     122.4019      -0.0129    5955.3185    5955.3057     122.4722          7     244.0725      -0.0131    5524.9364    5524.9235    5522.3971    5522.4227       0.0255
