~VERSION INFORMATION
VERS.           2.0   :CWLS Log ASCII Standard - VERSION 2.0
WRAP.           NO    :One Line per depth step
PROD.  Schlumberger   :LAS Producer
PROG.  DLIS to ASCII 2.2                               :LAS Program name and version
CREA.        2020/10/30 12:18                          :LAS Creation date {YYYY/MM/DD hh:mm}
SOURCE.     XPT_HRLA_TLD_MCFL_057LTP.DLIS              :DLIS File Name
FILE-ID.     XPT_HRLA_TLD_MCFL_057LTP                  :File Identification Number
#--------------------------------------------------
~WELL INFORMATION
#MNEM.UNIT      DATA             DESCRIPTION
#---- ------ --------------   -----------------------------
STRT .S         6912.0       :START TIME      
STOP .S         7441.0       :STOP TIME      
STEP .S            1.0       :STEP     
NULL .          -999.25      :NULL VALUE
COMP .        Nexus Energy                             :COMPANY
WELL .        Crux-3                                   :WELL
FLD  .        Crux                                     :FIELD
LOC  .        Easting: 656981.7mE                      :LOCATION
CNTY .        Sedco-703                                :COUNTY
STAT .        Northern Territory                       :STATE
CTRY .        Australia                                :COUNTRY
API  .                                                 :API NUMBER
UWI  .                                                 :UNIQUE WELL ID
DATE .        31-Dec-2007                              :LOG DATE {DD-MMM-YYYY}
SRVC .        Schlumberger                             :SERVICE COMPANY
LATI .DEG     12*57'32.63" S                           :LATITUDE
LONG .DEG     124*26'50.07" E                          :LONGITUDE
GDAT .                                                 :GeoDetic Datum
#-----------------------------------------------------------------------------
~PARAMETER INFORMATION
#MNEM.UNIT    VALUE                      DESCRIPTION
#---- -----   --------------------       ------------------------
RUN  .          1                        :RUN NUMBER
PDAT .        LAT                        :Permanent Datum
EPD  .M           0.000000               :Elevation of Permanent Datum above Mean Sea Level
EPD  .M           0.000000               :Elevation of tool zero above Mean Sea Level
LMF  .          DF                       :Logging Measured From (Name of Logging Elevation Reference)
APD  .M          26.400000               :Elevation of Depth Reference (LMF) above Permanent Datum
#-----------------------------------------------------------------------------
~CURVE INFORMATION
#MNEM.UNIT   API CODE                                  DESCRIPTION
#---- -----  --------                                  -----------------------
TIME .S                                                :TIME {F10.1}
TENS_SL.LBF                                            :Cable Tension {F13.4}
DEPT_SL..1IN                                           :Station logging depth {F13.4}
PDEP_XPT.M                                             :XPT Probe Depth {F13.4}
MTEP_SAP.DEGC                                          :Sapphire Gauge Manometer Temperature {F13.4}
MTEP_HYD.DEGC                                          :Hydrostatic Sapphire Gauge Manometer Temperature {F13.4}
PCO_HYD.PSI                                            :Hydrostatic Sapphire Dynamic Compensation {F13.4}
PND_HYD.PSI                                            :Hydrostatic Sapphire Pressure Without Dynamic Compensation {F13.4}
CP_HYD.PSI                                             :Hydrostatic Sapphire Pressure With Dynamic Compensation {F13.4}
MTEP_QG.DEGC                                           :CQG Manometer Temperature {F13.4}
PTNO_XPT.                                              :XPT Pretest Number {I11}
ETIM_XPT.S                                             :Elapsed Logging Time {F13.4}
PCO_SAP.PSI                                            :Sapphire Dynamic Compensation {F13.4}
PND_SAP.PSI                                            :Sapphire Pressure Without Dynamic Compensation {F13.4}
CP_SAP.PSI                                             :Sapphire Pressure With Dynamic Compensation {F13.4}
QNDP .PSI                                              :CQG Pressure Without Dynamic Compensation {F13.4}
QCP  .PSI                                              :CQG Pressure With Dynamic Compensation {F13.4}
QPCO .PSI                                              :CQG Dynamic Compensation {F13.4}
#-----------------------------------------------------------------------------
# 
#     TIME      TENS_SL      DEPT_SL      PDEP_XPT     MTEP_SAP     MTEP_HYD     PCO_HYD      PND_HYD       CP_HYD      MTEP_QG       PTNO_XPT       ETIM_XPT     PCO_SAP      PND_SAP       CP_SAP        QNDP         QCP          QPCO
#
~A  
# ...
    7052.0    4989.0420 1526236.0000    3875.0305     129.2676     129.7926      -0.0531    6300.7510    6300.6978     129.9704         19     140.0105       0.0353    5603.3187    5603.3541    5601.1815    5601.0938      -0.0878
    7053.0    4992.8950 1526236.0000    3875.0305     129.2687     129.7910      -0.0582    6300.7391    6300.6809     129.9703         19     141.0105       0.0235    5603.3685    5603.3918    5601.0856    5601.0243      -0.0615
    7054.0    4982.3175 1526236.0000    3875.0305     129.2707     129.7899      -0.0613    6300.7977    6300.7363     129.9701         19     142.0105       0.0150    5603.1513    5603.1662    5600.9816    5600.9408      -0.0408
    7055.0    4917.1495 1526236.0000    3875.0305     129.2714     129.7877      -0.0629    6300.7415    6300.6786     129.9702         19     143.0105       0.0079    5603.1027    5603.1106    5600.8668    5600.8421      -0.0246
    7056.0    4837.5145 1526236.0000    3875.0305     129.2694     129.7865      -0.0619    6300.8024    6300.7404     129.9699         19     144.0105       0.0007    5603.0452    5603.0461    5600.7578    5600.7452      -0.0124
    7057.0    4885.9055 1526236.0000    3875.0305     129.2699     129.7855      -0.0574    6300.8569    6300.7995     129.9702         19     145.0105      -0.0049    5602.9332    5602.9283    5600.6736    5600.6701      -0.0034
    7058.0    4876.7690 1526236.0000    3875.0305     129.2697     129.7859      -0.0513    6300.8825    6300.8312     129.9702         19     146.0105      -0.0083    5602.7569    5602.7488    5600.5883    5600.5918       0.0035
    7059.0    4854.8320 1526236.0000    3875.0305     129.2691     129.7841      -0.0479    6300.9023    6300.8544     129.9702         19     147.0105      -0.0112    5602.8616    5602.8503    5600.4996    5600.5080       0.0081
    7060.0    4840.0920 1526236.0000    3875.0305     129.2690     129.7834      -0.0480    6300.8945    6300.8465     129.9703         19     148.0105      -0.0156    5602.6511    5602.6354    5600.4165    5600.4276       0.0111
    7061.0    4943.8820 1526236.0000    3875.0305     129.2688     129.7839      -0.0485    6300.7791    6300.7308     129.9702         19     149.0105      -0.0207    5602.5865    5602.5659    5600.3231    5600.3358       0.0126
    7062.0    5026.8320 1526236.0000    3875.0305     129.2692     129.7816      -0.0477    6300.8148    6300.7669     129.9702         19     150.0105      -0.0242    5602.4920    5602.4681    5600.2440    5600.2577       0.0135
    7063.0    5010.7900 1526236.0000    3875.0305     129.2688     129.7810      -0.0464    6300.8233    6300.7769     129.9704         19     151.0105      -0.0259    5602.4460    5602.4199    5600.1620    5600.1752       0.0133
    7064.0    4990.9685 1526236.0000    3875.0305     129.2683     129.7794      -0.0459    6300.5249    6300.4790     129.9703         19     152.0105      -0.0270    5602.4426    5602.4154    5600.0901    5600.1019       0.0120
    7065.0    4988.2730 1526236.0000    3875.0305     129.2672     129.7792      -0.0459    6300.6503    6300.6044     129.9703         19     153.0105      -0.0283    5602.3924    5602.3640    5600.0393    5600.0496       0.0101
    7066.0    5013.1180 1526236.0000    3875.0305     129.2664     129.7793      -0.0472    6300.8276    6300.7804     129.9704         19     154.0105      -0.0305    5602.3029    5602.2724    5599.9802    5599.9878       0.0078
    7067.0    4929.1915 1526236.0000    3875.0305     129.2668     129.7781      -0.0504    6300.8193    6300.7690     129.9703         19     155.0105      -0.0330    5602.2195    5602.1866    5599.9243    5599.9295       0.0053
    7068.0    4853.3990 1526236.0000    3875.0305     129.2655     129.7771      -0.0544    6300.8074    6300.7532     129.9704         19     156.0105      -0.0362    5602.1627    5602.1265    5599.8817    5599.8846       0.0028
    7069.0    4890.5380 1526236.0000    3875.0305     129.2639     129.7761      -0.0562    6300.8983    6300.8422     129.9705         19     157.0105      -0.0393    5602.0687    5602.0295    5599.8405    5599.8406      -0.0000
    7070.0    4847.5985 1526236.0000    3875.0305     129.2634     129.7744      -0.0551    6301.0307    6300.9754     129.9707         19     158.0105      -0.0411    5602.0204    5601.9794    5599.7985    5599.7954      -0.0030
    7071.0    4903.4750 1526236.0000    3875.0305     129.2629     129.7730      -0.0524    6300.9436    6300.8913     129.9704         19     159.0105      -0.0401    5601.9550    5601.9150    5599.7622    5599.7558      -0.0061
    7072.0    4854.2415 1526236.0000    3875.0305     129.2621     129.7717      -0.0492    6300.8900    6300.8407     129.9704         19     160.0105      -0.0372    5601.9914    5601.9541    5599.7255    5599.7165      -0.0090
    7073.0    4877.9030 1526236.0000    3875.0305     129.2617     129.7716      -0.0466    6300.8459    6300.7994     129.9703         19     161.0105      -0.0357    5601.9845    5601.9488    5599.6878    5599.6762      -0.0117
    7074.0    4962.8635 1526236.0000    3875.0305     129.2608     129.7712      -0.0456    6300.7640    6300.7186     129.9705         19     162.0105      -0.0369    5601.9364    5601.8992    5599.6554    5599.6407      -0.0148
    7075.0    4950.3255 1526236.0000    3875.0305     129.2621     129.7705      -0.0473    6300.8765    6300.8292     129.9703         19     163.0105      -0.0395    5601.9322    5601.8927    5599.6210    5599.6026      -0.0183
    7076.0    4981.2520 1526236.0000    3875.0305     129.2610     129.7692      -0.0500    6300.7508    6300.7006     129.9703         19     164.0105      -0.0406    5601.9393    5601.8988    5599.5993    5599.5776      -0.0215
    7077.0    5005.1260 1526236.0000    3875.0305     129.2582     129.7674      -0.0512    6300.6046    6300.5534     129.9700         19     165.0105      -0.0416    5601.7947    5601.7532    5599.5759    5599.5514      -0.0244
    7078.0    5016.9160 1526236.0000    3875.0305     129.2577     129.7682      -0.0506    6300.7314    6300.6808     129.9701         19     166.0105      -0.0430    5601.7342    5601.6910    5599.5572    5599.5295      -0.0277
    7079.0    5007.8660 1526236.0000    3875.0305     129.2561     129.7667      -0.0507    6300.7148    6300.6642     129.9699         19     167.0105      -0.0438    5601.6799    5601.6363    5599.5382    5599.5068      -0.0313
    7080.0    4900.6535 1526236.0000    3875.0305     129.2581     129.7659      -0.0524    6300.7682    6300.7159     129.9700         19     168.0105      -0.0422    5601.8291    5601.7872    5599.5173    5599.4826      -0.0346
    7081.0    4867.6955 1526236.0000    3875.0305     129.2565     129.7658      -0.0541    6300.8485    6300.7943     129.9698         19     169.0105      -0.0398    5601.8562    5601.8163    5599.5025    5599.4652      -0.0371
    7082.0    4839.3255 1526236.0000    3875.0305     129.2548     129.7646      -0.0549    6300.9771    6300.9221     129.9697         19     170.0105      -0.0398    5601.7308    5601.6909    5599.4833    5599.4436      -0.0397
    7083.0    4869.6325 1526236.0000    3875.0305     129.2529     129.7621      -0.0562    6301.0265    6300.9704     129.9695         19     171.0105      -0.0406    5601.6691    5601.6285    5599.4667    5599.4242      -0.0424
    7084.0    4835.1470 1526236.0000    3875.0305     129.2544     129.7614      -0.0578    6300.9488    6300.8910     129.9695         19     172.0105      -0.0407    5601.6530    5601.6125    5599.4495    5599.4042      -0.0452
    7085.0    4850.1235 1526236.0000    3875.0305     129.2539     129.7603      -0.0583    6300.9277    6300.8694     129.9695         19     173.0105      -0.0407    5601.7231    5601.6826    5599.4376    5599.3895      -0.0478
    7086.0    4956.5040 1526236.0000    3875.0305     129.2521     129.7598      -0.0572    6300.8788    6300.8217     129.9692         19     174.0105      -0.0418    5601.5714    5601.5294    5599.4250    5599.3747      -0.0506
