~VERSION INFORMATION
VERS.           2.0   :CWLS Log ASCII Standard - VERSION 2.0
WRAP.           NO    :One Line per depth step
PROD.  Schlumberger   :LAS Producer
PROG.  DLIS to ASCII 2.2                               :LAS Program name and version
CREA.        2020/10/30 12:18                          :LAS Creation date {YYYY/MM/DD hh:mm}
SOURCE.     XPT_HRLA_TLD_MCFL_058LTP.DLIS              :DLIS File Name
FILE-ID.     XPT_HRLA_TLD_MCFL_058LTP                  :File Identification Number
#--------------------------------------------------
~WELL INFORMATION
#MNEM.UNIT      DATA             DESCRIPTION
#---- ------ --------------   -----------------------------
STRT .S         7904.0       :START TIME      
STOP .S         8100.0       :STOP TIME      
STEP .S            1.0       :STEP     
NULL .          -999.25      :NULL VALUE
COMP .        Nexus Energy                             :COMPANY
WELL .        Crux-3                                   :WELL
FLD  .        Crux                                     :FIELD
LOC  .        Easting: 656981.7mE                      :LOCATION
CNTY .        Sedco-703                                :COUNTY
STAT .        Northern Territory                       :STATE
CTRY .        Australia                                :COUNTRY
API  .                                                 :API NUMBER
UWI  .                                                 :UNIQUE WELL ID
DATE .        31-Dec-2007                              :LOG DATE {DD-MMM-YYYY}
SRVC .        Schlumberger                             :SERVICE COMPANY
LATI .DEG     12*57'32.63" S                           :LATITUDE
LONG .DEG     124*26'50.07" E                          :LONGITUDE
GDAT .                                                 :GeoDetic Datum
#-----------------------------------------------------------------------------
~PARAMETER INFORMATION
#MNEM.UNIT    VALUE                      DESCRIPTION
#---- -----   --------------------       ------------------------
RUN  .          1                        :RUN NUMBER
PDAT .        LAT                        :Permanent Datum
EPD  .M           0.000000               :Elevation of Permanent Datum above Mean Sea Level
EPD  .M           0.000000               :Elevation of tool zero above Mean Sea Level
LMF  .          DF                       :Logging Measured From (Name of Logging Elevation Reference)
APD  .M          26.400000               :Elevation of Depth Reference (LMF) above Permanent Datum
#-----------------------------------------------------------------------------
~CURVE INFORMATION
#MNEM.UNIT   API CODE                                  DESCRIPTION
#---- -----  --------                                  -----------------------
TIME .S                                                :TIME {F10.1}
TENS_SL.LBF                                            :Cable Tension {F13.4}
DEPT_SL..1IN                                           :Station logging depth {F13.4}
PDEP_XPT.M                                             :XPT Probe Depth {F13.4}
MTEP_SAP.DEGC                                          :Sapphire Gauge Manometer Temperature {F13.4}
MTEP_HYD.DEGC                                          :Hydrostatic Sapphire Gauge Manometer Temperature {F13.4}
PCO_HYD.PSI                                            :Hydrostatic Sapphire Dynamic Compensation {F13.4}
PND_HYD.PSI                                            :Hydrostatic Sapphire Pressure Without Dynamic Compensation {F13.4}
CP_HYD.PSI                                             :Hydrostatic Sapphire Pressure With Dynamic Compensation {F13.4}
MTEP_QG.DEGC                                           :CQG Manometer Temperature {F13.4}
PTNO_XPT.                                              :XPT Pretest Number {I11}
ETIM_XPT.S                                             :Elapsed Logging Time {F13.4}
PCO_SAP.PSI                                            :Sapphire Dynamic Compensation {F13.4}
PND_SAP.PSI                                            :Sapphire Pressure Without Dynamic Compensation {F13.4}
CP_SAP.PSI                                             :Sapphire Pressure With Dynamic Compensation {F13.4}
QNDP .PSI                                              :CQG Pressure Without Dynamic Compensation {F13.4}
QCP  .PSI                                              :CQG Pressure With Dynamic Compensation {F13.4}
QPCO .PSI                                              :CQG Dynamic Compensation {F13.4}
#-----------------------------------------------------------------------------
# 
#     TIME      TENS_SL      DEPT_SL      PDEP_XPT     MTEP_SAP     MTEP_HYD     PCO_HYD      PND_HYD       CP_HYD      MTEP_QG       PTNO_XPT       ETIM_XPT     PCO_SAP      PND_SAP       CP_SAP        QNDP         QCP          QPCO
#
~A  
# ...
    7939.0    5123.6950 1534486.0000    3895.9854     128.8603     129.4103       0.0001    6334.5493    6334.5493     129.5905         20      34.5435       0.0047    6331.7520    6331.7568    6329.6360    6329.5668      -0.0693
    7940.0    5025.7575 1534486.0000    3895.9854     128.8608     129.4096       0.0009    6334.4805    6334.4812     129.5901         20      35.5435       0.0046    6331.6886    6331.6930    6329.6727    6329.6053      -0.0673
    7941.0    4980.5445 1534486.0000    3895.9854     128.8608     129.4097       0.0031    6334.5426    6334.5458     129.5900         20      36.5435       0.0040    6331.9761    6331.9801    6329.8187    6329.7527      -0.0661
    7942.0    4975.9120 1534486.0000    3895.9854     128.8614     129.4096       0.0049    6334.6710    6334.6758     129.5901         20      37.5435       0.0037    6332.1235    6332.1274    6329.9440    6329.8785      -0.0657
    7943.0    4940.4125 1534486.0000    3895.9854     128.8607     129.4096       0.0047    6334.8428    6334.8474     129.5896         20      38.5435       0.0045    6332.2340    6332.2386    6330.0688    6330.0034      -0.0654
    7944.0    4922.4780 1534486.0000    3895.9854     128.8616     129.4104       0.0031    6334.8636    6334.8666     129.5894         20      39.5435       0.0055    6331.9857    6331.9911    6329.9074    6329.8424      -0.0651
    7945.0    4964.8280 1534486.0000    3895.9854     128.8601     129.4110       0.0030    6334.7939    6334.7969     129.5892         20      40.5435       0.0060    6331.9557    6331.9616    6329.8873    6329.8223      -0.0650
    7946.0    5051.7410 1534486.0000    3895.9854     128.8601     129.4124       0.0051    6334.7846    6334.7897     129.5888         20      41.5435       0.0059    6331.8917    6331.8975    6329.8311    6329.7661      -0.0650
    7947.0    5076.8690 1534486.0000    3895.9854     128.8624     129.4103       0.0069    6334.6366    6334.6434     129.5887         20      42.5435       0.0060    6332.0369    6332.0428    6329.8347    6329.7698      -0.0650
    7948.0    5051.9560 1534486.0000    3895.9854     128.8622     129.4089       0.0074    6334.4734    6334.4807     129.5888         20      43.5435       0.0053    6331.8567    6331.8620    6329.7358    6329.6713      -0.0646
    7949.0    5073.0665 1534486.0000    3895.9854     128.8615     129.4118       0.0085    6334.5199    6334.5284     129.5884         20      44.5435       0.0032    6331.8788    6331.8818    6329.7175    6329.6538      -0.0638
    7950.0    5043.4760 1534486.0000    3895.9854     128.8622     129.4118       0.0098    6334.6260    6334.6357     129.5883         20      45.5435       0.0002    6331.9910    6331.9912    6329.8043    6329.7399      -0.0643
    7951.0    4964.4770 1534486.0000    3895.9854     128.8596     129.4118       0.0075    6334.7454    6334.7530     129.5879         20      46.5435      -0.0046    6331.9247    6331.9200    6329.8611    6329.7887      -0.0723
    7952.0    4940.7175 1534486.0000    3895.9854     128.8619     129.4119       0.0013    6334.6577    6334.6592     129.5879         20      47.5435      -0.0151    6331.9722    6331.9569    6329.8430    6329.7482      -0.0948
    7953.0    4925.6080 1534486.0000    3895.9854     128.8630     129.4134      -0.0046    6334.7632    6334.7586     129.5876         20      48.5435      -0.0324    6332.0948    6332.0622    6329.9187    6329.7881      -0.1305
    7954.0    4928.9355 1534486.0000    3895.9854     128.8609     129.4119      -0.0076    6334.7554    6334.7475     129.5871         20      49.5435      -0.0524    6331.9126    6331.8600    6329.9330    6329.7639      -0.1691
    7955.0    4983.1320 1534486.0000    3895.9854     128.8608     129.4107      -0.0088    6334.7345    6334.7258     129.5872         20      50.5435      -0.0684    6330.8186    6330.7500    6328.7586    6328.5571      -0.2016
    7956.0    5037.7400 1534486.0000    3895.9854     128.8567     129.4103      -0.0096    6334.8284    6334.8187     129.5853         20      51.5435      -0.0766    6299.7994    6299.7229    6295.5046    6295.2764      -0.2283
    7957.0    5063.6090 1534486.0000    3895.9854     128.8556     129.4106      -0.0131    6334.8535    6334.8404     129.5845         20      52.5435      -0.0753    6291.6947    6291.6193    6281.9649    6281.7168      -0.2481
    7958.0    5058.5865 1534486.0000    3895.9854     128.8538     129.4119      -0.0238    6334.8677    6334.8438     129.5840         20      53.5435      -0.0648    6283.4507    6283.3859    6281.5024    6281.2463      -0.2561
    7959.0    5019.1075 1534486.0000    3895.9854     128.8522     129.4096      -0.0406    6334.7222    6334.6817     129.5834         20      54.5435      -0.0490    6281.8110    6281.7622    6278.8170    6278.5642      -0.2528
    7960.0    4986.3910 1534486.0000    3895.9854     128.8535     129.4119      -0.0556    6334.8071    6334.7515     129.5823         20      55.5435      -0.0335    6278.1553    6278.1217    6274.7886    6274.5406      -0.2479
    7961.0    4985.4350 1534486.0000    3895.9854     128.8525     129.4111      -0.0622    6334.8594    6334.7971     129.5818         20      56.5435      -0.0230    6274.5977    6274.5747    6272.1453    6271.8960      -0.2493
    7962.0    5027.5015 1534486.0000    3895.9854     128.8530     129.4022      -0.0610    6334.3726    6334.3117     129.5812         20      57.5435      -0.0178    6270.3691    6270.3514    6268.7720    6268.5170      -0.2548
    7963.0    5056.8260 1534486.0000    3895.9854     128.8524     129.4043      -0.0527    6334.5169    6334.4643     129.5804         20      58.5435      -0.0158    6262.1761    6262.1600    6260.5536    6260.2948      -0.2587
    7964.0    5075.1095 1534486.0000    3895.9854     128.8514     129.4039      -0.0339    6334.5565    6334.5225     129.5791         20      59.5435      -0.0128    6251.3872    6251.3742    6249.8026    6249.5464      -0.2561
    7965.0    5103.4135 1534486.0000    3895.9854     128.8502     129.4050      -0.0174    6334.5091    6334.4919     129.5785         20      60.5435      -0.0080    6251.1073    6251.0991    6249.3419    6249.0932      -0.2487
    7966.0    5092.8905 1534486.0000    3895.9854     128.8524     129.4044      -0.0027    6334.4000    6334.3974     129.5780         20      61.5435       0.0016    6246.9093    6246.9108    6245.1087    6244.8762      -0.2324
    7967.0    5040.6725 1534486.0000    3895.9854     128.8504     129.4060       0.0029    6334.5347    6334.5376     129.5768         20      62.5435       0.0149    6240.6625    6240.6775    6238.9473    6238.7370      -0.2100
    7968.0    4964.8025 1534486.0000    3895.9854     128.8513     129.4051       0.0022    6334.5248    6334.5269     129.5763         20      63.5435       0.0241    6241.6160    6241.6399    6239.8507    6239.6569      -0.1938
    7969.0    4948.8270 1534486.0000    3895.9854     128.8528     129.4046      -0.0004    6334.4592    6334.4587     129.5759         20      64.5435       0.0316    6243.0617    6243.0931    6241.1398    6240.9622      -0.1776
    7970.0    4937.0205 1534486.0000    3895.9854     128.8533     129.4029      -0.0017    6334.5620    6334.5603     129.5752         20      65.5435       0.0325    6244.3703    6244.4028    6242.3769    6242.2096      -0.1673
    7971.0    4908.8260 1534486.0000    3895.9854     128.8530     129.4044      -0.0003    6334.6335    6334.6333     129.5749         20      66.5435       0.0241    6245.0767    6245.1008    6243.0751    6242.9075      -0.1674
    7972.0    4958.0890 1534486.0000    3895.9854     128.8553     129.4038       0.0027    6334.5671    6334.5697     129.5743         20      67.5435       0.0066    6242.3604    6242.3668    6240.4319    6240.2508      -0.1812
    7973.0    5045.0235 1534486.0000    3895.9854     128.8557     129.4037       0.0053    6334.4642    6334.4693     129.5741         20      68.5435      -0.0168    6244.6575    6244.6408    6242.5461    6242.3408      -0.2054
