~VERSION INFORMATION
VERS.           2.0   :CWLS Log ASCII Standard - VERSION 2.0
WRAP.           NO    :One Line per depth step
PROD.  Schlumberger   :LAS Producer
PROG.  DLIS to ASCII 2.2                               :LAS Program name and version
CREA.        2020/10/30 12:18                          :LAS Creation date {YYYY/MM/DD hh:mm}
SOURCE.     XPT_HRLA_TLD_MCFL_068LTP.DLIS              :DLIS File Name
FILE-ID.     XPT_HRLA_TLD_MCFL_068LTP                  :File Identification Number
#--------------------------------------------------
~WELL INFORMATION
#MNEM.UNIT      DATA             DESCRIPTION
#---- ------ --------------   -----------------------------
STRT .S           82.0       :START TIME      
STOP .S          488.0       :STOP TIME      
STEP .S            1.0       :STEP     
NULL .          -999.25      :NULL VALUE
COMP .        Nexus Energy                             :COMPANY
WELL .        Crux-3                                   :WELL
FLD  .        Crux                                     :FIELD
LOC  .        Easting: 656981.7mE                      :LOCATION
CNTY .        Sedco-703                                :COUNTY
STAT .        Northern Territory                       :STATE
CTRY .        Australia                                :COUNTRY
API  .                                                 :API NUMBER
UWI  .                                                 :UNIQUE WELL ID
DATE .        31-Dec-2007                              :LOG DATE {DD-MMM-YYYY}
SRVC .        Schlumberger                             :SERVICE COMPANY
LATI .DEG     12*57'32.63" S                           :LATITUDE
LONG .DEG     124*26'50.07" E                          :LONGITUDE
GDAT .                                                 :GeoDetic Datum
#-----------------------------------------------------------------------------
~PARAMETER INFORMATION
#MNEM.UNIT    VALUE                      DESCRIPTION
#---- -----   --------------------       ------------------------
RUN  .          1                        :RUN NUMBER
PDAT .        LAT                        :Permanent Datum
EPD  .M           0.000000               :Elevation of Permanent Datum above Mean Sea Level
EPD  .M           0.000000               :Elevation of tool zero above Mean Sea Level
LMF  .          DF                       :Logging Measured From (Name of Logging Elevation Reference)
APD  .M          26.400000               :Elevation of Depth Reference (LMF) above Permanent Datum
#-----------------------------------------------------------------------------
~CURVE INFORMATION
#MNEM.UNIT   API CODE                                  DESCRIPTION
#---- -----  --------                                  -----------------------
TIME .S                                                :TIME {F10.1}
TENS_SL.LBF                                            :Cable Tension {F13.4}
DEPT_SL..1IN                                           :Station logging depth {F13.4}
PDEP_XPT.M                                             :XPT Probe Depth {F13.4}
MTEP_SAP.DEGC                                          :Sapphire Gauge Manometer Temperature {F13.4}
MTEP_HYD.DEGC                                          :Hydrostatic Sapphire Gauge Manometer Temperature {F13.4}
PCO_HYD.PSI                                            :Hydrostatic Sapphire Dynamic Compensation {F13.4}
PND_HYD.PSI                                            :Hydrostatic Sapphire Pressure Without Dynamic Compensation {F13.4}
CP_HYD.PSI                                             :Hydrostatic Sapphire Pressure With Dynamic Compensation {F13.4}
MTEP_QG.DEGC                                           :CQG Manometer Temperature {F13.4}
PTNO_XPT.                                              :XPT Pretest Number {I11}
ETIM_XPT.S                                             :Elapsed Logging Time {F13.4}
PCO_SAP.PSI                                            :Sapphire Dynamic Compensation {F13.4}
PND_SAP.PSI                                            :Sapphire Pressure Without Dynamic Compensation {F13.4}
CP_SAP.PSI                                             :Sapphire Pressure With Dynamic Compensation {F13.4}
QNDP .PSI                                              :CQG Pressure Without Dynamic Compensation {F13.4}
QCP  .PSI                                              :CQG Pressure With Dynamic Compensation {F13.4}
QPCO .PSI                                              :CQG Dynamic Compensation {F13.4}
#-----------------------------------------------------------------------------
# 
#     TIME      TENS_SL      DEPT_SL      PDEP_XPT     MTEP_SAP     MTEP_HYD     PCO_HYD      PND_HYD       CP_HYD      MTEP_QG       PTNO_XPT       ETIM_XPT     PCO_SAP      PND_SAP       CP_SAP        QNDP         QCP          QPCO
#
~A  
# ...
     432.0    4911.2053 1566781.0000    3978.0146     133.1466     133.6689       0.0346    6464.5521    6464.5866     133.4718         33     350.1413       0.0375    6465.7865    6465.8238    6457.4542    6459.7318       2.2775
     433.0    4962.9118 1566781.0000    3978.0146     133.1417     133.6698       0.0316    6464.5997    6464.6312     133.4779         33     351.1413      -0.2333    6465.0362    6464.8027    6457.7330    6459.7669       2.0341
     434.0    5015.6623 1566781.0000    3978.0146     133.1327     133.6705       0.0317    6464.6304    6464.6620     133.4845         33     352.1413      -0.3473    6464.2824    6463.9351    6457.9321    6459.8294       1.8973
     435.0    5044.7064 1566781.0000    3978.0146     133.1237     133.6686       0.0336    6464.5832    6464.6169     133.4905         33     353.1413      -0.3651    6463.7364    6463.3714    6458.1729    6459.9553       1.7824
     436.0    5040.2406 1566781.0000    3978.0146     133.1184     133.6706       0.0370    6464.6309    6464.6679     133.4957         33     354.1413      -0.3523    6463.3379    6462.9857    6458.3354    6459.9696       1.6342
     437.0    4976.8278 1566781.0000    3978.0146     133.1125     133.6705       0.0414    6464.4844    6464.5257     133.5003         33     355.1413      -0.3276    6462.8818    6462.5540    6458.4067    6459.8778       1.4711
     438.0    4906.8057 1566781.0000    3978.0146     133.1054     133.6729       0.0460    6464.5693    6464.6153     133.5049         33     356.1413      -0.2986    6462.6222    6462.3236    6458.5793    6459.8860       1.3066
     439.0    4854.1744 1566781.0000    3978.0146     133.1018     133.6732       0.0487    6464.5338    6464.5824     133.5082         33     357.1413      -0.2697    6462.6934    6462.4236    6458.8077    6459.9558       1.1481
     440.0    4845.3356 1566781.0000    3978.0146     133.0955     133.6743       0.0479    6464.7206    6464.7685     133.5117         33     358.1413      -0.2421    6462.3787    6462.1364    6458.9487    6459.9488       1.0002
     441.0    4910.4107 1566781.0000    3978.0146     133.0922     133.6748       0.0443    6464.7980    6464.8422     133.5144         33     359.1413      -0.2148    6462.3693    6462.1547    6459.0886    6459.9550       0.8662
     442.0    5003.3687 1566781.0000    3978.0146     133.0892     133.6755       0.0398    6464.7131    6464.7529     133.5166         33     360.1413      -0.1872    6462.2590    6462.0718    6459.0780    6459.8248       0.7470
     443.0    5039.2495 1566781.0000    3978.0146     133.0870     133.6769       0.0366    6464.7002    6464.7369     133.5187         33     361.1413      -0.1612    6462.2218    6462.0607    6459.1019    6459.7434       0.6414
     444.0    5059.9890 1566781.0000    3978.0146     133.0812     133.6766       0.0353    6464.5752    6464.6104     133.5205         33     362.1413      -0.1389    6461.7918    6461.6530    6458.9469    6459.4952       0.5482
     445.0    5067.4128 1566781.0000    3978.0146     133.0813     133.6776       0.0358    6464.4642    6464.4999     133.5219         33     363.1413      -0.1199    6461.8579    6461.7378    6459.0205    6459.4883       0.4678
     446.0    5072.0441 1566781.0000    3978.0146     133.0808     133.6781       0.0375    6464.4702    6464.5077     133.5233         33     364.1413      -0.1029    6461.7355    6461.6325    6459.0748    6459.4735       0.3987
     447.0    5034.8608 1566781.0000    3978.0146     133.0773     133.6782       0.0407    6464.5271    6464.5679     133.5242         33     365.1413      -0.0883    6461.8661    6461.7777    6459.1673    6459.5069       0.3395
     448.0    4949.0662 1566781.0000    3978.0146     133.0750     133.6795       0.0453    6464.6186    6464.6640     133.5250         33     366.1413      -0.0770    6461.8012    6461.7242    6459.2137    6459.5025       0.2888
     449.0    4909.7505 1566781.0000    3978.0146     133.0739     133.6810       0.0484    6464.6170    6464.6652     133.5261         33     367.1413      -0.0677    6461.7094    6461.6420    6459.2459    6459.4915       0.2455
     450.0    4887.5982 1566781.0000    3978.0146     133.0739     133.6806       0.0477    6464.6832    6464.7309     133.5266         33     368.1413      -0.0582    6461.9445    6461.8863    6459.4157    6459.6249       0.2093
     451.0    4877.9448 1566781.0000    3978.0146     133.0730     133.6816       0.0437    6464.6612    6464.7049     133.5272         33     369.1413      -0.0481    6461.9344    6461.8864    6459.4584    6459.6378       0.1794
     452.0    4918.8787 1566781.0000    3978.0146     133.0714     133.6850       0.0393    6464.7749    6464.8142     133.5277         33     370.1413      -0.0381    6461.8046    6461.7665    6459.3872    6459.5420       0.1549
     453.0    4997.0089 1566781.0000    3978.0146     133.0709     133.6835       0.0361    6464.7114    6464.7475     133.5279         33     371.1413      -0.0288    6461.8634    6461.8345    6459.4215    6459.5565       0.1350
     454.0    5070.1413 1566781.0000    3978.0146     133.0706     133.6835       0.0346    6464.5889    6464.6235     133.5282         33     372.1413      -0.0198    6461.7409    6461.7211    6459.3995    6459.5185       0.1189
     455.0    5066.9028 1566781.0000    3978.0146     133.0705     133.6850       0.0350    6464.4839    6464.5189     133.5286         33     373.1413      -0.0117    6461.5966    6461.5849    6459.2994    6459.4055       0.1063
     456.0    5041.1523 1566781.0000    3978.0146     133.0709     133.6851       0.0372    6464.4687    6464.5059     133.5291         33     374.1413      -0.0051    6461.5507    6461.5455    6459.1985    6459.2953       0.0967
     457.0    5027.0993 1566781.0000    3978.0146     133.0703     133.6854       0.0397    6464.4878    6464.5276     133.5293         33     375.1413      -0.0009    6461.5723    6461.5713    6459.2849    6459.3745       0.0897
     458.0    4972.7174 1566781.0000    3978.0146     133.0713     133.6881       0.0412    6464.6382    6464.6792     133.5293         33     376.1413       0.0008    6461.7324    6461.7333    6459.3893    6459.4739       0.0845
     459.0    4971.0000 1566781.0000    3978.0146     133.0711     133.6883       0.0410    6464.5887    6464.6296     133.5297         33     377.1413       0.0015    6461.7395    6461.7410    6459.3862    6459.4666       0.0807
     460.0    4963.2295 1566781.0000    3978.0146     133.0697     133.6873       0.0387    6464.6123    6464.6509     133.5299         33     378.1413       0.0025    6461.7816    6461.7842    6459.5165    6459.5943       0.0779
     461.0    4912.0441 1566781.0000    3978.0146     133.0711     133.6899       0.0356    6464.7799    6464.8152     133.5300         33     379.1413       0.0044    6461.9111    6461.9154    6459.4911    6459.5670       0.0760
     462.0    4896.1943 1566781.0000    3978.0146     133.0704     133.6897       0.0328    6464.7517    6464.7844     133.5304         33     380.1413       0.0062    6461.7588    6461.7652    6459.3974    6459.4726       0.0753
     463.0    4959.5630 1566781.0000    3978.0146     133.0713     133.6905       0.0312    6464.6509    6464.6821     133.5307         33     381.1413       0.0085    6461.6147    6461.6232    6459.3649    6459.4401       0.0753
     464.0    5039.5982 1566781.0000    3978.0146     133.0705     133.6916       0.0310    6464.7376    6464.7683     133.5309         33     382.1413       0.0123    6461.6692    6461.6816    6459.3651    6459.4407       0.0757
     465.0    5028.5320 1566781.0000    3978.0146     133.0724     133.6914       0.0323    6464.6145    6464.6468     133.5309         33     383.1413       0.0165    6461.6405    6461.6567    6459.2553    6459.3320       0.0765
     466.0    5050.1413 1566781.0000    3978.0146     133.0704     133.6919       0.0349    6464.4365    6464.4714     133.5312         33     384.1413       0.0184    6461.4414    6461.4600    6459.1744    6459.2528       0.0783
