~VERSION INFORMATION
VERS.           2.0   :CWLS Log ASCII Standard - VERSION 2.0
WRAP.           NO    :One Line per depth step
PROD.  Schlumberger   :LAS Producer
PROG.  DLIS to ASCII 2.2                               :LAS Program name and version
CREA.        2020/10/30 12:18                          :LAS Creation date {YYYY/MM/DD hh:mm}
SOURCE.     XPT_HRLA_TLD_MCFL_064LTP.DLIS              :DLIS File Name
FILE-ID.     XPT_HRLA_TLD_MCFL_064LTP                  :File Identification Number
#--------------------------------------------------
~WELL INFORMATION
#MNEM.UNIT      DATA             DESCRIPTION
#---- ------ --------------   -----------------------------
STRT .S         1332.0       :START TIME      
STOP .S         1827.0       :STOP TIME      
STEP .S            1.0       :STEP     
NULL .          -999.25      :NULL VALUE
COMP .        Nexus Energy                             :COMPANY
WELL .        Crux-3                                   :WELL
FLD  .        Crux                                     :FIELD
LOC  .        Easting: 656981.7mE                      :LOCATION
CNTY .        Sedco-703                                :COUNTY
STAT .        Northern Territory                       :STATE
CTRY .        Australia                                :COUNTRY
API  .                                                 :API NUMBER
UWI  .                                                 :UNIQUE WELL ID
DATE .        31-Dec-2007                              :LOG DATE {DD-MMM-YYYY}
SRVC .        Schlumberger                             :SERVICE COMPANY
LATI .DEG     12*57'32.63" S                           :LATITUDE
LONG .DEG     124*26'50.07" E                          :LONGITUDE
GDAT .                                                 :GeoDetic Datum
#-----------------------------------------------------------------------------
~PARAMETER INFORMATION
#MNEM.UNIT    VALUE                      DESCRIPTION
#---- -----   --------------------       ------------------------
RUN  .          1                        :RUN NUMBER
PDAT .        LAT                        :Permanent Datum
EPD  .M           0.000000               :Elevation of Permanent Datum above Mean Sea Level
EPD  .M           0.000000               :Elevation of tool zero above Mean Sea Level
LMF  .          DF                       :Logging Measured From (Name of Logging Elevation Reference)
APD  .M          26.400000               :Elevation of Depth Reference (LMF) above Permanent Datum
#-----------------------------------------------------------------------------
~CURVE INFORMATION
#MNEM.UNIT   API CODE                                  DESCRIPTION
#---- -----  --------                                  -----------------------
TIME .S                                                :TIME {F10.1}
TENS_SL.LBF                                            :Cable Tension {F13.4}
DEPT_SL..1IN                                           :Station logging depth {F13.4}
PDEP_XPT.M                                             :XPT Probe Depth {F13.4}
MTEP_SAP.DEGC                                          :Sapphire Gauge Manometer Temperature {F13.4}
MTEP_HYD.DEGC                                          :Hydrostatic Sapphire Gauge Manometer Temperature {F13.4}
PCO_HYD.PSI                                            :Hydrostatic Sapphire Dynamic Compensation {F13.4}
PND_HYD.PSI                                            :Hydrostatic Sapphire Pressure Without Dynamic Compensation {F13.4}
CP_HYD.PSI                                             :Hydrostatic Sapphire Pressure With Dynamic Compensation {F13.4}
MTEP_QG.DEGC                                           :CQG Manometer Temperature {F13.4}
PTNO_XPT.                                              :XPT Pretest Number {I11}
ETIM_XPT.S                                             :Elapsed Logging Time {F13.4}
PCO_SAP.PSI                                            :Sapphire Dynamic Compensation {F13.4}
PND_SAP.PSI                                            :Sapphire Pressure Without Dynamic Compensation {F13.4}
CP_SAP.PSI                                             :Sapphire Pressure With Dynamic Compensation {F13.4}
QNDP .PSI                                              :CQG Pressure Without Dynamic Compensation {F13.4}
QCP  .PSI                                              :CQG Pressure With Dynamic Compensation {F13.4}
QPCO .PSI                                              :CQG Dynamic Compensation {F13.4}
#-----------------------------------------------------------------------------
# 
#     TIME      TENS_SL      DEPT_SL      PDEP_XPT     MTEP_SAP     MTEP_HYD     PCO_HYD      PND_HYD       CP_HYD      MTEP_QG       PTNO_XPT       ETIM_XPT     PCO_SAP      PND_SAP       CP_SAP        QNDP         QCP          QPCO
#
~A  
# ...
    1647.0    4828.5184 1496483.0000    3799.4575     128.2297     128.6344      -0.1024    6181.9219    6181.8196     129.2672         29     315.1646      -0.1070    5573.2484    5573.1415    5571.9320    5571.4881      -0.4437
    1648.0    4817.3782 1496483.0000    3799.4575     128.2290     128.6323      -0.1034    6181.7632    6181.6597     129.2661         29     316.1646      -0.1108    5573.2371    5573.1263    5571.9306    5571.4867      -0.4441
    1649.0    4800.4816 1496483.0000    3799.4575     128.2257     128.6308      -0.1022    6181.8071    6181.7048     129.2644         29     317.1646      -0.1121    5573.2278    5573.1156    5571.9319    5571.4880      -0.4439
    1650.0    4798.1225 1496483.0000    3799.4575     128.2245     128.6289      -0.0995    6181.8476    6181.7480     129.2632         29     318.1646      -0.1109    5573.3617    5573.2509    5571.9432    5571.4996      -0.4436
    1651.0    4751.2925 1496483.0000    3799.4575     128.2207     128.6274      -0.0970    6181.9183    6181.8215     129.2618         29     319.1646      -0.1082    5573.2697    5573.1616    5571.9540    5571.5102      -0.4438
    1652.0    4766.1891 1496483.0000    3799.4575     128.2200     128.6247      -0.0946    6181.9732    6181.8786     129.2602         29     320.1646      -0.1050    5573.3173    5573.2125    5571.9580    5571.5137      -0.4442
    1653.0    4760.7864 1496483.0000    3799.4575     128.2183     128.6242      -0.0919    6181.9619    6181.8699     129.2588         29     321.1646      -0.1022    5573.3949    5573.2926    5571.9728    5571.5285      -0.4445
    1654.0    4790.3714 1496483.0000    3799.4575     128.2145     128.6225      -0.0895    6181.9605    6181.8710     129.2574         29     322.1646      -0.1008    5573.2920    5573.1914    5571.9770    5571.5318      -0.4451
    1655.0    4844.6462 1496483.0000    3799.4575     128.2144     128.6201      -0.0889    6181.9490    6181.8600     129.2560         29     323.1646      -0.0998    5573.3411    5573.2411    5571.9836    5571.5378      -0.4456
    1656.0    4855.7986 1496483.0000    3799.4575     128.2133     128.6185      -0.0908    6181.9186    6181.8278     129.2547         29     324.1646      -0.0995    5573.3368    5573.2372    5571.9917    5571.5459      -0.4459
    1657.0    4862.7565 1496483.0000    3799.4575     128.2106     128.6179      -0.0931    6181.9116    6181.8184     129.2536         29     325.1646      -0.1005    5573.2876    5573.1871    5571.9952    5571.5494      -0.4457
    1658.0    4815.2994 1496483.0000    3799.4575     128.2086     128.6154      -0.0936    6181.9093    6181.8156     129.2518         29     326.1646      -0.1027    5573.3433    5573.2407    5572.0013    5571.5556      -0.4456
    1659.0    4756.7198 1496483.0000    3799.4575     128.2067     128.6147      -0.0921    6181.9721    6181.8801     129.2507         29     327.1646      -0.1042    5573.3770    5573.2727    5572.0101    5571.5645      -0.4455
    1660.0    4732.0368 1496483.0000    3799.4575     128.2051     128.6112      -0.0909    6181.9547    6181.8638     129.2490         29     328.1646      -0.1043    5573.3061    5573.2021    5572.0158    5571.5705      -0.4452
    1661.0    4724.5728 1496483.0000    3799.4575     128.2036     128.6095      -0.0908    6181.9438    6181.8530     129.2478         29     329.1646      -0.1041    5573.3789    5573.2748    5572.0262    5571.5814      -0.4448
    1662.0    4775.1822 1496483.0000    3799.4575     128.2013     128.6077      -0.0910    6182.0182    6181.9274     129.2463         29     330.1646      -0.1049    5573.2975    5573.1928    5572.0317    5571.5866      -0.4450
    1663.0    4840.9510 1496483.0000    3799.4575     128.1999     128.6082      -0.0916    6182.0502    6181.9585     129.2450         29     331.1646      -0.1058    5573.3505    5573.2445    5572.0342    5571.5884      -0.4458
    1664.0    4862.4816 1496483.0000    3799.4575     128.1981     128.6059      -0.0930    6181.9819    6181.8889     129.2436         29     332.1646      -0.1052    5573.3754    5573.2700    5572.0384    5571.5920      -0.4464
    1665.0    4869.6708 1496483.0000    3799.4575     128.1967     128.6039      -0.0949    6181.9450    6181.8500     129.2422         29     333.1646      -0.1031    5573.4598    5573.3565    5572.0435    5571.5962      -0.4473
    1666.0    4856.1470 1496483.0000    3799.4575     128.1941     128.6019      -0.0953    6181.8668    6181.7715     129.2408         29     334.1646      -0.1012    5573.3338    5573.2327    5572.0525    5571.6048      -0.4478
    1667.0    4787.2749 1496483.0000    3799.4575     128.1907     128.6002      -0.0938    6181.9725    6181.8789     129.2393         29     335.1646      -0.1006    5573.4150    5573.3144    5572.0559    5571.6076      -0.4481
    1668.0    4744.6462 1496483.0000    3799.4575     128.1901     128.5971      -0.0921    6181.9462    6181.8542     129.2381         29     336.1646      -0.1012    5573.3739    5573.2729    5572.0594    5571.6112      -0.4482
    1669.0    4752.3415 1496483.0000    3799.4575     128.1881     128.5973      -0.0909    6181.9355    6181.8447     129.2366         29     337.1646      -0.1022    5573.4202    5573.3181    5572.0677    5571.6194      -0.4483
    1670.0    4750.3170 1496483.0000    3799.4575     128.1855     128.5951      -0.0898    6182.0448    6181.9550     129.2353         29     338.1646      -0.1040    5573.3640    5573.2599    5572.0723    5571.6239      -0.4485
    1671.0    4768.0299 1496483.0000    3799.4575     128.1858     128.5943      -0.0892    6182.1445    6182.0552     129.2340         29     339.1646      -0.1064    5573.4589    5573.3527    5572.0628    5571.6144      -0.4485
    1672.0    4829.9265 1496483.0000    3799.4575     128.1827     128.5928      -0.0899    6182.0679    6181.9781     129.2325         29     340.1646      -0.1077    5573.4067    5573.2989    5572.0651    5571.6164      -0.4487
    1673.0    4855.8844 1496483.0000    3799.4575     128.1809     128.5885      -0.0910    6181.8683    6181.7774     129.2310         29     341.1646      -0.1062    5573.3864    5573.2801    5572.0684    5571.6191      -0.4492
    1674.0    4832.8599 1496483.0000    3799.4575     128.1786     128.5886      -0.0909    6181.9638    6181.8727     129.2296         29     342.1646      -0.1022    5573.4476    5573.3454    5572.0733    5571.6236      -0.4498
    1675.0    4815.5796 1496483.0000    3799.4575     128.1776     128.5874      -0.0899    6181.8911    6181.8012     129.2281         29     343.1646      -0.0986    5573.3651    5573.2665    5572.0736    5571.6234      -0.4500
    1676.0    4780.5306 1496483.0000    3799.4575     128.1745     128.5852      -0.0897    6181.8931    6181.8032     129.2268         29     344.1646      -0.0988    5573.3907    5573.2918    5572.0854    5571.6354      -0.4500
    1677.0    4764.8721 1496483.0000    3799.4575     128.1746     128.5840      -0.0907    6181.9583    6181.8677     129.2254         29     345.1646      -0.1019    5573.5221    5573.4200    5572.0900    5571.6399      -0.4500
    1678.0    4755.9142 1496483.0000    3799.4575     128.1719     128.5831      -0.0918    6181.9848    6181.8931     129.2238         29     346.1646      -0.1051    5573.4193    5573.3139    5572.0989    5571.6488      -0.4502
    1679.0    4798.9020 1496483.0000    3799.4575     128.1705     128.5803      -0.0928    6181.9957    6181.9028     129.2224         29     347.1646      -0.1063    5573.4879    5573.3814    5572.1024    5571.6521      -0.4503
    1680.0    4839.0000 1496483.0000    3799.4575     128.1675     128.5791      -0.0937    6181.9834    6181.8896     129.2212         29     348.1646      -0.1059    5573.4430    5573.3371    5572.1073    5571.6567      -0.4506
    1681.0    4843.6095 1496483.0000    3799.4575     128.1651     128.5775      -0.0935    6181.9334    6181.8401     129.2200         29     349.1646      -0.1051    5573.3950    5573.2900    5572.1103    5571.6591      -0.4510
