~VERSION INFORMATION
VERS.           2.0   :CWLS Log ASCII Standard - VERSION 2.0
WRAP.           NO    :One Line per depth step
PROD.  Schlumberger   :LAS Producer
PROG.  DLIS to ASCII 2.2                               :LAS Program name and version
CREA.        2020/10/30 12:18                          :LAS Creation date {YYYY/MM/DD hh:mm}
SOURCE.     XPT_HRLA_TLD_MCFL_051LTP.DLIS              :DLIS File Name
FILE-ID.     XPT_HRLA_TLD_MCFL_051LTP                  :File Identification Number
#--------------------------------------------------
~WELL INFORMATION
#MNEM.UNIT      DATA             DESCRIPTION
#---- ------ --------------   -----------------------------
STRT .S         3209.0       :START TIME      
STOP .S         3664.0       :STOP TIME      
STEP .S            1.0       :STEP     
NULL .          -999.25      :NULL VALUE
COMP .        Nexus Energy                             :COMPANY
WELL .        Crux-3                                   :WELL
FLD  .        Crux                                     :FIELD
LOC  .        Easting: 656981.7mE                      :LOCATION
CNTY .        Sedco-703                                :COUNTY
STAT .        Northern Territory                       :STATE
CTRY .        Australia                                :COUNTRY
API  .                                                 :API NUMBER
UWI  .                                                 :UNIQUE WELL ID
DATE .        31-Dec-2007                              :LOG DATE {DD-MMM-YYYY}
SRVC .        Schlumberger                             :SERVICE COMPANY
LATI .DEG     12*57'32.63" S                           :LATITUDE
LONG .DEG     124*26'50.07" E                          :LONGITUDE
GDAT .                                                 :GeoDetic Datum
#-----------------------------------------------------------------------------
~PARAMETER INFORMATION
#MNEM.UNIT    VALUE                      DESCRIPTION
#---- -----   --------------------       ------------------------
RUN  .          1                        :RUN NUMBER
PDAT .        LAT                        :Permanent Datum
EPD  .M           0.000000               :Elevation of Permanent Datum above Mean Sea Level
EPD  .M           0.000000               :Elevation of tool zero above Mean Sea Level
LMF  .          DF                       :Logging Measured From (Name of Logging Elevation Reference)
APD  .M          26.400000               :Elevation of Depth Reference (LMF) above Permanent Datum
#-----------------------------------------------------------------------------
~CURVE INFORMATION
#MNEM.UNIT   API CODE                                  DESCRIPTION
#---- -----  --------                                  -----------------------
TIME .S                                                :TIME {F10.1}
TENS_SL.LBF                                            :Cable Tension {F13.4}
DEPT_SL..1IN                                           :Station logging depth {F13.4}
PDEP_XPT.M                                             :XPT Probe Depth {F13.4}
MTEP_SAP.DEGC                                          :Sapphire Gauge Manometer Temperature {F13.4}
MTEP_HYD.DEGC                                          :Hydrostatic Sapphire Gauge Manometer Temperature {F13.4}
PCO_HYD.PSI                                            :Hydrostatic Sapphire Dynamic Compensation {F13.4}
PND_HYD.PSI                                            :Hydrostatic Sapphire Pressure Without Dynamic Compensation {F13.4}
CP_HYD.PSI                                             :Hydrostatic Sapphire Pressure With Dynamic Compensation {F13.4}
MTEP_QG.DEGC                                           :CQG Manometer Temperature {F13.4}
PTNO_XPT.                                              :XPT Pretest Number {I11}
ETIM_XPT.S                                             :Elapsed Logging Time {F13.4}
PCO_SAP.PSI                                            :Sapphire Dynamic Compensation {F13.4}
PND_SAP.PSI                                            :Sapphire Pressure Without Dynamic Compensation {F13.4}
CP_SAP.PSI                                             :Sapphire Pressure With Dynamic Compensation {F13.4}
QNDP .PSI                                              :CQG Pressure Without Dynamic Compensation {F13.4}
QCP  .PSI                                              :CQG Pressure With Dynamic Compensation {F13.4}
QPCO .PSI                                              :CQG Dynamic Compensation {F13.4}
#-----------------------------------------------------------------------------
# 
#     TIME      TENS_SL      DEPT_SL      PDEP_XPT     MTEP_SAP     MTEP_HYD     PCO_HYD      PND_HYD       CP_HYD      MTEP_QG       PTNO_XPT       ETIM_XPT     PCO_SAP      PND_SAP       CP_SAP        QNDP         QCP          QPCO
#
~A  
# ...
    3489.0    4910.9240 1496497.0000    3799.4934     125.2104     125.8188       0.0263    6181.5501    6181.5765     125.5090         16     280.0840       0.0228    5574.9736    5574.9964    5571.8771    5572.1957       0.3186
    3490.0    4927.1320 1496497.0000    3799.4934     125.2103     125.8209       0.0264    6181.5723    6181.5987     125.5102         16     281.0840       0.0238    5574.9999    5575.0238    5571.8905    5572.2074       0.3168
    3491.0    4994.0000 1496497.0000    3799.4934     125.2104     125.8195       0.0252    6181.4460    6181.4712     125.5111         16     282.0840       0.0254    5575.0486    5575.0742    5571.9046    5572.2203       0.3157
    3492.0    4996.4360 1496497.0000    3799.4934     125.2117     125.8217       0.0224    6181.5806    6181.6029     125.5119         16     283.0840       0.0265    5575.0501    5575.0767    5571.9159    5572.2311       0.3152
    3493.0    5026.1920 1496497.0000    3799.4934     125.2114     125.8209       0.0195    6181.5127    6181.5323     125.5131         16     284.0840       0.0265    5574.9598    5574.9862    5571.9251    5572.2405       0.3154
    3494.0    5059.9920 1496497.0000    3799.4934     125.2117     125.8211       0.0179    6181.2916    6181.3097     125.5142         16     285.0840       0.0249    5575.0202    5575.0453    5571.9429    5572.2589       0.3158
    3495.0    5042.9520 1496497.0000    3799.4934     125.2127     125.8217       0.0189    6181.3408    6181.3597     125.5150         16     286.0840       0.0224    5575.0605    5575.0829    5571.9586    5572.2746       0.3161
    3496.0    4973.0520 1496497.0000    3799.4934     125.2144     125.8225       0.0213    6181.4688    6181.4902     125.5161         16     287.0840       0.0208    5575.1526    5575.1736    5571.9714    5572.2873       0.3157
    3497.0    4930.4200 1496497.0000    3799.4934     125.2140     125.8222       0.0230    6181.3801    6181.4030     125.5172         16     288.0840       0.0215    5575.0796    5575.1011    5571.9842    5572.2990       0.3149
    3498.0    4933.4880 1496497.0000    3799.4934     125.2142     125.8227       0.0235    6181.5498    6181.5732     125.5180         16     289.0840       0.0225    5575.0543    5575.0767    5572.0009    5572.3151       0.3142
    3499.0    4917.0000 1496497.0000    3799.4934     125.2133     125.8236       0.0241    6181.6895    6181.7135     125.5190         16     290.0840       0.0220    5575.0312    5575.0532    5572.0131    5572.3271       0.3138
    3500.0    4915.2360 1496497.0000    3799.4934     125.2156     125.8252       0.0250    6181.6439    6181.6688     125.5202         16     291.0840       0.0210    5575.1081    5575.1291    5572.0174    5572.3309       0.3136
    3501.0    4906.8360 1496497.0000    3799.4934     125.2164     125.8235       0.0239    6181.5810    6181.6048     125.5210         16     292.0840       0.0218    5575.1055    5575.1272    5572.0246    5572.3378       0.3133
    3502.0    5025.4200 1496497.0000    3799.4934     125.2166     125.8243       0.0211    6181.4886    6181.5097     125.5219         16     293.0840       0.0247    5575.0882    5575.1130    5572.0291    5572.3421       0.3130
    3503.0    5029.4960 1496497.0000    3799.4934     125.2163     125.8251       0.0200    6181.3799    6181.3999     125.5231         16     294.0840       0.0275    5575.1272    5575.1548    5572.0412    5572.3537       0.3126
    3504.0    5026.7720 1496497.0000    3799.4934     125.2151     125.8258       0.0218    6181.2971    6181.3189     125.5240         16     295.0840       0.0297    5575.0273    5575.0569    5572.0449    5572.3566       0.3116
    3505.0    5058.0080 1496497.0000    3799.4934     125.2155     125.8262       0.0238    6181.2372    6181.2611     125.5252         16     296.0840       0.0323    5575.0485    5575.0806    5572.0556    5572.3657       0.3100
    3506.0    5060.0120 1496497.0000    3799.4934     125.2190     125.8247       0.0239    6181.2553    6181.2793     125.5260         16     297.0840       0.0358    5575.1668    5575.2027    5572.0668    5572.3749       0.3082
    3507.0    4960.4880 1496497.0000    3799.4934     125.2191     125.8270       0.0242    6181.4575    6181.4817     125.5270         16     298.0840       0.0376    5575.1475    5575.1851    5572.0763    5572.3834       0.3072
    3508.0    4939.9680 1496497.0000    3799.4934     125.2199     125.8285       0.0258    6181.5296    6181.5555     125.5281         16     299.0840       0.0356    5575.2581    5575.2938    5572.0814    5572.3885       0.3070
    3509.0    4898.5200 1496497.0000    3799.4934     125.2201     125.8270       0.0260    6181.4860    6181.5119     125.5290         16     300.0840       0.0318    5575.1714    5575.2034    5572.0895    5572.3967       0.3070
    3510.0    4924.9920 1496497.0000    3799.4934     125.2201     125.8281       0.0235    6181.7224    6181.7460     125.5298         16     301.0840       0.0292    5575.1194    5575.1484    5572.0963    5572.4026       0.3064
    3511.0    4919.2080 1496497.0000    3799.4934     125.2215     125.8285       0.0216    6181.6534    6181.6749     125.5313         16     302.0840       0.0285    5575.2534    5575.2817    5572.1073    5572.4125       0.3053
    3512.0    4975.9160 1496497.0000    3799.4934     125.2213     125.8301       0.0224    6181.6843    6181.7069     125.5318         16     303.0840       0.0291    5575.1474    5575.1764    5572.1055    5572.4100       0.3045
    3513.0    4979.6200 1496497.0000    3799.4934     125.2216     125.8290       0.0243    6181.4187    6181.4429     125.5331         16     304.0840       0.0295    5575.1402    5575.1698    5572.1094    5572.4136       0.3043
    3514.0    5032.2680 1496497.0000    3799.4934     125.2222     125.8278       0.0243    6181.3461    6181.3705     125.5336         16     305.0840       0.0303    5575.1372    5575.1675    5572.1160    5572.4197       0.3038
    3515.0    5056.4120 1496497.0000    3799.4934     125.2224     125.8307       0.0240    6181.3652    6181.3891     125.5347         16     306.0840       0.0303    5575.1997    5575.2300    5572.1227    5572.4254       0.3028
    3516.0    5046.4720 1496497.0000    3799.4934     125.2244     125.8311       0.0254    6181.3580    6181.3835     125.5360         16     307.0840       0.0289    5575.1920    5575.2207    5572.1274    5572.4296       0.3021
    3517.0    5000.6920 1496497.0000    3799.4934     125.2241     125.8323       0.0272    6181.3938    6181.4211     125.5370         16     308.0840       0.0256    5575.1273    5575.1528    5572.1402    5572.4420       0.3019
    3518.0    4919.5720 1496497.0000    3799.4934     125.2251     125.8301       0.0268    6181.4850    6181.5117     125.5379         16     309.0840       0.0219    5575.2457    5575.2674    5572.1446    5572.4463       0.3017
    3519.0    4904.2520 1496497.0000    3799.4934     125.2255     125.8316       0.0250    6181.5059    6181.5310     125.5386         16     310.0840       0.0202    5575.0914    5575.1116    5572.1477    5572.4487       0.3010
    3520.0    4908.0920 1496497.0000    3799.4934     125.2246     125.8338       0.0257    6181.5876    6181.6135     125.5395         16     311.0840       0.0217    5575.1920    5575.2135    5572.1520    5572.4523       0.3003
    3521.0    4917.3960 1496497.0000    3799.4934     125.2254     125.8330       0.0290    6181.6073    6181.6364     125.5408         16     312.0840       0.0251    5575.1289    5575.1541    5572.1637    5572.4640       0.3002
    3522.0    4892.9480 1496497.0000    3799.4934     125.2251     125.8346       0.0316    6181.5986    6181.6302     125.5416         16     313.0840       0.0268    5575.2122    5575.2391    5572.1597    5572.4595       0.2999
    3523.0    4942.3840 1496497.0000    3799.4934     125.2249     125.8338       0.0309    6181.4722    6181.5030     125.5424         16     314.0840       0.0257    5575.1915    5575.2174    5572.1646    5572.4639       0.2994
