~VERSION INFORMATION
VERS.           2.0   :CWLS Log ASCII Standard - VERSION 2.0
WRAP.           NO    :One Line per depth step
PROD.  Schlumberger   :LAS Producer
PROG.  DLIS to ASCII 2.2                               :LAS Program name and version
CREA.        2020/10/30 12:18                          :LAS Creation date {YYYY/MM/DD hh:mm}
SOURCE.     XPT_HRLA_TLD_MCFL_066LTP.DLIS              :DLIS File Name
FILE-ID.     XPT_HRLA_TLD_MCFL_066LTP                  :File Identification Number
#--------------------------------------------------
~WELL INFORMATION
#MNEM.UNIT      DATA             DESCRIPTION
#---- ------ --------------   -----------------------------
STRT .S         3575.0       :START TIME      
STOP .S         3949.0       :STOP TIME      
STEP .S            1.0       :STEP     
NULL .          -999.25      :NULL VALUE
COMP .        Nexus Energy                             :COMPANY
WELL .        Crux-3                                   :WELL
FLD  .        Crux                                     :FIELD
LOC  .        Easting: 656981.7mE                      :LOCATION
CNTY .        Sedco-703                                :COUNTY
STAT .        Northern Territory                       :STATE
CTRY .        Australia                                :COUNTRY
API  .                                                 :API NUMBER
UWI  .                                                 :UNIQUE WELL ID
DATE .        31-Dec-2007                              :LOG DATE {DD-MMM-YYYY}
SRVC .        Schlumberger                             :SERVICE COMPANY
LATI .DEG     12*57'32.63" S                           :LATITUDE
LONG .DEG     124*26'50.07" E                          :LONGITUDE
GDAT .                                                 :GeoDetic Datum
#-----------------------------------------------------------------------------
~PARAMETER INFORMATION
#MNEM.UNIT    VALUE                      DESCRIPTION
#---- -----   --------------------       ------------------------
RUN  .          1                        :RUN NUMBER
PDAT .        LAT                        :Permanent Datum
EPD  .M           0.000000               :Elevation of Permanent Datum above Mean Sea Level
EPD  .M           0.000000               :Elevation of tool zero above Mean Sea Level
LMF  .          DF                       :Logging Measured From (Name of Logging Elevation Reference)
APD  .M          26.400000               :Elevation of Depth Reference (LMF) above Permanent Datum
#-----------------------------------------------------------------------------
~CURVE INFORMATION
#MNEM.UNIT   API CODE                                  DESCRIPTION
#---- -----  --------                                  -----------------------
TIME .S                                                :TIME {F10.1}
TENS_SL.LBF                                            :Cable Tension {F13.4}
DEPT_SL..1IN                                           :Station logging depth {F13.4}
PDEP_XPT.M                                             :XPT Probe Depth {F13.4}
MTEP_SAP.DEGC                                          :Sapphire Gauge Manometer Temperature {F13.4}
MTEP_HYD.DEGC                                          :Hydrostatic Sapphire Gauge Manometer Temperature {F13.4}
PCO_HYD.PSI                                            :Hydrostatic Sapphire Dynamic Compensation {F13.4}
PND_HYD.PSI                                            :Hydrostatic Sapphire Pressure Without Dynamic Compensation {F13.4}
CP_HYD.PSI                                             :Hydrostatic Sapphire Pressure With Dynamic Compensation {F13.4}
MTEP_QG.DEGC                                           :CQG Manometer Temperature {F13.4}
PTNO_XPT.                                              :XPT Pretest Number {I11}
ETIM_XPT.S                                             :Elapsed Logging Time {F13.4}
PCO_SAP.PSI                                            :Sapphire Dynamic Compensation {F13.4}
PND_SAP.PSI                                            :Sapphire Pressure Without Dynamic Compensation {F13.4}
CP_SAP.PSI                                             :Sapphire Pressure With Dynamic Compensation {F13.4}
QNDP .PSI                                              :CQG Pressure Without Dynamic Compensation {F13.4}
QCP  .PSI                                              :CQG Pressure With Dynamic Compensation {F13.4}
QPCO .PSI                                              :CQG Dynamic Compensation {F13.4}
#-----------------------------------------------------------------------------
# 
#     TIME      TENS_SL      DEPT_SL      PDEP_XPT     MTEP_SAP     MTEP_HYD     PCO_HYD      PND_HYD       CP_HYD      MTEP_QG       PTNO_XPT       ETIM_XPT     PCO_SAP      PND_SAP       CP_SAP        QNDP         QCP          QPCO
#
~A  
    3575.0    5160.4360 1556924.0000    3952.9780     132.4229     132.9957       0.0000    6423.2904    6423.2904     132.1444         29       0.4710       0.0000    6421.0342    6421.0342    6417.5758    6417.5758       0.0000
    3576.0    5082.5590 1556924.0000    3952.9780     132.4233     132.9957       0.0000    6423.3887    6423.3887     132.1468         29       1.4710       0.0000    6421.1393    6421.1393    6417.7297    6417.7297       0.0000
    3577.0    5049.7100 1556924.0000    3952.9780     132.4241     132.9973       0.0000    6423.7233    6423.7233     132.1487         29       2.4710       0.0000    6421.2996    6421.2996    6417.9057    6417.9057       0.0000
    3578.0    5063.0070 1556924.0000    3952.9780     132.4257     132.9967       0.0000    6423.8842    6423.8842     132.1507         29       3.4710       0.0000    6421.6144    6421.6144    6418.1123    6418.1123       0.0000
    3579.0    5063.9930 1556924.0000    3952.9780     132.4257     132.9988       0.0000    6423.9683    6423.9683     132.1528         29       4.4710       0.0000    6421.7330    6421.7330    6418.2793    6418.2793       0.0000
    3580.0    5086.5570 1556924.0000    3952.9780     132.4261     132.9971       0.0000    6424.1032    6424.1032     132.1551         29       5.4710       0.0000    6421.8557    6421.8557    6418.3938    6418.3938       0.0000
    3581.0    5142.7240 1556924.0000    3952.9780     132.4269     132.9968       0.0165    6424.1054    6424.1221     132.1568         29       6.4710       0.0350    6421.7779    6421.8128    6418.3955    6419.0610       0.6655
    3582.0    5152.3410 1556924.0000    3952.9780     132.4280     132.9988       0.0177    6424.0562    6424.0737     132.1591         29       7.4710       0.0351    6421.7880    6421.8231    6418.3703    6419.0335       0.6631
    3583.0    5137.9420 1556924.0000    3952.9780     132.4272     132.9976       0.0186    6423.9878    6424.0064     132.1609         29       8.4710       0.0351    6421.5543    6421.5894    6418.2214    6418.8820       0.6607
    3584.0    5129.5800 1556924.0000    3952.9780     132.4303     132.9988       0.0186    6423.9685    6423.9871     132.1630         29       9.4710       0.0331    6421.7564    6421.7896    6418.3276    6418.9861       0.6584
    3585.0    5092.6240 1556924.0000    3952.9780     132.4281     132.9993       0.0180    6424.1228    6424.1408     132.1650         29      10.4710       0.0296    6421.9134    6421.9428    6418.4452    6419.1015       0.6562
    3586.0    5045.1020 1556924.0000    3952.9780     132.4306     132.9991       0.0165    6424.2143    6424.2308     132.1669         29      11.4710       0.0271    6421.9224    6421.9497    6418.5578    6419.2115       0.6539
    3587.0    5020.7610 1556924.0000    3952.9780     132.4297     132.9993       0.0132    6424.3112    6424.3244     132.1691         29      12.4710       0.0266    6422.0394    6422.0657    6418.6405    6419.2919       0.6515
    3588.0    5016.0000 1556924.0000    3952.9780     132.4301     132.9996       0.0102    6424.3901    6424.4005     132.1709         29      13.4710       0.0273    6422.1323    6422.1596    6418.7885    6419.4384       0.6500
    3589.0    5005.1670 1556924.0000    3952.9780     132.4304     133.0007       0.0079    6424.5203    6424.5280     132.1729         29      14.4710       0.0285    6422.1156    6422.1441    6418.7535    6419.4009       0.6475
    3590.0    5013.7240 1556924.0000    3952.9780     132.4316     133.0011       0.0064    6424.4785    6424.4849     132.1752         29      15.4710       0.0304    6422.1506    6422.1809    6418.7347    6419.3792       0.6444
    3591.0    5072.7960 1556924.0000    3952.9780     132.4310     133.0002       0.0050    6424.5179    6424.5228     132.1767         29      16.4710       0.0321    6422.2001    6422.2322    6418.7303    6419.3730       0.6427
    3592.0    5140.7890 1556924.0000    3952.9780     132.4331     132.9990       0.0039    6424.4869    6424.4908     132.1789         29      17.4710       0.0337    6422.1367    6422.1704    6418.7469    6419.3891       0.6423
    3593.0    5158.8120 1556924.0000    3952.9780     132.4339     133.0009       0.0060    6424.5371    6424.5431     132.1807         29      18.4710       0.0339    6422.0618    6422.0957    6418.6957    6419.3378       0.6421
    3594.0    5128.9280 1556924.0000    3952.9780     132.4339     133.0004       0.0106    6424.3550    6424.3656     132.1829         29      19.4710       0.0319    6422.0323    6422.0641    6418.6661    6419.3073       0.6411
    3595.0    5103.9930 1556924.0000    3952.9780     132.4351     133.0004       0.0148    6424.3648    6424.3797     132.1849         29      20.4710       0.0288    6422.1350    6422.1636    6418.7260    6419.3654       0.6393
    3596.0    5070.9790 1556924.0000    3952.9780     132.4345     133.0011       0.0166    6424.5610    6424.5776     132.1868         29      21.4710       0.0258    6422.0632    6422.0890    6418.7737    6419.4116       0.6378
    3597.0    5023.2760 1556924.0000    3952.9780     132.4357     133.0004       0.0171    6424.5287    6424.5458     132.1888         29      22.4710       0.0244    6422.1457    6422.1701    6418.8001    6419.4373       0.6371
    3598.0    5008.4780 1556924.0000    3952.9780     132.4359     133.0024       0.0180    6424.5449    6424.5629     132.1909         29      23.4710       0.0237    6422.2553    6422.2792    6418.8910    6419.5266       0.6358
    3599.0    5004.8120 1556924.0000    3952.9780     132.4362     133.0019       0.0185    6424.6084    6424.6270     132.1925         29      24.4710       0.0237    6422.2353    6422.2591    6418.9305    6419.5643       0.6338
    3600.0    4996.1230 1556924.0000    3952.9780     132.4368     133.0019       0.0174    6424.6055    6424.6227     132.1946         29      25.4710       0.0252    6422.3268    6422.3521    6418.9312    6419.5626       0.6316
    3601.0    5033.6150 1556924.0000    3952.9780     132.4373     133.0027       0.0158    6424.5639    6424.5799     132.1965         29      26.4710       0.0285    6422.1934    6422.2220    6418.8941    6419.5244       0.6306
    3602.0    5087.7820 1556924.0000    3952.9780     132.4378     133.0027       0.0154    6424.7383    6424.7537     132.1982         29      27.4710       0.0324    6422.2905    6422.3231    6418.9454    6419.5753       0.6298
    3603.0    5107.1740 1556924.0000    3952.9780     132.4380     133.0048       0.0154    6424.6429    6424.6581     132.2004         29      28.4710       0.0337    6422.2294    6422.2631    6418.8924    6419.5214       0.6289
    3604.0    5108.7100 1556924.0000    3952.9780     132.4391     133.0021       0.0140    6424.5498    6424.5639     132.2024         29      29.4710       0.0339    6422.1565    6422.1906    6418.8246    6419.4519       0.6274
    3605.0    5112.1160 1556924.0000    3952.9780     132.4408     133.0027       0.0117    6424.6167    6424.6283     132.2043         29      30.4710       0.0325    6422.2037    6422.2364    6418.8357    6419.4616       0.6258
    3606.0    5080.3270 1556924.0000    3952.9780     132.4409     133.0042       0.0115    6424.7544    6424.7661     132.2062         29      31.4710       0.0310    6422.2137    6422.2445    6418.7780    6419.4031       0.6248
    3607.0    5038.0510 1556924.0000    3952.9780     132.4400     133.0040       0.0127    6424.6776    6424.6904     132.2083         29      32.4710       0.0280    6422.0773    6422.1054    6418.7959    6419.4192       0.6232
    3608.0    5011.9860 1556924.0000    3952.9780     132.4421     133.0044       0.0134    6424.6961    6424.7093     132.2100         29      33.4710       0.0248    6422.1814    6422.2063    6418.8508    6419.4714       0.6205
    3609.0    4987.8770 1556924.0000    3952.9780     132.4409     133.0038       0.0126    6424.6226    6424.6353     132.2117         29      34.4710       0.0223    6422.3037    6422.3262    6418.9785    6419.5958       0.6174
