~VERSION INFORMATION
VERS.           2.0   :CWLS Log ASCII Standard - VERSION 2.0
WRAP.           NO    :One Line per depth step
PROD.  Schlumberger   :LAS Producer
PROG.  DLIS to ASCII 2.2                               :LAS Program name and version
CREA.        2020/10/30 12:18                          :LAS Creation date {YYYY/MM/DD hh:mm}
SOURCE.     XPT_HRLA_TLD_MCFL_046LTP.DLIS              :DLIS File Name
FILE-ID.     XPT_HRLA_TLD_MCFL_046LTP                  :File Identification Number
#--------------------------------------------------
~WELL INFORMATION
#MNEM.UNIT      DATA             DESCRIPTION
#---- ------ --------------   -----------------------------
STRT .S         4617.0       :START TIME      
STOP .S         5507.0       :STOP TIME      
STEP .S            1.0       :STEP     
NULL .          -999.25      :NULL VALUE
COMP .        Nexus Energy                             :COMPANY
WELL .        Crux-3                                   :WELL
FLD  .        Crux                                     :FIELD
LOC  .        Easting: 656981.7mE                      :LOCATION
CNTY .        Sedco-703                                :COUNTY
STAT .        Northern Territory                       :STATE
CTRY .        Australia                                :COUNTRY
API  .                                                 :API NUMBER
UWI  .                                                 :UNIQUE WELL ID
DATE .        31-Dec-2007                              :LOG DATE {DD-MMM-YYYY}
SRVC .        Schlumberger                             :SERVICE COMPANY
LATI .DEG     12*57'32.63" S                           :LATITUDE
LONG .DEG     124*26'50.07" E                          :LONGITUDE
GDAT .                                                 :GeoDetic Datum
#-----------------------------------------------------------------------------
~PARAMETER INFORMATION
#MNEM.UNIT    VALUE                      DESCRIPTION
#---- -----   --------------------       ------------------------
RUN  .          1                        :RUN NUMBER
PDAT .        LAT                        :Permanent Datum
EPD  .M           0.000000               :Elevation of Permanent Datum above Mean Sea Level
EPD  .M           0.000000               :Elevation of tool zero above Mean Sea Level
LMF  .          DF                       :Logging Measured From (Name of Logging Elevation Reference)
APD  .M          26.400000               :Elevation of Depth Reference (LMF) above Permanent Datum
#-----------------------------------------------------------------------------
~CURVE INFORMATION
#MNEM.UNIT   API CODE                                  DESCRIPTION
#---- -----  --------                                  -----------------------
TIME .S                                                :TIME {F10.1}
TENS_SL.LBF                                            :Cable Tension {F13.4}
DEPT_SL..1IN                                           :Station logging depth {F13.4}
PDEP_XPT.M                                             :XPT Probe Depth {F13.4}
MTEP_SAP.DEGC                                          :Sapphire Gauge Manometer Temperature {F13.4}
MTEP_HYD.DEGC                                          :Hydrostatic Sapphire Gauge Manometer Temperature {F13.4}
PCO_HYD.PSI                                            :Hydrostatic Sapphire Dynamic Compensation {F13.4}
PND_HYD.PSI                                            :Hydrostatic Sapphire Pressure Without Dynamic Compensation {F13.4}
CP_HYD.PSI                                             :Hydrostatic Sapphire Pressure With Dynamic Compensation {F13.4}
MTEP_QG.DEGC                                           :CQG Manometer Temperature {F13.4}
PTNO_XPT.                                              :XPT Pretest Number {I11}
ETIM_XPT.S                                             :Elapsed Logging Time {F13.4}
PCO_SAP.PSI                                            :Sapphire Dynamic Compensation {F13.4}
PND_SAP.PSI                                            :Sapphire Pressure Without Dynamic Compensation {F13.4}
CP_SAP.PSI                                             :Sapphire Pressure With Dynamic Compensation {F13.4}
QNDP .PSI                                              :CQG Pressure Without Dynamic Compensation {F13.4}
QCP  .PSI                                              :CQG Pressure With Dynamic Compensation {F13.4}
QPCO .PSI                                              :CQG Dynamic Compensation {F13.4}
#-----------------------------------------------------------------------------
# 
#     TIME      TENS_SL      DEPT_SL      PDEP_XPT     MTEP_SAP     MTEP_HYD     PCO_HYD      PND_HYD       CP_HYD      MTEP_QG       PTNO_XPT       ETIM_XPT     PCO_SAP      PND_SAP       CP_SAP        QNDP         QCP          QPCO
#
~A  
# ...
    5352.0    4812.1910 1443523.0000    3664.9392     121.9008     122.4760       0.0113    5967.7337    5967.7450     122.5053         10     734.6870      -0.0071    5526.9441    5526.9373    5524.3223    5524.3604       0.0379
    5353.0    4810.0000 1443523.0000    3664.9392     121.9016     122.4748       0.0109    5967.6025    5967.6136     122.5052         10     735.6870      -0.0065    5526.9252    5526.9185    5524.3270    5524.3644       0.0373
    5354.0    4832.6710 1443523.0000    3664.9392     121.8998     122.4757       0.0101    5967.6116    5967.6218     122.5053         10     736.6870      -0.0041    5526.9390    5526.9347    5524.3439    5524.3802       0.0363
    5355.0    4838.1910 1443523.0000    3664.9392     121.9030     122.4777       0.0101    5967.7473    5967.7576     122.5058         10     737.6870      -0.0000    5527.0488    5527.0487    5524.3510    5524.3871       0.0360
    5356.0    4798.9020 1443523.0000    3664.9392     121.9009     122.4767       0.0105    5967.6045    5967.6148     122.5057         10     738.6870       0.0055    5527.0045    5527.0099    5524.3659    5524.4020       0.0362
    5357.0    4751.0850 1443523.0000    3664.9392     121.9011     122.4763       0.0098    5967.6408    5967.6507     122.5057         10     739.6870       0.0102    5527.0427    5527.0529    5524.3763    5524.4129       0.0366
    5358.0    4719.1380 1443523.0000    3664.9392     121.9010     122.4764       0.0079    5967.7382    5967.7460     122.5058         10     740.6870       0.0126    5527.0080    5527.0207    5524.3890    5524.4256       0.0366
    5359.0    4708.2520 1443523.0000    3664.9392     121.9008     122.4761       0.0072    5967.7181    5967.7254     122.5062         10     741.6870       0.0132    5526.9975    5527.0107    5524.4018    5524.4389       0.0370
    5360.0    4733.7930 1443523.0000    3664.9392     121.9029     122.4779       0.0089    5967.7539    5967.7628     122.5060         10     742.6870       0.0132    5527.1298    5527.1430    5524.4129    5524.4500       0.0372
    5361.0    4783.7850 1443523.0000    3664.9392     121.9031     122.4768       0.0111    5967.7812    5967.7924     122.5061         10     743.6870       0.0128    5527.0412    5527.0539    5524.4199    5524.4570       0.0370
    5362.0    4821.6100 1443523.0000    3664.9392     121.9031     122.4766       0.0123    5967.7021    5967.7144     122.5063         10     744.6870       0.0120    5527.0615    5527.0735    5524.4306    5524.4677       0.0370
    5363.0    4821.3820 1443523.0000    3664.9392     121.9034     122.4772       0.0130    5967.6763    5967.6893     122.5064         10     745.6870       0.0117    5527.0343    5527.0460    5524.4410    5524.4786       0.0375
    5364.0    4775.0930 1443523.0000    3664.9392     121.9043     122.4765       0.0146    5967.6796    5967.6942     122.5065         10     746.6870       0.0125    5527.1482    5527.1608    5524.4535    5524.4916       0.0381
    5365.0    4710.6580 1443523.0000    3664.9392     121.9026     122.4786       0.0165    5967.7617    5967.7783     122.5069         10     747.6870       0.0126    5527.1842    5527.1968    5524.4614    5524.4990       0.0377
    5366.0    4702.3660 1443523.0000    3664.9392     121.9036     122.4786       0.0171    5967.7131    5967.7302     122.5069         10     748.6870       0.0109    5527.0871    5527.0980    5524.4697    5524.5063       0.0366
    5367.0    4699.7560 1443523.0000    3664.9392     121.9044     122.4785       0.0161    5967.7610    5967.7772     122.5068         10     749.6870       0.0083    5527.1363    5527.1446    5524.4859    5524.5220       0.0359
    5368.0    4700.1220 1443523.0000    3664.9392     121.9049     122.4794       0.0143    5967.7695    5967.7840     122.5070         10     750.6870       0.0059    5527.1624    5527.1684    5524.4946    5524.5308       0.0360
    5369.0    4778.9440 1443523.0000    3664.9392     121.9040     122.4801       0.0124    5967.8374    5967.8498     122.5071         10     751.6870       0.0043    5527.1051    5527.1095    5524.5008    5524.5369       0.0360
    5370.0    4792.7030 1443523.0000    3664.9392     121.9039     122.4801       0.0105    5967.7189    5967.7296     122.5075         10     752.6870       0.0041    5527.2275    5527.2314    5524.5110    5524.5472       0.0360
    5371.0    4792.6180 1443523.0000    3664.9392     121.9046     122.4801       0.0100    5967.7601    5967.7700     122.5075         10     753.6870       0.0065    5527.1598    5527.1664    5524.5203    5524.5565       0.0365
    5372.0    4815.5490 1443523.0000    3664.9392     121.9039     122.4793       0.0113    5967.5898    5967.6012     122.5077         10     754.6870       0.0111    5527.1721    5527.1833    5524.5270    5524.5646       0.0375
    5373.0    4813.0080 1443523.0000    3664.9392     121.9039     122.4787       0.0133    5967.5830    5967.5962     122.5078         10     755.6870       0.0149    5527.1834    5527.1985    5524.5380    5524.5761       0.0381
    5374.0    4742.7350 1443523.0000    3664.9392     121.9054     122.4800       0.0145    5967.7166    5967.7313     122.5078         10     756.6870       0.0157    5527.2347    5527.2503    5524.5493    5524.5873       0.0380
    5375.0    4710.9390 1443523.0000    3664.9392     121.9055     122.4806       0.0141    5967.7188    5967.7329     122.5078         10     757.6870       0.0132    5527.1565    5527.1698    5524.5563    5524.5942       0.0378
    5376.0    4707.2520 1443523.0000    3664.9392     121.9064     122.4817       0.0122    5967.8139    5967.8261     122.5081         10     758.6870       0.0095    5527.3471    5527.3564    5524.5677    5524.6058       0.0381
    5377.0    4677.1460 1443523.0000    3664.9392     121.9060     122.4814       0.0089    5967.9107    5967.9197     122.5079         10     759.6870       0.0064    5527.2277    5527.2339    5524.5775    5524.6157       0.0383
    5378.0    4667.4350 1443523.0000    3664.9392     121.9057     122.4814       0.0057    5967.8320    5967.8378     122.5082         10     760.6870       0.0051    5527.2438    5527.2489    5524.5878    5524.6264       0.0384
    5379.0    4710.2200 1443523.0000    3664.9392     121.9047     122.4811       0.0049    5967.7906    5967.7954     122.5084         10     761.6870       0.0059    5527.1831    5527.1889    5524.5919    5524.6305       0.0384
    5380.0    4798.3870 1443523.0000    3664.9392     121.9061     122.4809       0.0068    5967.7256    5967.7322     122.5085         10     762.6870       0.0086    5527.2665    5527.2751    5524.6019    5524.6400       0.0382
    5381.0    4834.1220 1443523.0000    3664.9392     121.9051     122.4807       0.0098    5967.6641    5967.6740     122.5088         10     763.6870       0.0116    5527.1788    5527.1906    5524.6105    5524.6482       0.0378
    5382.0    4836.0000 1443523.0000    3664.9392     121.9064     122.4817       0.0122    5967.6355    5967.6477     122.5089         10     764.6870       0.0120    5527.2701    5527.2823    5524.6118    5524.6489       0.0371
    5383.0    4817.4510 1443523.0000    3664.9392     121.9066     122.4826       0.0140    5967.5644    5967.5782     122.5090         10     765.6870       0.0087    5527.2627    5527.2716    5524.6211    5524.6581       0.0369
    5384.0    4805.5650 1443523.0000    3664.9392     121.9066     122.4821       0.0156    5967.6191    5967.6346     122.5088         10     766.6870       0.0039    5527.3003    5527.3043    5524.6336    5524.6707       0.0370
    5385.0    4768.9630 1443523.0000    3664.9392     121.9075     122.4824       0.0164    5967.6245    5967.6411     122.5091         10     767.6870       0.0019    5527.2114    5527.2133    5524.6426    5524.6807       0.0378
    5386.0    4716.5890 1443523.0000    3664.9392     121.9064     122.4824       0.0164    5967.6605    5967.6770     122.5094         10     768.6870       0.0030    5527.2905    5527.2936    5524.6537    5524.6924       0.0389
