~VERSION INFORMATION
VERS.           2.0   :CWLS Log ASCII Standard - VERSION 2.0
WRAP.           NO    :One Line per depth step
PROD.  Schlumberger   :LAS Producer
PROG.  DLIS to ASCII 2.2                               :LAS Program name and version
CREA.        2020/10/30 12:18                          :LAS Creation date {YYYY/MM/DD hh:mm}
SOURCE.     XPT_HRLA_TLD_MCFL_068LTP.DLIS              :DLIS File Name
FILE-ID.     XPT_HRLA_TLD_MCFL_068LTP                  :File Identification Number
#--------------------------------------------------
~WELL INFORMATION
#MNEM.UNIT      DATA             DESCRIPTION
#---- ------ --------------   -----------------------------
STRT .S           82.0       :START TIME      
STOP .S          488.0       :STOP TIME      
STEP .S            1.0       :STEP     
NULL .          -999.25      :NULL VALUE
COMP .        Nexus Energy                             :COMPANY
WELL .        Crux-3                                   :WELL
FLD  .        Crux                                     :FIELD
LOC  .        Easting: 656981.7mE                      :LOCATION
CNTY .        Sedco-703                                :COUNTY
STAT .        Northern Territory                       :STATE
CTRY .        Australia                                :COUNTRY
API  .                                                 :API NUMBER
UWI  .                                                 :UNIQUE WELL ID
DATE .        31-Dec-2007                              :LOG DATE {DD-MMM-YYYY}
SRVC .        Schlumberger                             :SERVICE COMPANY
LATI .DEG     12*57'32.63" S                           :LATITUDE
LONG .DEG     124*26'50.07" E                          :LONGITUDE
GDAT .                                                 :GeoDetic Datum
#-----------------------------------------------------------------------------
~PARAMETER INFORMATION
#MNEM.UNIT    VALUE                      DESCRIPTION
#---- -----   --------------------       ------------------------
RUN  .          1                        :RUN NUMBER
PDAT .        LAT                        :Permanent Datum
EPD  .M           0.000000               :Elevation of Permanent Datum above Mean Sea Level
EPD  .M           0.000000               :Elevation of tool zero above Mean Sea Level
LMF  .          DF                       :Logging Measured From (Name of Logging Elevation Reference)
APD  .M          26.400000               :Elevation of Depth Reference (LMF) above Permanent Datum
#-----------------------------------------------------------------------------
~CURVE INFORMATION
#MNEM.UNIT   API CODE                                  DESCRIPTION
#---- -----  --------                                  -----------------------
TIME .S                                                :TIME {F10.1}
TENS_SL.LBF                                            :Cable Tension {F13.4}
DEPT_SL..1IN                                           :Station logging depth {F13.4}
PDEP_XPT.M                                             :XPT Probe Depth {F13.4}
MTEP_SAP.DEGC                                          :Sapphire Gauge Manometer Temperature {F13.4}
MTEP_HYD.DEGC                                          :Hydrostatic Sapphire Gauge Manometer Temperature {F13.4}
PCO_HYD.PSI                                            :Hydrostatic Sapphire Dynamic Compensation {F13.4}
PND_HYD.PSI                                            :Hydrostatic Sapphire Pressure Without Dynamic Compensation {F13.4}
CP_HYD.PSI                                             :Hydrostatic Sapphire Pressure With Dynamic Compensation {F13.4}
MTEP_QG.DEGC                                           :CQG Manometer Temperature {F13.4}
PTNO_XPT.                                              :XPT Pretest Number {I11}
ETIM_XPT.S                                             :Elapsed Logging Time {F13.4}
PCO_SAP.PSI                                            :Sapphire Dynamic Compensation {F13.4}
PND_SAP.PSI                                            :Sapphire Pressure Without Dynamic Compensation {F13.4}
CP_SAP.PSI                                             :Sapphire Pressure With Dynamic Compensation {F13.4}
QNDP .PSI                                              :CQG Pressure Without Dynamic Compensation {F13.4}
QCP  .PSI                                              :CQG Pressure With Dynamic Compensation {F13.4}
QPCO .PSI                                              :CQG Dynamic Compensation {F13.4}
#-----------------------------------------------------------------------------
# 
#     TIME      TENS_SL      DEPT_SL      PDEP_XPT     MTEP_SAP     MTEP_HYD     PCO_HYD      PND_HYD       CP_HYD      MTEP_QG       PTNO_XPT       ETIM_XPT     PCO_SAP      PND_SAP       CP_SAP        QNDP         QCP          QPCO
#
~A  
# ...
     117.0    4969.3267 1566781.0000    3978.0146     132.7695     133.4073       0.0558    6464.6491    6464.7049     133.1278         31      35.1413       0.0527    6462.0714    6462.1239    6459.3322    6459.6939       0.3616
     118.0    4941.4900 1566781.0000    3978.0146     132.7706     133.4083       0.0574    6464.8361    6464.8935     133.1293         31      36.1413       0.0575    6462.0470    6462.1043    6459.1574    6459.5185       0.3610
     119.0    4922.4107 1566781.0000    3978.0146     132.7696     133.4110       0.0597    6464.6718    6464.7318     133.1303         31      37.1413       0.0603    6461.7846    6461.8450    6459.0639    6459.4248       0.3607
     120.0    5013.9559 1566781.0000    3978.0146     132.7721     133.4097       0.0603    6464.5807    6464.6412     133.1313         31      38.1413       0.0609    6461.7664    6461.8274    6458.9971    6459.3574       0.3605
     121.0    5042.2384 1566781.0000    3978.0146     132.7745     133.4108       0.0600    6464.5812    6464.6413     133.1325         31      39.1413       0.0616    6461.8583    6461.9200    6458.9983    6459.3590       0.3606
     122.0    5072.9448 1566781.0000    3978.0146     132.7760     133.4142       0.0605    6464.4754    6464.5359     133.1336         31      40.1413       0.0625    6461.6021    6461.6646    6458.7604    6459.1209       0.3606
     123.0    5101.0221 1566781.0000    3978.0146     132.7751     133.4133       0.0610    6464.2990    6464.3600     133.1349         31      41.1413       0.0607    6461.5968    6461.6577    6458.7398    6459.1006       0.3608
     124.0    5084.6203 1566781.0000    3978.0146     132.7757     133.4150       0.0600    6464.4487    6464.5086     133.1359         31      42.1413       0.0561    6461.7210    6461.7772    6458.9260    6459.2869       0.3608
     125.0    5044.8608 1566781.0000    3978.0146     132.7793     133.4166       0.0575    6464.4979    6464.5553     133.1368         31      43.1413       0.0533    6461.7585    6461.8118    6458.9314    6459.2918       0.3605
     126.0    4966.1303 1566781.0000    3978.0146     132.7785     133.4170       0.0548    6464.5303    6464.5849     133.1379         31      44.1413       0.0543    6461.8865    6461.9407    6459.0299    6459.3898       0.3600
     127.0    4970.4569 1566781.0000    3978.0146     132.7817     133.4183       0.0539    6464.6051    6464.6590     133.1390         31      45.1413       0.0567    6461.8487    6461.9056    6459.0100    6459.3698       0.3598
     128.0    4952.4569 1566781.0000    3978.0146     132.7793     133.4206       0.0554    6464.6798    6464.7353     133.1401         31      46.1413       0.0575    6461.8149    6461.8725    6459.1176    6459.4779       0.3601
     129.0    4938.2715 1566781.0000    3978.0146     132.7831     133.4208       0.0570    6464.6934    6464.7505     133.1411         31      47.1413       0.0580    6461.9725    6462.0306    6459.1174    6459.4777       0.3604
     130.0    4954.6182 1566781.0000    3978.0146     132.7838     133.4187       0.0560    6464.5817    6464.6376     133.1425         31      48.1413       0.0588    6461.8417    6461.9006    6459.0519    6459.4122       0.3605
     131.0    5014.2053 1566781.0000    3978.0146     132.7845     133.4222       0.0538    6464.6355    6464.6893     133.1436         31      49.1413       0.0585    6461.7405    6461.7991    6459.0215    6459.3823       0.3606
     132.0    5055.0331 1566781.0000    3978.0146     132.7845     133.4246       0.0537    6464.6133    6464.6671     133.1448         31      50.1413       0.0550    6461.8171    6461.8721    6458.9981    6459.3589       0.3608
     133.0    5038.1303 1566781.0000    3978.0146     132.7876     133.4261       0.0554    6464.5688    6464.6243     133.1457         31      51.1413       0.0510    6461.7882    6461.8391    6458.9426    6459.3034       0.3611
     134.0    5040.9028 1566781.0000    3978.0146     132.7886     133.4265       0.0555    6464.5244    6464.5801     133.1470         31      52.1413       0.0493    6461.8582    6461.9075    6458.9550    6459.3158       0.3610
     135.0    5013.1744 1566781.0000    3978.0146     132.7890     133.4255       0.0545    6464.4970    6464.5517     133.1479         31      53.1413       0.0503    6461.7278    6461.7782    6458.9400    6459.3009       0.3607
     136.0    5000.6623 1566781.0000    3978.0146     132.7878     133.4267       0.0560    6464.4960    6464.5521     133.1492         31      54.1413       0.0524    6461.7493    6461.8018    6458.9688    6459.3291       0.3605
     137.0    5033.0972 1566781.0000    3978.0146     132.7898     133.4284       0.0595    6464.5451    6464.6044     133.1502         31      55.1413       0.0538    6461.7857    6461.8394    6458.9899    6459.3503       0.3605
     138.0    5057.5762 1566781.0000    3978.0146     132.7906     133.4293       0.0608    6464.5426    6464.6035     133.1513         31      56.1413       0.0549    6461.7581    6461.8128    6458.9659    6459.3267       0.3607
     139.0    5057.1192 1566781.0000    3978.0146     132.7926     133.4297       0.0578    6464.5793    6464.6369     133.1524         31      57.1413       0.0557    6461.7053    6461.7610    6458.8914    6459.2518       0.3605
     140.0    5070.7064 1566781.0000    3978.0146     132.7935     133.4321       0.0530    6464.4582    6464.5112     133.1533         31      58.1413       0.0562    6461.6360    6461.6922    6458.8858    6459.2457       0.3599
     141.0    5066.8057 1566781.0000    3978.0146     132.7933     133.4329       0.0521    6464.4765    6464.5288     133.1545         31      59.1413       0.0560    6461.7630    6461.8191    6458.9628    6459.3226       0.3598
     142.0    5009.2295 1566781.0000    3978.0146     132.7944     133.4332       0.0535    6464.5381    6464.5915     133.1557         31      60.1413       0.0567    6461.7734    6461.8303    6458.9761    6459.3357       0.3597
     143.0    4959.1744 1566781.0000    3978.0146     132.7970     133.4343       0.0557    6464.5036    6464.5592     133.1566         31      61.1413       0.0607    6461.8073    6461.8680    6458.9560    6459.3149       0.3590
     144.0    4945.9559 1566781.0000    3978.0146     132.7968     133.4346       0.0565    6464.5480    6464.6047     133.1577         31      62.1413       0.0634    6461.8150    6461.8785    6459.0414    6459.3997       0.3581
     145.0    4963.3598 1566781.0000    3978.0146     132.7973     133.4359       0.0574    6464.5862    6464.6436     133.1589         31      63.1413       0.0643    6461.8447    6461.9089    6459.0949    6459.4523       0.3576
     146.0    4925.4018 1566781.0000    3978.0146     132.7995     133.4383       0.0579    6464.5754    6464.6335     133.1600         31      64.1413       0.0615    6461.8116    6461.8729    6459.0336    6459.3915       0.3579
     147.0    4952.0089 1566781.0000    3978.0146     132.8015     133.4391       0.0560    6464.5800    6464.6360     133.1613         31      65.1413       0.0568    6461.8623    6461.9192    6459.0017    6459.3601       0.3584
     148.0    5030.0861 1566781.0000    3978.0146     132.8026     133.4386       0.0513    6464.5512    6464.6025     133.1623         31      66.1413       0.0518    6461.7164    6461.7682    6459.0088    6459.3665       0.3577
     149.0    5061.0000 1566781.0000    3978.0146     132.8015     133.4409       0.0472    6464.5475    6464.5945     133.1633         31      67.1413       0.0474    6461.7067    6461.7543    6458.9882    6459.3448       0.3567
     150.0    5061.2826 1566781.0000    3978.0146     132.8023     133.4410       0.0469    6464.4269    6464.4738     133.1643         31      68.1413       0.0454    6461.6663    6461.7117    6458.8998    6459.2562       0.3563
     151.0    5061.7285 1566781.0000    3978.0146     132.8040     133.4431       0.0491    6464.3891    6464.4381     133.1655         31      69.1413       0.0472    6461.6283    6461.6756    6458.8279    6459.1846       0.3566
