~VERSION INFORMATION
VERS.           2.0   :CWLS Log ASCII Standard - VERSION 2.0
WRAP.           NO    :One Line per depth step
PROD.  Schlumberger   :LAS Producer
PROG.  DLIS to ASCII 2.2                               :LAS Program name and version
CREA.        2020/10/30 12:18                          :LAS Creation date {YYYY/MM/DD hh:mm}
SOURCE.     XPT_HRLA_TLD_MCFL_037LTP.DLIS              :DLIS File Name
FILE-ID.     XPT_HRLA_TLD_MCFL_037LTP                  :File Identification Number
#--------------------------------------------------
~WELL INFORMATION
#MNEM.UNIT      DATA             DESCRIPTION
#---- ------ --------------   -----------------------------
STRT .S        35745.0       :START TIME      
STOP .S        36558.0       :STOP TIME      
STEP .S            1.0       :STEP     
NULL .          -999.25      :NULL VALUE
COMP .        Nexus Energy                             :COMPANY
WELL .        Crux-3                                   :WELL
FLD  .        Crux                                     :FIELD
LOC  .        Easting: 656981.7mE                      :LOCATION
CNTY .        Sedco-703                                :COUNTY
STAT .        Northern Territory                       :STATE
CTRY .        Australia                                :COUNTRY
API  .                                                 :API NUMBER
UWI  .                                                 :UNIQUE WELL ID
DATE .        31-Dec-2007                              :LOG DATE {DD-MMM-YYYY}
SRVC .        Schlumberger                             :SERVICE COMPANY
LATI .DEG     12*57'32.63" S                           :LATITUDE
LONG .DEG     124*26'50.07" E                          :LONGITUDE
GDAT .                                                 :GeoDetic Datum
#-----------------------------------------------------------------------------
~PARAMETER INFORMATION
#MNEM.UNIT    VALUE                      DESCRIPTION
#---- -----   --------------------       ------------------------
RUN  .          1                        :RUN NUMBER
PDAT .        LAT                        :Permanent Datum
EPD  .M           0.000000               :Elevation of Permanent Datum above Mean Sea Level
EPD  .M           0.000000               :Elevation of tool zero above Mean Sea Level
LMF  .          DF                       :Logging Measured From (Name of Logging Elevation Reference)
APD  .M          26.400000               :Elevation of Depth Reference (LMF) above Permanent Datum
#-----------------------------------------------------------------------------
~CURVE INFORMATION
#MNEM.UNIT   API CODE                                  DESCRIPTION
#---- -----  --------                                  -----------------------
TIME .S                                                :TIME {F10.1}
TENS_SL.LBF                                            :Cable Tension {F13.4}
DEPT_SL..1IN                                           :Station logging depth {F13.4}
PDEP_XPT.M                                             :XPT Probe Depth {F13.4}
MTEP_SAP.DEGC                                          :Sapphire Gauge Manometer Temperature {F13.4}
MTEP_HYD.DEGC                                          :Hydrostatic Sapphire Gauge Manometer Temperature {F13.4}
PCO_HYD.PSI                                            :Hydrostatic Sapphire Dynamic Compensation {F13.4}
PND_HYD.PSI                                            :Hydrostatic Sapphire Pressure Without Dynamic Compensation {F13.4}
CP_HYD.PSI                                             :Hydrostatic Sapphire Pressure With Dynamic Compensation {F13.4}
MTEP_QG.DEGC                                           :CQG Manometer Temperature {F13.4}
PTNO_XPT.                                              :XPT Pretest Number {I11}
ETIM_XPT.S                                             :Elapsed Logging Time {F13.4}
PCO_SAP.PSI                                            :Sapphire Dynamic Compensation {F13.4}
PND_SAP.PSI                                            :Sapphire Pressure Without Dynamic Compensation {F13.4}
CP_SAP.PSI                                             :Sapphire Pressure With Dynamic Compensation {F13.4}
QNDP .PSI                                              :CQG Pressure Without Dynamic Compensation {F13.4}
QCP  .PSI                                              :CQG Pressure With Dynamic Compensation {F13.4}
QPCO .PSI                                              :CQG Dynamic Compensation {F13.4}
#-----------------------------------------------------------------------------
# 
#     TIME      TENS_SL      DEPT_SL      PDEP_XPT     MTEP_SAP     MTEP_HYD     PCO_HYD      PND_HYD       CP_HYD      MTEP_QG       PTNO_XPT       ETIM_XPT     PCO_SAP      PND_SAP       CP_SAP        QNDP         QCP          QPCO
#
~A  
# ...
   36410.0    4605.9920 1417595.0000    3599.0823     118.7579     119.3156       0.0094    5862.7059    5862.7152     119.1282          2     664.7480       0.0094    5504.4285    5504.4378    5501.5131    5501.6439       0.1308
   36411.0    4598.0240 1417595.0000    3599.0823     118.7555     119.3165       0.0105    5862.7251    5862.7355     119.1286          2     665.7480       0.0099    5504.4570    5504.4668    5501.5087    5501.6396       0.1310
   36412.0    4577.0480 1417595.0000    3599.0823     118.7580     119.3166       0.0125    5862.7606    5862.7731     119.1291          2     666.7480       0.0100    5504.4647    5504.4747    5501.5122    5501.6428       0.1308
   36413.0    4569.5040 1417595.0000    3599.0823     118.7587     119.3161       0.0138    5862.7121    5862.7257     119.1296          2     667.7480       0.0090    5504.5013    5504.5101    5501.5124    5501.6428       0.1302
   36414.0    4654.2720 1417595.0000    3599.0823     118.7560     119.3164       0.0131    5862.6548    5862.6679     119.1301          2     668.7480       0.0066    5504.5467    5504.5534    5501.5117    5501.6411       0.1295
   36415.0    4676.2680 1417595.0000    3599.0823     118.7582     119.3175       0.0112    5862.7109    5862.7222     119.1303          2     669.7480       0.0057    5504.3629    5504.3685    5501.5120    5501.6411       0.1291
   36416.0    4706.9120 1417595.0000    3599.0823     118.7593     119.3165       0.0091    5862.6074    5862.6163     119.1308          2     670.7480       0.0081    5504.5012    5504.5093    5501.5125    5501.6414       0.1289
   36417.0    4721.7400 1417595.0000    3599.0823     118.7566     119.3187       0.0073    5862.5596    5862.5668     119.1312          2     671.7480       0.0117    5504.4384    5504.4502    5501.5083    5501.6373       0.1291
   36418.0    4714.0240 1417595.0000    3599.0823     118.7580     119.3171       0.0060    5862.4248    5862.4309     119.1315          2     672.7480       0.0139    5504.4350    5504.4489    5501.5156    5501.6450       0.1295
   36419.0    4703.5200 1417595.0000    3599.0823     118.7594     119.3164       0.0058    5862.4714    5862.4773     119.1322          2     673.7480       0.0148    5504.4422    5504.4568    5501.5165    5501.6464       0.1300
   36420.0    4623.2080 1417595.0000    3599.0823     118.7597     119.3187       0.0077    5862.6144    5862.6223     119.1323          2     674.7480       0.0157    5504.4203    5504.4360    5501.5156    5501.6460       0.1304
   36421.0    4597.7480 1417595.0000    3599.0823     118.7612     119.3166       0.0115    5862.6567    5862.6682     119.1327          2     675.7480       0.0160    5504.4788    5504.4946    5501.5151    5501.6455       0.1305
   36422.0    4584.5360 1417595.0000    3599.0823     118.7600     119.3178       0.0154    5862.7246    5862.7401     119.1332          2     676.7480       0.0146    5504.4650    5504.4797    5501.5155    5501.6458       0.1302
   36423.0    4569.5280 1417595.0000    3599.0823     118.7601     119.3166       0.0181    5862.7711    5862.7893     119.1336          2     677.7480       0.0112    5504.4543    5504.4653    5501.5185    5501.6484       0.1298
   36424.0    4578.7160 1417595.0000    3599.0823     118.7606     119.3187       0.0189    5862.7383    5862.7573     119.1343          2     678.7480       0.0076    5504.4581    5504.4656    5501.5180    5501.6474       0.1294
   36425.0    4653.3120 1417595.0000    3599.0823     118.7606     119.3191       0.0188    5862.7262    5862.7448     119.1345          2     679.7480       0.0054    5504.5168    5504.5223    5501.5192    5501.6481       0.1290
   36426.0    4688.9680 1417595.0000    3599.0823     118.7609     119.3181       0.0175    5862.6234    5862.6409     119.1351          2     680.7480       0.0052    5504.4706    5504.4760    5501.5168    5501.6457       0.1288
   36427.0    4681.7800 1417595.0000    3599.0823     118.7603     119.3207       0.0154    5862.6708    5862.6862     119.1354          2     681.7480       0.0052    5504.4712    5504.4766    5501.5116    5501.6398       0.1282
   36428.0    4690.7160 1417595.0000    3599.0823     118.7600     119.3192       0.0115    5862.5918    5862.6033     119.1359          2     682.7480       0.0041    5504.4750    5504.4790    5501.5172    5501.6447       0.1277
   36429.0    4698.7400 1417595.0000    3599.0823     118.7609     119.3199       0.0067    5862.5632    5862.5698     119.1364          2     683.7480       0.0040    5504.3962    5504.4002    5501.5188    5501.6467       0.1277
   36430.0    4622.9560 1417595.0000    3599.0823     118.7621     119.3209       0.0040    5862.6727    5862.6766     119.1369          2     684.7480       0.0058    5504.4726    5504.4785    5501.5205    5501.6484       0.1280
   36431.0    4599.2440 1417595.0000    3599.0823     118.7627     119.3202       0.0051    5862.6697    5862.6749     119.1371          2     685.7480       0.0076    5504.5067    5504.5144    5501.5182    5501.6467       0.1282
   36432.0    4598.5040 1417595.0000    3599.0823     118.7588     119.3202       0.0085    5862.7634    5862.7718     119.1378          2     686.7480       0.0065    5504.4322    5504.4385    5501.5174    5501.6453       0.1279
   36433.0    4582.2920 1417595.0000    3599.0823     118.7618     119.3194       0.0109    5862.7174    5862.7283     119.1381          2     687.7480       0.0049    5504.4987    5504.5036    5501.5171    5501.6451       0.1279
   36434.0    4568.0240 1417595.0000    3599.0823     118.7616     119.3198       0.0126    5862.7174    5862.7300     119.1384          2     688.7480       0.0058    5504.4934    5504.4992    5501.5185    5501.6465       0.1281
   36435.0    4641.2960 1417595.0000    3599.0823     118.7619     119.3214       0.0152    5862.6721    5862.6874     119.1389          2     689.7480       0.0077    5504.4105    5504.4183    5501.5150    5501.6430       0.1280
   36436.0    4677.4720 1417595.0000    3599.0823     118.7599     119.3214       0.0179    5862.6677    5862.6855     119.1392          2     690.7480       0.0080    5504.4131    5504.4209    5501.5164    5501.6439       0.1275
   36437.0    4715.4080 1417595.0000    3599.0823     118.7614     119.3223       0.0182    5862.6573    5862.6754     119.1396          2     691.7480       0.0075    5504.4936    5504.5009    5501.5141    5501.6410       0.1270
   36438.0    4727.7480 1417595.0000    3599.0823     118.7624     119.3205       0.0157    5862.4598    5862.4758     119.1402          2     692.7480       0.0087    5504.4491    5504.4579    5501.5158    5501.6428       0.1270
   36439.0    4717.5280 1417595.0000    3599.0823     118.7627     119.3224       0.0135    5862.4802    5862.4937     119.1405          2     693.7480       0.0113    5504.4767    5504.4880    5501.5183    5501.6457       0.1276
   36440.0    4672.1120 1417595.0000    3599.0823     118.7626     119.3229       0.0126    5862.5447    5862.5574     119.1412          2     694.7480       0.0137    5504.4411    5504.4547    5501.5217    5501.6495       0.1277
   36441.0    4621.3480 1417595.0000    3599.0823     118.7627     119.3217       0.0112    5862.4722    5862.4833     119.1413          2     695.7480       0.0157    5504.4920    5504.5077    5501.5172    5501.6442       0.1271
   36442.0    4595.5360 1417595.0000    3599.0823     118.7624     119.3232       0.0084    5862.6261    5862.6344     119.1420          2     696.7480       0.0162    5504.4410    5504.4571    5501.5173    5501.6438       0.1265
   36443.0    4596.2360 1417595.0000    3599.0823     118.7616     119.3232       0.0065    5862.6665    5862.6729     119.1423          2     697.7480       0.0145    5504.3936    5504.4080    5501.5211    5501.6471       0.1261
   36444.0    4584.5360 1417595.0000    3599.0823     118.7630     119.3224       0.0071    5862.6587    5862.6657     119.1425          2     698.7480       0.0122    5504.5144    5504.5265    5501.5227    5501.6486       0.1258
