~VERSION INFORMATION
VERS.           2.0   :CWLS Log ASCII Standard - VERSION 2.0
WRAP.           NO    :One Line per depth step
PROD.  Schlumberger   :LAS Producer
PROG.  DLIS to ASCII 2.2                               :LAS Program name and version
CREA.        2020/10/30 12:18                          :LAS Creation date {YYYY/MM/DD hh:mm}
SOURCE.     XPT_HRLA_TLD_MCFL_051LTP.DLIS              :DLIS File Name
FILE-ID.     XPT_HRLA_TLD_MCFL_051LTP                  :File Identification Number
#--------------------------------------------------
~WELL INFORMATION
#MNEM.UNIT      DATA             DESCRIPTION
#---- ------ --------------   -----------------------------
STRT .S         3209.0       :START TIME      
STOP .S         3664.0       :STOP TIME      
STEP .S            1.0       :STEP     
NULL .          -999.25      :NULL VALUE
COMP .        Nexus Energy                             :COMPANY
WELL .        Crux-3                                   :WELL
FLD  .        Crux                                     :FIELD
LOC  .        Easting: 656981.7mE                      :LOCATION
CNTY .        Sedco-703                                :COUNTY
STAT .        Northern Territory                       :STATE
CTRY .        Australia                                :COUNTRY
API  .                                                 :API NUMBER
UWI  .                                                 :UNIQUE WELL ID
DATE .        31-Dec-2007                              :LOG DATE {DD-MMM-YYYY}
SRVC .        Schlumberger                             :SERVICE COMPANY
LATI .DEG     12*57'32.63" S                           :LATITUDE
LONG .DEG     124*26'50.07" E                          :LONGITUDE
GDAT .                                                 :GeoDetic Datum
#-----------------------------------------------------------------------------
~PARAMETER INFORMATION
#MNEM.UNIT    VALUE                      DESCRIPTION
#---- -----   --------------------       ------------------------
RUN  .          1                        :RUN NUMBER
PDAT .        LAT                        :Permanent Datum
EPD  .M           0.000000               :Elevation of Permanent Datum above Mean Sea Level
EPD  .M           0.000000               :Elevation of tool zero above Mean Sea Level
LMF  .          DF                       :Logging Measured From (Name of Logging Elevation Reference)
APD  .M          26.400000               :Elevation of Depth Reference (LMF) above Permanent Datum
#-----------------------------------------------------------------------------
~CURVE INFORMATION
#MNEM.UNIT   API CODE                                  DESCRIPTION
#---- -----  --------                                  -----------------------
TIME .S                                                :TIME {F10.1}
TENS_SL.LBF                                            :Cable Tension {F13.4}
DEPT_SL..1IN                                           :Station logging depth {F13.4}
PDEP_XPT.M                                             :XPT Probe Depth {F13.4}
MTEP_SAP.DEGC                                          :Sapphire Gauge Manometer Temperature {F13.4}
MTEP_HYD.DEGC                                          :Hydrostatic Sapphire Gauge Manometer Temperature {F13.4}
PCO_HYD.PSI                                            :Hydrostatic Sapphire Dynamic Compensation {F13.4}
PND_HYD.PSI                                            :Hydrostatic Sapphire Pressure Without Dynamic Compensation {F13.4}
CP_HYD.PSI                                             :Hydrostatic Sapphire Pressure With Dynamic Compensation {F13.4}
MTEP_QG.DEGC                                           :CQG Manometer Temperature {F13.4}
PTNO_XPT.                                              :XPT Pretest Number {I11}
ETIM_XPT.S                                             :Elapsed Logging Time {F13.4}
PCO_SAP.PSI                                            :Sapphire Dynamic Compensation {F13.4}
PND_SAP.PSI                                            :Sapphire Pressure Without Dynamic Compensation {F13.4}
CP_SAP.PSI                                             :Sapphire Pressure With Dynamic Compensation {F13.4}
QNDP .PSI                                              :CQG Pressure Without Dynamic Compensation {F13.4}
QCP  .PSI                                              :CQG Pressure With Dynamic Compensation {F13.4}
QPCO .PSI                                              :CQG Dynamic Compensation {F13.4}
#-----------------------------------------------------------------------------
# 
#     TIME      TENS_SL      DEPT_SL      PDEP_XPT     MTEP_SAP     MTEP_HYD     PCO_HYD      PND_HYD       CP_HYD      MTEP_QG       PTNO_XPT       ETIM_XPT     PCO_SAP      PND_SAP       CP_SAP        QNDP         QCP          QPCO
#
~A  
# ...
    3244.0    4938.5360 1496497.0000    3799.4934     125.0533     125.6822       0.0390    6181.6641    6181.7032     125.2597         14      35.0840       0.0587    6179.9135    6179.9721    6176.6574    6177.0754       0.4179
    3245.0    4988.8400 1496497.0000    3799.4934     125.0565     125.6829       0.0374    6181.6297    6181.6671     125.2608         14      36.0840       0.0605    6180.0606    6180.1211    6176.6331    6177.0495       0.4166
    3246.0    5001.7800 1496497.0000    3799.4934     125.0564     125.6821       0.0356    6181.5786    6181.6144     125.2622         14      37.0840       0.0603    6179.9941    6180.0544    6176.6177    6177.0329       0.4151
    3247.0    5045.4360 1496497.0000    3799.4934     125.0571     125.6836       0.0351    6181.5338    6181.5690     125.2635         14      38.0840       0.0579    6180.0578    6180.1160    6176.5682    6176.9823       0.4141
    3248.0    5071.4120 1496497.0000    3799.4934     125.0591     125.6852       0.0371    6181.5722    6181.6091     125.2648         14      39.0840       0.0549    6179.9499    6180.0048    6176.5595    6176.9729       0.4133
    3249.0    5066.0920 1496497.0000    3799.4934     125.0603     125.6863       0.0401    6181.5030    6181.5431     125.2660         14      40.0840       0.0529    6179.8734    6179.9263    6176.5043    6176.9169       0.4126
    3250.0    5076.9080 1496497.0000    3799.4934     125.0600     125.6859       0.0411    6181.4385    6181.4795     125.2677         14      41.0840       0.0523    6179.7714    6179.8236    6176.4752    6176.8873       0.4121
    3251.0    5059.7920 1496497.0000    3799.4934     125.0632     125.6851       0.0399    6181.3706    6181.4105     125.2687         14      42.0840       0.0515    6180.0631    6180.1147    6176.5342    6176.9463       0.4122
    3252.0    4999.7240 1496497.0000    3799.4934     125.0631     125.6872       0.0398    6181.4009    6181.4407     125.2700         14      43.0840       0.0500    6179.8907    6179.9407    6176.5308    6176.9429       0.4121
    3253.0    4962.8240 1496497.0000    3799.4934     125.0630     125.6889       0.0418    6181.4776    6181.5195     125.2716         14      44.0840       0.0485    6179.9164    6179.9648    6176.5365    6176.9476       0.4114
    3254.0    4950.2520 1496497.0000    3799.4934     125.0643     125.6883       0.0442    6181.5846    6181.6287     125.2727         14      45.0840       0.0481    6179.9705    6180.0185    6176.5843    6176.9943       0.4100
    3255.0    4957.0320 1496497.0000    3799.4934     125.0655     125.6903       0.0448    6181.5010    6181.5459     125.2740         14      46.0840       0.0483    6179.9521    6180.0004    6176.5763    6176.9847       0.4085
    3256.0    5006.2920 1496497.0000    3799.4934     125.0659     125.6912       0.0442    6181.5536    6181.5981     125.2751         14      47.0840       0.0473    6179.9752    6180.0226    6176.5858    6176.9931       0.4072
    3257.0    5062.3200 1496497.0000    3799.4934     125.0668     125.6908       0.0435    6181.5513    6181.5947     125.2764         14      48.0840       0.0425    6179.9956    6180.0380    6176.5690    6176.9715       0.4024
    3258.0    5044.4200 1496497.0000    3799.4934     125.0697     125.6924       0.0431    6181.5325    6181.5755     125.2778         14      49.0840       0.0318    6179.9087    6179.9406    6176.5201    6176.9078       0.3876
    3259.0    5048.5800 1496497.0000    3799.4934     125.0692     125.6913       0.0424    6181.4978    6181.5403     125.2790         14      50.0840       0.0153    6179.8001    6179.8155    6176.4978    6176.8596       0.3618
    3260.0    5038.7920 1496497.0000    3799.4934     125.0697     125.6955       0.0411    6181.5410    6181.5819     125.2806         14      51.0840      -0.0032    6179.8648    6179.8614    6176.5031    6176.8352       0.3320
    3261.0    4980.1520 1496497.0000    3799.4934     125.0699     125.6941       0.0397    6181.5268    6181.5666     125.2817         14      52.0840      -0.0171    6179.9147    6179.8978    6176.5570    6176.8621       0.3052
    3262.0    4957.5640 1496497.0000    3799.4934     125.0697     125.6935       0.0390    6181.5200    6181.5591     125.2825         14      53.0840      -0.0230    6179.4727    6179.4498    6157.1167    6157.3978       0.2810
    3263.0    4934.6960 1496497.0000    3799.4934     125.0652     125.6973       0.0393    6181.6807    6181.7197     125.2825         14      54.0840      -0.0214    6143.0454    6143.0238    6136.8218    6137.0775       0.2559
    3264.0    4971.8920 1496497.0000    3799.4934     125.0657     125.6950       0.0388    6181.6563    6181.6950     125.2837         14      55.0840      -0.0145    6138.2661    6138.2518    6134.8340    6135.0660       0.2321
    3265.0    4943.6280 1496497.0000    3799.4934     125.0655     125.6981       0.0370    6181.6289    6181.6660     125.2849         14      56.0840      -0.0046    6135.9927    6135.9881    6131.8224    6132.0360       0.2135
    3266.0    5010.1240 1496497.0000    3799.4934     125.0669     125.6981       0.0355    6181.6289    6181.6644     125.2855         14      57.0840       0.0053    6133.3750    6133.3802    6129.7937    6129.9928       0.1990
    3267.0    5066.4200 1496497.0000    3799.4934     125.0680     125.6988       0.0347    6181.6367    6181.6714     125.2860         14      58.0840       0.0138    6127.8252    6127.8390    6124.8584    6125.0438       0.1853
    3268.0    5069.9080 1496497.0000    3799.4934     125.0674     125.6994       0.0338    6181.5979    6181.6316     125.2864         14      59.0840       0.0186    6114.2807    6114.2991    6111.0930    6111.2728       0.1797
    3269.0    5055.5640 1496497.0000    3799.4934     125.0671     125.6994       0.0324    6181.4756    6181.5078     125.2869         14      60.0840       0.0264    6105.1468    6105.1732    6102.4435    6102.6265       0.1828
    3270.0    5028.5800 1496497.0000    3799.4934     125.0670     125.7002       0.0334    6181.6040    6181.6376     125.2871         14      61.0840       0.0425    6094.7119    6094.7545    6092.0212    6092.2230       0.2016
    3271.0    5019.8000 1496497.0000    3799.4934     125.0678     125.7013       0.0365    6181.5810    6181.6175     125.2881         14      62.0840       0.0570    6095.8824    6095.9392    6093.1065    6093.3273       0.2208
    3272.0    4967.8680 1496497.0000    3799.4934     125.0686     125.7017       0.0406    6181.6201    6181.6609     125.2887         14      63.0840       0.0750    6097.5614    6097.6365    6094.6230    6094.8708       0.2478
    3273.0    4906.8800 1496497.0000    3799.4934     125.0712     125.7011       0.0430    6181.5771    6181.6198     125.2896         14      64.0840       0.0881    6098.8144    6098.9024    6095.7730    6096.0458       0.2728
    3274.0    4969.7400 1496497.0000    3799.4934     125.0753     125.7032       0.0438    6181.6931    6181.7371     125.2904         14      65.0840       0.0935    6100.0301    6100.1233    6096.7764    6097.0677       0.2913
    3275.0    4957.0080 1496497.0000    3799.4934     125.0769     125.7052       0.0443    6181.7486    6181.7929     125.2915         14      66.0840       0.0892    6100.3536    6100.4426    6097.1271    6097.4272       0.3002
    3276.0    4966.4880 1496497.0000    3799.4934     125.0774     125.7045       0.0431    6181.7930    6181.8361     125.2926         14      67.0840       0.0751    6100.8672    6100.9423    6097.6764    6097.9750       0.2986
    3277.0    4952.1000 1496497.0000    3799.4934     125.0803     125.7062       0.0405    6181.7318    6181.7723     125.2938         14      68.0840       0.0535    6101.7640    6101.8176    6098.4875    6098.7739       0.2862
    3278.0    4978.6120 1496497.0000    3799.4934     125.0807     125.7053       0.0385    6181.5672    6181.6057     125.2946         14      69.0840       0.0290    6102.2565    6102.2856    6098.9025    6099.1669       0.2645
