~VERSION INFORMATION
VERS.           2.0   :CWLS Log ASCII Standard - VERSION 2.0
WRAP.           NO    :One Line per depth step
PROD.  Schlumberger   :LAS Producer
PROG.  DLIS to ASCII 2.2                               :LAS Program name and version
CREA.        2020/10/30 12:18                          :LAS Creation date {YYYY/MM/DD hh:mm}
SOURCE.     XPT_HRLA_TLD_MCFL_069LTP.DLIS              :DLIS File Name
FILE-ID.     XPT_HRLA_TLD_MCFL_069LTP                  :File Identification Number
#--------------------------------------------------
~WELL INFORMATION
#MNEM.UNIT      DATA             DESCRIPTION
#---- ------ --------------   -----------------------------
STRT .S         1113.0       :START TIME      
STOP .S         1454.0       :STOP TIME      
STEP .S            1.0       :STEP     
NULL .          -999.25      :NULL VALUE
COMP .        Nexus Energy                             :COMPANY
WELL .        Crux-3                                   :WELL
FLD  .        Crux                                     :FIELD
LOC  .        Easting: 656981.7mE                      :LOCATION
CNTY .        Sedco-703                                :COUNTY
STAT .        Northern Territory                       :STATE
CTRY .        Australia                                :COUNTRY
API  .                                                 :API NUMBER
UWI  .                                                 :UNIQUE WELL ID
DATE .        31-Dec-2007                              :LOG DATE {DD-MMM-YYYY}
SRVC .        Schlumberger                             :SERVICE COMPANY
LATI .DEG     12*57'32.63" S                           :LATITUDE
LONG .DEG     124*26'50.07" E                          :LONGITUDE
GDAT .                                                 :GeoDetic Datum
#-----------------------------------------------------------------------------
~PARAMETER INFORMATION
#MNEM.UNIT    VALUE                      DESCRIPTION
#---- -----   --------------------       ------------------------
RUN  .          1                        :RUN NUMBER
PDAT .        LAT                        :Permanent Datum
EPD  .M           0.000000               :Elevation of Permanent Datum above Mean Sea Level
EPD  .M           0.000000               :Elevation of tool zero above Mean Sea Level
LMF  .          DF                       :Logging Measured From (Name of Logging Elevation Reference)
APD  .M          26.400000               :Elevation of Depth Reference (LMF) above Permanent Datum
#-----------------------------------------------------------------------------
~CURVE INFORMATION
#MNEM.UNIT   API CODE                                  DESCRIPTION
#---- -----  --------                                  -----------------------
TIME .S                                                :TIME {F10.1}
TENS_SL.LBF                                            :Cable Tension {F13.4}
DEPT_SL..1IN                                           :Station logging depth {F13.4}
PDEP_XPT.M                                             :XPT Probe Depth {F13.4}
MTEP_SAP.DEGC                                          :Sapphire Gauge Manometer Temperature {F13.4}
MTEP_HYD.DEGC                                          :Hydrostatic Sapphire Gauge Manometer Temperature {F13.4}
PCO_HYD.PSI                                            :Hydrostatic Sapphire Dynamic Compensation {F13.4}
PND_HYD.PSI                                            :Hydrostatic Sapphire Pressure Without Dynamic Compensation {F13.4}
CP_HYD.PSI                                             :Hydrostatic Sapphire Pressure With Dynamic Compensation {F13.4}
MTEP_QG.DEGC                                           :CQG Manometer Temperature {F13.4}
PTNO_XPT.                                              :XPT Pretest Number {I11}
ETIM_XPT.S                                             :Elapsed Logging Time {F13.4}
PCO_SAP.PSI                                            :Sapphire Dynamic Compensation {F13.4}
PND_SAP.PSI                                            :Sapphire Pressure Without Dynamic Compensation {F13.4}
CP_SAP.PSI                                             :Sapphire Pressure With Dynamic Compensation {F13.4}
QNDP .PSI                                              :CQG Pressure Without Dynamic Compensation {F13.4}
QCP  .PSI                                              :CQG Pressure With Dynamic Compensation {F13.4}
QPCO .PSI                                              :CQG Dynamic Compensation {F13.4}
#-----------------------------------------------------------------------------
# 
#     TIME      TENS_SL      DEPT_SL      PDEP_XPT     MTEP_SAP     MTEP_HYD     PCO_HYD      PND_HYD       CP_HYD      MTEP_QG       PTNO_XPT       ETIM_XPT     PCO_SAP      PND_SAP       CP_SAP        QNDP         QCP          QPCO
#
~A  
# ...
    1393.0    5022.2024 1534897.0000    3897.0293     132.5624     132.7889      -0.1315    6336.0772    6335.9458     133.3549         35     279.8951      -0.2176    6333.3756    6333.1578    6330.8609    6330.6473      -0.2136
    1394.0    4968.9779 1534897.0000    3897.0293     132.5577     132.7863      -0.1278    6336.0094    6335.8815     133.3543         35     280.8951      -0.2683    6333.0591    6332.7910    6330.8595    6330.6147      -0.2450
    1395.0    4910.1876 1534897.0000    3897.0293     132.5511     132.7836      -0.1242    6336.1138    6335.9896     133.3537         35     281.8951      -0.2796    6333.8309    6333.5513    6331.9620    6331.6912      -0.2710
    1396.0    4888.7829 1534897.0000    3897.0293     132.5470     132.7817      -0.1225    6336.1528    6336.0303     133.3529         35     282.8951      -0.2776    6333.7680    6333.4906    6332.0358    6331.7245      -0.3112
    1397.0    4869.9926 1534897.0000    3897.0293     132.5416     132.7797      -0.1223    6336.2618    6336.1394     133.3518         35     283.8951      -0.2695    6333.6859    6333.4164    6332.1485    6331.7899      -0.3585
    1398.0    4888.5879 1534897.0000    3897.0293     132.5364     132.7775      -0.1221    6336.1983    6336.0762     133.3505         35     284.8951      -0.2584    6333.5537    6333.2952    6332.2127    6331.8052      -0.4077
    1399.0    4925.9099 1534897.0000    3897.0293     132.5320     132.7756      -0.1223    6336.2379    6336.1159     133.3494         35     285.8951      -0.2458    6333.4992    6333.2535    6332.2560    6331.8007      -0.4553
    1400.0    4946.1123 1534897.0000    3897.0293     132.5276     132.7718      -0.1231    6336.2588    6336.1356     133.3480         35     286.8951      -0.2345    6333.3558    6333.1213    6332.2350    6331.7359      -0.4990
    1401.0    4922.9365 1534897.0000    3897.0293     132.5244     132.7706      -0.1240    6336.2181    6336.0941     133.3461         35     287.8951      -0.2246    6333.3012    6333.0766    6332.1977    6331.6591      -0.5385
    1402.0    4890.4609 1534897.0000    3897.0293     132.5196     132.7680      -0.1251    6336.1566    6336.0316     133.3445         35     288.8951      -0.2151    6333.2595    6333.0446    6332.2827    6331.7086      -0.5741
    1403.0    4874.4682 1534897.0000    3897.0293     132.5171     132.7664      -0.1265    6336.1411    6336.0145     133.3425         35     289.8951      -0.2053    6333.3848    6333.1796    6332.2603    6331.6545      -0.6059
    1404.0    4870.3146 1534897.0000    3897.0293     132.5115     132.7642      -0.1275    6336.2311    6336.1037     133.3407         35     290.8951      -0.1958    6333.2354    6333.0398    6332.2882    6331.6550      -0.6333
    1405.0    4920.1270 1534897.0000    3897.0293     132.5094     132.7619      -0.1267    6336.0929    6335.9664     133.3389         35     291.8951      -0.1879    6333.1863    6332.9983    6332.3075    6331.6509      -0.6566
    1406.0    4976.1270 1534897.0000    3897.0293     132.5061     132.7580      -0.1249    6336.1205    6335.9957     133.3366         35     292.8951      -0.1822    6333.2365    6333.0544    6332.3662    6331.6897      -0.6766
    1407.0    5026.7563 1534897.0000    3897.0293     132.5034     132.7568      -0.1237    6336.1595    6336.0358     133.3347         35     293.8951      -0.1784    6333.1431    6332.9647    6332.2752    6331.5811      -0.6941
    1408.0    5035.5805 1534897.0000    3897.0293     132.4979     132.7535      -0.1228    6336.0642    6335.9411     133.3326         35     294.8951      -0.1760    6333.0135    6332.8378    6332.2424    6331.5335      -0.7089
    1409.0    5018.9926 1534897.0000    3897.0293     132.4971     132.7533      -0.1209    6336.1406    6336.0197     133.3304         35     295.8951      -0.1739    6333.0324    6332.8584    6332.2725    6331.5517      -0.7210
    1410.0    4999.9926 1534897.0000    3897.0293     132.4915     132.7510      -0.1185    6336.1573    6336.0390     133.3281         35     296.8951      -0.1710    6333.0120    6332.8412    6332.2663    6331.5357      -0.7305
    1411.0    4943.3974 1534897.0000    3897.0293     132.4892     132.7467      -0.1185    6336.1117    6335.9930     133.3260         35     297.8951      -0.1677    6333.1366    6332.9691    6332.2926    6331.5544      -0.7382
    1412.0    4891.3486 1534897.0000    3897.0293     132.4860     132.7448      -0.1206    6336.1527    6336.0320     133.3235         35     298.8951      -0.1641    6333.1440    6332.9799    6332.3333    6331.5892      -0.7439
    1413.0    4866.3072 1534897.0000    3897.0293     132.4831     132.7436      -0.1223    6336.2002    6336.0778     133.3212         35     299.8951      -0.1598    6333.2231    6333.0634    6332.3711    6331.6233      -0.7476
    1414.0    4872.0561 1534897.0000    3897.0293     132.4824     132.7421      -0.1228    6336.3052    6336.1826     133.3194         35     300.8951      -0.1553    6333.1928    6333.0375    6332.3722    6331.6227      -0.7496
    1415.0    4873.0000 1534897.0000    3897.0293     132.4777     132.7401      -0.1240    6336.2229    6336.0987     133.3166         35     301.8951      -0.1516    6333.1777    6333.0262    6332.4113    6331.6602      -0.7511
    1416.0    4913.2806 1534897.0000    3897.0293     132.4754     132.7365      -0.1263    6336.1456    6336.0193     133.3143         35     302.8951      -0.1491    6333.1213    6332.9722    6332.3515    6331.5987      -0.7528
    1417.0    4952.9099 1534897.0000    3897.0293     132.4738     132.7344      -0.1271    6336.1931    6336.0661     133.3123         35     303.8951      -0.1472    6333.0193    6332.8724    6332.3285    6331.5741      -0.7545
    1418.0    4968.6366 1534897.0000    3897.0293     132.4700     132.7337      -0.1254    6336.2384    6336.1130     133.3099         35     304.8951      -0.1453    6332.9887    6332.8433    6332.2697    6331.5140      -0.7557
    1419.0    4976.2659 1534897.0000    3897.0293     132.4672     132.7288      -0.1229    6336.1370    6336.0142     133.3076         35     305.8951      -0.1441    6332.9896    6332.8454    6332.3046    6331.5480      -0.7567
    1420.0    4975.2098 1534897.0000    3897.0293     132.4641     132.7280      -0.1219    6336.2143    6336.0922     133.3052         35     306.8951      -0.1438    6333.1336    6332.9900    6332.3038    6331.5465      -0.7574
    1421.0    4983.0561 1534897.0000    3897.0293     132.4613     132.7258      -0.1217    6336.1316    6336.0101     133.3028         35     307.8951      -0.1442    6333.0474    6332.9032    6332.2802    6331.5228      -0.7573
    1422.0    5010.8538 1534897.0000    3897.0293     132.4598     132.7233      -0.1222    6336.1438    6336.0218     133.3009         35     308.8951      -0.1448    6333.0912    6332.9464    6332.2925    6331.5361      -0.7562
    1423.0    5022.0561 1534897.0000    3897.0293     132.4569     132.7223      -0.1236    6336.2150    6336.0915     133.2982         35     309.8951      -0.1446    6333.0330    6332.8884    6332.2793    6331.5244      -0.7547
    1424.0    5016.7341 1534897.0000    3897.0293     132.4547     132.7190      -0.1250    6336.1588    6336.0338     133.2961         35     310.8951      -0.1444    6332.9925    6332.8482    6332.2473    6331.4942      -0.7530
    1425.0    4966.7681 1534897.0000    3897.0293     132.4517     132.7167      -0.1252    6336.1127    6335.9875     133.2938         35     311.8951      -0.1438    6333.0238    6332.8801    6332.2192    6331.4675      -0.7515
    1426.0    4907.2925 1534897.0000    3897.0293     132.4487     132.7154      -0.1231    6336.1423    6336.0193     133.2915         35     312.8951      -0.1427    6332.9822    6332.8396    6332.2591    6331.5091      -0.7502
    1427.0    4866.0901 1534897.0000    3897.0293     132.4476     132.7116      -0.1202    6336.1006    6335.9803     133.2891         35     313.8951      -0.1405    6333.1345    6332.9940    6332.3112    6331.5624      -0.7490
