~VERSION INFORMATION
VERS.           2.0   :CWLS Log ASCII Standard - VERSION 2.0
WRAP.           NO    :One Line per depth step
PROD.  Schlumberger   :LAS Producer
PROG.  DLIS to ASCII 2.2                               :LAS Program name and version
CREA.        2020/10/30 12:18                          :LAS Creation date {YYYY/MM/DD hh:mm}
SOURCE.     XPT_HRLA_TLD_MCFL_066LTP.DLIS              :DLIS File Name
FILE-ID.     XPT_HRLA_TLD_MCFL_066LTP                  :File Identification Number
#--------------------------------------------------
~WELL INFORMATION
#MNEM.UNIT      DATA             DESCRIPTION
#---- ------ --------------   -----------------------------
STRT .S         3575.0       :START TIME      
STOP .S         3949.0       :STOP TIME      
STEP .S            1.0       :STEP     
NULL .          -999.25      :NULL VALUE
COMP .        Nexus Energy                             :COMPANY
WELL .        Crux-3                                   :WELL
FLD  .        Crux                                     :FIELD
LOC  .        Easting: 656981.7mE                      :LOCATION
CNTY .        Sedco-703                                :COUNTY
STAT .        Northern Territory                       :STATE
CTRY .        Australia                                :COUNTRY
API  .                                                 :API NUMBER
UWI  .                                                 :UNIQUE WELL ID
DATE .        31-Dec-2007                              :LOG DATE {DD-MMM-YYYY}
SRVC .        Schlumberger                             :SERVICE COMPANY
LATI .DEG     12*57'32.63" S                           :LATITUDE
LONG .DEG     124*26'50.07" E                          :LONGITUDE
GDAT .                                                 :GeoDetic Datum
#-----------------------------------------------------------------------------
~PARAMETER INFORMATION
#MNEM.UNIT    VALUE                      DESCRIPTION
#---- -----   --------------------       ------------------------
RUN  .          1                        :RUN NUMBER
PDAT .        LAT                        :Permanent Datum
EPD  .M           0.000000               :Elevation of Permanent Datum above Mean Sea Level
EPD  .M           0.000000               :Elevation of tool zero above Mean Sea Level
LMF  .          DF                       :Logging Measured From (Name of Logging Elevation Reference)
APD  .M          26.400000               :Elevation of Depth Reference (LMF) above Permanent Datum
#-----------------------------------------------------------------------------
~CURVE INFORMATION
#MNEM.UNIT   API CODE                                  DESCRIPTION
#---- -----  --------                                  -----------------------
TIME .S                                                :TIME {F10.1}
TENS_SL.LBF                                            :Cable Tension {F13.4}
DEPT_SL..1IN                                           :Station logging depth {F13.4}
PDEP_XPT.M                                             :XPT Probe Depth {F13.4}
MTEP_SAP.DEGC                                          :Sapphire Gauge Manometer Temperature {F13.4}
MTEP_HYD.DEGC                                          :Hydrostatic Sapphire Gauge Manometer Temperature {F13.4}
PCO_HYD.PSI                                            :Hydrostatic Sapphire Dynamic Compensation {F13.4}
PND_HYD.PSI                                            :Hydrostatic Sapphire Pressure Without Dynamic Compensation {F13.4}
CP_HYD.PSI                                             :Hydrostatic Sapphire Pressure With Dynamic Compensation {F13.4}
MTEP_QG.DEGC                                           :CQG Manometer Temperature {F13.4}
PTNO_XPT.                                              :XPT Pretest Number {I11}
ETIM_XPT.S                                             :Elapsed Logging Time {F13.4}
PCO_SAP.PSI                                            :Sapphire Dynamic Compensation {F13.4}
PND_SAP.PSI                                            :Sapphire Pressure Without Dynamic Compensation {F13.4}
CP_SAP.PSI                                             :Sapphire Pressure With Dynamic Compensation {F13.4}
QNDP .PSI                                              :CQG Pressure Without Dynamic Compensation {F13.4}
QCP  .PSI                                              :CQG Pressure With Dynamic Compensation {F13.4}
QPCO .PSI                                              :CQG Dynamic Compensation {F13.4}
#-----------------------------------------------------------------------------
# 
#     TIME      TENS_SL      DEPT_SL      PDEP_XPT     MTEP_SAP     MTEP_HYD     PCO_HYD      PND_HYD       CP_HYD      MTEP_QG       PTNO_XPT       ETIM_XPT     PCO_SAP      PND_SAP       CP_SAP        QNDP         QCP          QPCO
#
~A  
# ...
    3820.0    5088.5940 1556924.0000    3952.9780     132.4791     133.0367       0.0087    6424.6292    6424.6377     132.4903         31     245.4710       0.0139    5695.0488    5695.0627    5691.8988    5692.3459       0.4472
    3821.0    5102.1230 1556924.0000    3952.9780     132.4802     133.0395       0.0107    6424.5229    6424.5335     132.4917         31     246.4710       0.0108    5695.0061    5695.0170    5691.8987    5692.3442       0.4456
    3822.0    5106.1740 1556924.0000    3952.9780     132.4793     133.0365       0.0114    6424.3177    6424.3290     132.4931         31     247.4710       0.0076    5694.9725    5694.9799    5691.9058    5692.3501       0.4443
    3823.0    5053.0740 1556924.0000    3952.9780     132.4793     133.0381       0.0104    6424.5837    6424.5939     132.4945         31     248.4710       0.0060    5694.9046    5694.9105    5691.9133    5692.3567       0.4434
    3824.0    4998.4130 1556924.0000    3952.9780     132.4804     133.0387       0.0084    6424.5757    6424.5842     132.4958         31     249.4710       0.0062    5694.9602    5694.9665    5691.9141    5692.3567       0.4426
    3825.0    4981.1600 1556924.0000    3952.9780     132.4788     133.0387       0.0062    6424.6362    6424.6426     132.4971         31     250.4710       0.0078    5694.9593    5694.9671    5691.9153    5692.3567       0.4413
    3826.0    4951.5220 1556924.0000    3952.9780     132.4790     133.0389       0.0038    6424.6673    6424.6711     132.4985         31     251.4710       0.0106    5694.9636    5694.9741    5691.9225    5692.3618       0.4392
    3827.0    4953.3040 1556924.0000    3952.9780     132.4813     133.0391       0.0008    6424.7003    6424.7013     132.5000         31     252.4710       0.0148    5694.9522    5694.9668    5691.9229    5692.3604       0.4373
    3828.0    5028.6430 1556924.0000    3952.9780     132.4811     133.0391      -0.0008    6424.7008    6424.6999     132.5012         31     253.4710       0.0168    5695.0407    5695.0573    5691.9308    5692.3673       0.4366
    3829.0    5091.9350 1556924.0000    3952.9780     132.4803     133.0387      -0.0010    6424.6510    6424.6502     132.5027         31     254.4710       0.0156    5694.9201    5694.9355    5691.9306    5692.3665       0.4359
    3830.0    5074.1090 1556924.0000    3952.9780     132.4821     133.0382       0.0013    6424.5351    6424.5366     132.5036         31     255.4710       0.0109    5694.9843    5694.9951    5691.9328    5692.3679       0.4349
    3831.0    5066.7680 1556924.0000    3952.9780     132.4805     133.0391       0.0041    6424.4257    6424.4300     132.5053         31     256.4710       0.0075    5695.0169    5695.0243    5691.9330    5692.3662       0.4334
    3832.0    5075.2390 1556924.0000    3952.9780     132.4819     133.0388       0.0068    6424.5153    6424.5223     132.5065         31     257.4710       0.0060    5694.9668    5694.9727    5691.9419    5692.3734       0.4316
    3833.0    5026.7770 1556924.0000    3952.9780     132.4823     133.0395       0.0085    6424.5229    6424.5315     132.5079         31     258.4710       0.0058    5694.8996    5694.9055    5691.9418    5692.3714       0.4297
    3834.0    5000.4410 1556924.0000    3952.9780     132.4815     133.0395       0.0098    6424.5840    6424.5937     132.5095         31     259.4710       0.0051    5694.9831    5694.9881    5691.9482    5692.3759       0.4276
    3835.0    5019.1600 1556924.0000    3952.9780     132.4808     133.0395       0.0109    6424.6751    6424.6860     132.5103         31     260.4710       0.0045    5694.9332    5694.9376    5691.9467    5692.3724       0.4255
    3836.0    4988.5800 1556924.0000    3952.9780     132.4831     133.0399       0.0114    6424.8399    6424.8511     132.5118         31     261.4710       0.0055    5695.0194    5695.0250    5691.9531    5692.3768       0.4238
    3837.0    4965.2830 1556924.0000    3952.9780     132.4822     133.0389       0.0112    6424.7711    6424.7824     132.5131         31     262.4710       0.0076    5695.0501    5695.0579    5691.9536    5692.3760       0.4224
    3838.0    5005.1650 1556924.0000    3952.9780     132.4822     133.0403       0.0113    6424.6681    6424.6793     132.5144         31     263.4710       0.0080    5694.9707    5694.9789    5691.9503    5692.3711       0.4210
    3839.0    5053.7540 1556924.0000    3952.9780     132.4816     133.0406       0.0114    6424.6131    6424.6244     132.5156         31     264.4710       0.0066    5694.8898    5694.8964    5691.9554    5692.3751       0.4198
    3840.0    5061.6660 1556924.0000    3952.9780     132.4826     133.0409       0.0105    6424.6545    6424.6648     132.5168         31     265.4710       0.0056    5695.0304    5695.0362    5691.9613    5692.3798       0.4186
    3841.0    5088.8260 1556924.0000    3952.9780     132.4832     133.0402       0.0080    6424.4799    6424.4879     132.5181         31     266.4710       0.0070    5694.9961    5695.0031    5691.9608    5692.3782       0.4172
    3842.0    5089.6450 1556924.0000    3952.9780     132.4829     133.0412       0.0064    6424.4937    6424.5000     132.5193         31     267.4710       0.0088    5694.9139    5694.9229    5691.9649    5692.3806       0.4156
    3843.0    5063.4500 1556924.0000    3952.9780     132.4815     133.0417       0.0068    6424.6040    6424.6108     132.5209         31     268.4710       0.0093    5694.9619    5694.9712    5691.9654    5692.3795       0.4142
    3844.0    4992.7260 1556924.0000    3952.9780     132.4818     133.0411       0.0076    6424.6111    6424.6185     132.5219         31     269.4710       0.0082    5694.8902    5694.8984    5691.9683    5692.3817       0.4134
    3845.0    4968.9050 1556924.0000    3952.9780     132.4835     133.0410       0.0073    6424.7697    6424.7770     132.5234         31     270.4710       0.0071    5694.9662    5694.9732    5691.9694    5692.3823       0.4129
    3846.0    4998.0000 1556924.0000    3952.9780     132.4823     133.0416       0.0072    6424.7245    6424.7318     132.5247         31     271.4710       0.0066    5694.9655    5694.9719    5691.9844    5692.3965       0.4124
    3847.0    4996.5870 1556924.0000    3952.9780     132.4838     133.0426       0.0084    6424.8091    6424.8175     132.5259         31     272.4710       0.0062    5694.9645    5694.9708    5691.9748    5692.3863       0.4114
    3848.0    4971.9210 1556924.0000    3952.9780     132.4836     133.0418       0.0096    6424.6694    6424.6790     132.5271         31     273.4710       0.0051    5694.9762    5694.9813    5691.9797    5692.3901       0.4104
    3849.0    4974.7310 1556924.0000    3952.9780     132.4839     133.0410       0.0095    6424.6045    6424.6138     132.5283         31     274.4710       0.0026    5694.9273    5694.9298    5691.9771    5692.3864       0.4091
    3850.0    5054.1000 1556924.0000    3952.9780     132.4826     133.0414       0.0084    6424.5436    6424.5519     132.5296         31     275.4710       0.0003    5694.9302    5694.9306    5691.9825    5692.3901       0.4077
    3851.0    5093.8120 1556924.0000    3952.9780     132.4846     133.0425       0.0074    6424.4956    6424.5029     132.5307         31     276.4710      -0.0005    5694.9982    5694.9977    5691.9848    5692.3908       0.4059
    3852.0    5064.3990 1556924.0000    3952.9780     132.4826     133.0418       0.0060    6424.6065    6424.6124     132.5323         31     277.4710       0.0002    5694.9425    5694.9429    5691.9848    5692.3891       0.4044
    3853.0    5056.0070 1556924.0000    3952.9780     132.4830     133.0428       0.0044    6424.4886    6424.4928     132.5331         31     278.4710       0.0014    5694.9746    5694.9762    5691.9855    5692.3887       0.4032
    3854.0    5071.5940 1556924.0000    3952.9780     132.4835     133.0427       0.0026    6424.4543    6424.4570     132.5347         31     279.4710       0.0033    5694.9151    5694.9183    5691.9941    5692.3966       0.4026
