~VERSION INFORMATION
VERS.           2.0   :CWLS Log ASCII Standard - VERSION 2.0
WRAP.           NO    :One Line per depth step
PROD.  Schlumberger   :LAS Producer
PROG.  DLIS to ASCII 2.2                               :LAS Program name and version
CREA.        2020/10/30 12:18                          :LAS Creation date {YYYY/MM/DD hh:mm}
SOURCE.     XPT_HRLA_TLD_MCFL_051LTP.DLIS              :DLIS File Name
FILE-ID.     XPT_HRLA_TLD_MCFL_051LTP                  :File Identification Number
#--------------------------------------------------
~WELL INFORMATION
#MNEM.UNIT      DATA             DESCRIPTION
#---- ------ --------------   -----------------------------
STRT .S         3209.0       :START TIME      
STOP .S         3664.0       :STOP TIME      
STEP .S            1.0       :STEP     
NULL .          -999.25      :NULL VALUE
COMP .        Nexus Energy                             :COMPANY
WELL .        Crux-3                                   :WELL
FLD  .        Crux                                     :FIELD
LOC  .        Easting: 656981.7mE                      :LOCATION
CNTY .        Sedco-703                                :COUNTY
STAT .        Northern Territory                       :STATE
CTRY .        Australia                                :COUNTRY
API  .                                                 :API NUMBER
UWI  .                                                 :UNIQUE WELL ID
DATE .        31-Dec-2007                              :LOG DATE {DD-MMM-YYYY}
SRVC .        Schlumberger                             :SERVICE COMPANY
LATI .DEG     12*57'32.63" S                           :LATITUDE
LONG .DEG     124*26'50.07" E                          :LONGITUDE
GDAT .                                                 :GeoDetic Datum
#-----------------------------------------------------------------------------
~PARAMETER INFORMATION
#MNEM.UNIT    VALUE                      DESCRIPTION
#---- -----   --------------------       ------------------------
RUN  .          1                        :RUN NUMBER
PDAT .        LAT                        :Permanent Datum
EPD  .M           0.000000               :Elevation of Permanent Datum above Mean Sea Level
EPD  .M           0.000000               :Elevation of tool zero above Mean Sea Level
LMF  .          DF                       :Logging Measured From (Name of Logging Elevation Reference)
APD  .M          26.400000               :Elevation of Depth Reference (LMF) above Permanent Datum
#-----------------------------------------------------------------------------
~CURVE INFORMATION
#MNEM.UNIT   API CODE                                  DESCRIPTION
#---- -----  --------                                  -----------------------
TIME .S                                                :TIME {F10.1}
TENS_SL.LBF                                            :Cable Tension {F13.4}
DEPT_SL..1IN                                           :Station logging depth {F13.4}
PDEP_XPT.M                                             :XPT Probe Depth {F13.4}
MTEP_SAP.DEGC                                          :Sapphire Gauge Manometer Temperature {F13.4}
MTEP_HYD.DEGC                                          :Hydrostatic Sapphire Gauge Manometer Temperature {F13.4}
PCO_HYD.PSI                                            :Hydrostatic Sapphire Dynamic Compensation {F13.4}
PND_HYD.PSI                                            :Hydrostatic Sapphire Pressure Without Dynamic Compensation {F13.4}
CP_HYD.PSI                                             :Hydrostatic Sapphire Pressure With Dynamic Compensation {F13.4}
MTEP_QG.DEGC                                           :CQG Manometer Temperature {F13.4}
PTNO_XPT.                                              :XPT Pretest Number {I11}
ETIM_XPT.S                                             :Elapsed Logging Time {F13.4}
PCO_SAP.PSI                                            :Sapphire Dynamic Compensation {F13.4}
PND_SAP.PSI                                            :Sapphire Pressure Without Dynamic Compensation {F13.4}
CP_SAP.PSI                                             :Sapphire Pressure With Dynamic Compensation {F13.4}
QNDP .PSI                                              :CQG Pressure Without Dynamic Compensation {F13.4}
QCP  .PSI                                              :CQG Pressure With Dynamic Compensation {F13.4}
QPCO .PSI                                              :CQG Dynamic Compensation {F13.4}
#-----------------------------------------------------------------------------
# 
#     TIME      TENS_SL      DEPT_SL      PDEP_XPT     MTEP_SAP     MTEP_HYD     PCO_HYD      PND_HYD       CP_HYD      MTEP_QG       PTNO_XPT       ETIM_XPT     PCO_SAP      PND_SAP       CP_SAP        QNDP         QCP          QPCO
#
~A  
# ...
    3384.0    4952.1760 1496497.0000    3799.4934     125.1479     125.7691       0.0295    6181.5774    6181.6067     125.3820         15     175.0840       0.0455    5575.5626    5575.6081    5572.1497    5572.6015       0.4519
    3385.0    4964.3280 1496497.0000    3799.4934     125.1484     125.7689       0.0295    6181.6779    6181.7073     125.3835         15     176.0840       0.0404    5575.5286    5575.5692    5572.1413    5572.5906       0.4494
    3386.0    4953.9760 1496497.0000    3799.4934     125.1492     125.7709       0.0294    6181.6383    6181.6676     125.3851         15     177.0840       0.0353    5575.5605    5575.5958    5572.1449    5572.5919       0.4469
    3387.0    4928.3080 1496497.0000    3799.4934     125.1499     125.7701       0.0286    6181.5698    6181.5983     125.3865         15     178.0840       0.0324    5575.5286    5575.5610    5572.1448    5572.5893       0.4446
    3388.0    5006.9920 1496497.0000    3799.4934     125.1499     125.7712       0.0274    6181.5254    6181.5528     125.3881         15     179.0840       0.0325    5575.4819    5575.5146    5572.1385    5572.5814       0.4427
    3389.0    4996.4200 1496497.0000    3799.4934     125.1497     125.7709       0.0262    6181.4581    6181.4843     125.3893         15     180.0840       0.0354    5575.5334    5575.5689    5572.1424    5572.5832       0.4409
    3390.0    5004.6960 1496497.0000    3799.4934     125.1512     125.7725       0.0259    6181.4621    6181.4880     125.3906         15     181.0840       0.0387    5575.4972    5575.5359    5572.1412    5572.5803       0.4390
    3391.0    5045.5880 1496497.0000    3799.4934     125.1528     125.7716       0.0262    6181.3457    6181.3720     125.3922         15     182.0840       0.0412    5575.4872    5575.5286    5572.1437    5572.5808       0.4370
    3392.0    5050.9920 1496497.0000    3799.4934     125.1526     125.7727       0.0256    6181.3867    6181.4124     125.3936         15     183.0840       0.0423    5575.4274    5575.4699    5572.1439    5572.5788       0.4350
    3393.0    5035.6320 1496497.0000    3799.4934     125.1545     125.7732       0.0240    6181.4465    6181.4707     125.3949         15     184.0840       0.0411    5575.5196    5575.5605    5572.1449    5572.5779       0.4330
    3394.0    4981.4480 1496497.0000    3799.4934     125.1525     125.7738       0.0226    6181.4898    6181.5123     125.3964         15     185.0840       0.0373    5575.4738    5575.5110    5572.1449    5572.5756       0.4309
    3395.0    4912.1000 1496497.0000    3799.4934     125.1542     125.7744       0.0226    6181.4959    6181.5185     125.3978         15     186.0840       0.0332    5575.4590    5575.4921    5572.1446    5572.5735       0.4289
    3396.0    4935.1680 1496497.0000    3799.4934     125.1562     125.7741       0.0233    6181.5050    6181.5282     125.3989         15     187.0840       0.0322    5575.4497    5575.4819    5572.1472    5572.5742       0.4269
    3397.0    4938.6800 1496497.0000    3799.4934     125.1572     125.7746       0.0243    6181.5613    6181.5857     125.4002         15     188.0840       0.0347    5575.4368    5575.4714    5572.1478    5572.5727       0.4249
    3398.0    4953.8920 1496497.0000    3799.4934     125.1575     125.7751       0.0267    6181.6060    6181.6326     125.4019         15     189.0840       0.0372    5575.5060    5575.5433    5572.1455    5572.5687       0.4232
    3399.0    4922.1840 1496497.0000    3799.4934     125.1556     125.7769       0.0308    6181.5708    6181.6015     125.4032         15     190.0840       0.0379    5575.4572    5575.4953    5572.1440    5572.5656       0.4215
    3400.0    4945.7480 1496497.0000    3799.4934     125.1573     125.7754       0.0343    6181.5646    6181.5987     125.4047         15     191.0840       0.0381    5575.3772    5575.4153    5572.1506    5572.5706       0.4198
    3401.0    4947.3680 1496497.0000    3799.4934     125.1597     125.7770       0.0353    6181.4639    6181.4991     125.4057         15     192.0840       0.0395    5575.4497    5575.4894    5572.1476    5572.5654       0.4178
    3402.0    4997.6880 1496497.0000    3799.4934     125.1600     125.7778       0.0342    6181.5208    6181.5551     125.4071         15     193.0840       0.0403    5575.5152    5575.5554    5572.1474    5572.5636       0.4163
    3403.0    5027.7560 1496497.0000    3799.4934     125.1606     125.7777       0.0327    6181.5310    6181.5638     125.4083         15     194.0840       0.0385    5575.4310    5575.4696    5572.1503    5572.5653       0.4151
    3404.0    5035.9160 1496497.0000    3799.4934     125.1604     125.7792       0.0314    6181.4332    6181.4648     125.4099         15     195.0840       0.0359    5575.5315    5575.5675    5572.1467    5572.5603       0.4136
    3405.0    5033.4040 1496497.0000    3799.4934     125.1608     125.7799       0.0297    6181.3750    6181.4047     125.4110         15     196.0840       0.0355    5575.4734    5575.5088    5572.1506    5572.5627       0.4121
    3406.0    5014.4040 1496497.0000    3799.4934     125.1639     125.7792       0.0275    6181.4258    6181.4532     125.4123         15     197.0840       0.0365    5575.5434    5575.5800    5572.1555    5572.5662       0.4107
    3407.0    4990.1960 1496497.0000    3799.4934     125.1630     125.7801       0.0251    6181.3988    6181.4240     125.4137         15     198.0840       0.0362    5575.3922    5575.4282    5572.1536    5572.5631       0.4094
    3408.0    4920.5360 1496497.0000    3799.4934     125.1634     125.7814       0.0230    6181.4462    6181.4694     125.4149         15     199.0840       0.0340    5575.4505    5575.4845    5572.1546    5572.5625       0.4078
    3409.0    4967.4800 1496497.0000    3799.4934     125.1664     125.7814       0.0215    6181.3943    6181.4158     125.4166         15     200.0840       0.0320    5575.3948    5575.4270    5572.1596    5572.5659       0.4062
    3410.0    4937.7320 1496497.0000    3799.4934     125.1632     125.7821       0.0210    6181.4916    6181.5126     125.4176         15     201.0840       0.0320    5575.3723    5575.4042    5572.1597    5572.5642       0.4044
    3411.0    4914.3440 1496497.0000    3799.4934     125.1669     125.7827       0.0212    6181.6082    6181.6292     125.4189         15     202.0840       0.0328    5575.4676    5575.5004    5572.1613    5572.5643       0.4029
    3412.0    4932.7800 1496497.0000    3799.4934     125.1655     125.7815       0.0218    6181.4503    6181.4722     125.4205         15     203.0840       0.0328    5575.4130    5575.4458    5572.1642    5572.5638       0.3997
    3413.0    4979.2920 1496497.0000    3799.4934     125.1646     125.7824       0.0234    6181.5217    6181.5449     125.4214         15     204.0840       0.0201    5575.3199    5575.3401    5572.1650    5572.5373       0.3723
    3414.0    5036.5800 1496497.0000    3799.4934     125.1680     125.7835       0.0258    6181.5379    6181.5636     125.4225         15     205.0840      -0.0268    5575.4528    5575.4261    5572.1610    5572.4462       0.2850
    3415.0    5033.9320 1496497.0000    3799.4934     125.1670     125.7845       0.0274    6181.5125    6181.5399     125.4242         15     206.0840      -0.1177    5575.4242    5575.3063    5572.1548    5572.2826       0.1278
    3416.0    5054.4960 1496497.0000    3799.4934     125.1690     125.7835       0.0275    6181.3363    6181.3637     125.4254         15     207.0840      -0.2286    5575.3738    5575.1453    5572.1617    5572.1009      -0.0609
    3417.0    5043.2040 1496497.0000    3799.4934     125.1691     125.7860       0.0268    6181.3799    6181.4067     125.4264         15     208.0840      -0.3146    5575.3614    5575.0468    5572.1658    5571.9414      -0.2244
    3418.0    4972.3560 1496497.0000    3799.4934     125.1584     125.7860       0.0263    6181.4427    6181.4691     125.4239         15     209.0840      -0.3424    5490.6199    5490.2777    5489.3513    5489.0254      -0.3260
