~VERSION INFORMATION
VERS.           2.0   :CWLS Log ASCII Standard - VERSION 2.0
WRAP.           NO    :One Line per depth step
PROD.  Schlumberger   :LAS Producer
PROG.  DLIS to ASCII 2.2                               :LAS Program name and version
CREA.        2020/10/30 12:18                          :LAS Creation date {YYYY/MM/DD hh:mm}
SOURCE.     XPT_HRLA_TLD_MCFL_048LTP.DLIS              :DLIS File Name
FILE-ID.     XPT_HRLA_TLD_MCFL_048LTP                  :File Identification Number
#--------------------------------------------------
~WELL INFORMATION
#MNEM.UNIT      DATA             DESCRIPTION
#---- ------ --------------   -----------------------------
STRT .S           91.0       :START TIME      
STOP .S          545.0       :STOP TIME      
STEP .S            1.0       :STEP     
NULL .          -999.25      :NULL VALUE
COMP .        Nexus Energy                             :COMPANY
WELL .        Crux-3                                   :WELL
FLD  .        Crux                                     :FIELD
LOC  .        Easting: 656981.7mE                      :LOCATION
CNTY .        Sedco-703                                :COUNTY
STAT .        Northern Territory                       :STATE
CTRY .        Australia                                :COUNTRY
API  .                                                 :API NUMBER
UWI  .                                                 :UNIQUE WELL ID
DATE .        31-Dec-2007                              :LOG DATE {DD-MMM-YYYY}
SRVC .        Schlumberger                             :SERVICE COMPANY
LATI .DEG     12*57'32.63" S                           :LATITUDE
LONG .DEG     124*26'50.07" E                          :LONGITUDE
GDAT .                                                 :GeoDetic Datum
#-----------------------------------------------------------------------------
~PARAMETER INFORMATION
#MNEM.UNIT    VALUE                      DESCRIPTION
#---- -----   --------------------       ------------------------
RUN  .          1                        :RUN NUMBER
PDAT .        LAT                        :Permanent Datum
EPD  .M           0.000000               :Elevation of Permanent Datum above Mean Sea Level
EPD  .M           0.000000               :Elevation of tool zero above Mean Sea Level
LMF  .          DF                       :Logging Measured From (Name of Logging Elevation Reference)
APD  .M          26.400000               :Elevation of Depth Reference (LMF) above Permanent Datum
#-----------------------------------------------------------------------------
~CURVE INFORMATION
#MNEM.UNIT   API CODE                                  DESCRIPTION
#---- -----  --------                                  -----------------------
TIME .S                                                :TIME {F10.1}
TENS_SL.LBF                                            :Cable Tension {F13.4}
DEPT_SL..1IN                                           :Station logging depth {F13.4}
PDEP_XPT.M                                             :XPT Probe Depth {F13.4}
MTEP_SAP.DEGC                                          :Sapphire Gauge Manometer Temperature {F13.4}
MTEP_HYD.DEGC                                          :Hydrostatic Sapphire Gauge Manometer Temperature {F13.4}
PCO_HYD.PSI                                            :Hydrostatic Sapphire Dynamic Compensation {F13.4}
PND_HYD.PSI                                            :Hydrostatic Sapphire Pressure Without Dynamic Compensation {F13.4}
CP_HYD.PSI                                             :Hydrostatic Sapphire Pressure With Dynamic Compensation {F13.4}
MTEP_QG.DEGC                                           :CQG Manometer Temperature {F13.4}
PTNO_XPT.                                              :XPT Pretest Number {I11}
ETIM_XPT.S                                             :Elapsed Logging Time {F13.4}
PCO_SAP.PSI                                            :Sapphire Dynamic Compensation {F13.4}
PND_SAP.PSI                                            :Sapphire Pressure Without Dynamic Compensation {F13.4}
CP_SAP.PSI                                             :Sapphire Pressure With Dynamic Compensation {F13.4}
QNDP .PSI                                              :CQG Pressure Without Dynamic Compensation {F13.4}
QCP  .PSI                                              :CQG Pressure With Dynamic Compensation {F13.4}
QPCO .PSI                                              :CQG Dynamic Compensation {F13.4}
#-----------------------------------------------------------------------------
# 
#     TIME      TENS_SL      DEPT_SL      PDEP_XPT     MTEP_SAP     MTEP_HYD     PCO_HYD      PND_HYD       CP_HYD      MTEP_QG       PTNO_XPT       ETIM_XPT     PCO_SAP      PND_SAP       CP_SAP        QNDP         QCP          QPCO
#
~A  
# ...
     126.0    4721.5158 1445909.0000    3671.0000     122.0964     122.6419       0.0023    5977.6699    5977.6724     122.6626         10      34.8206       0.0145    5975.9853    5976.0000    5973.1070    5973.1675       0.0606
     127.0    4769.4935 1445909.0000    3671.0000     122.0952     122.6425       0.0050    5977.6762    5977.6812     122.6630         10      35.8206       0.0143    5975.9751    5975.9896    5973.0575    5973.1180       0.0606
     128.0    4754.3810 1445909.0000    3671.0000     122.0947     122.6432       0.0097    5977.5797    5977.5895     122.6630         10      36.8206       0.0116    5975.8759    5975.8874    5973.0245    5973.0847       0.0602
     129.0    4787.5697 1445909.0000    3671.0000     122.0946     122.6427       0.0146    5977.5581    5977.5728     122.6634         10      37.8206       0.0085    5975.7045    5975.7128    5972.9708    5973.0304       0.0597
     130.0    4811.5920 1445909.0000    3671.0000     122.0976     122.6443       0.0174    5977.5333    5977.5508     122.6634         10      38.8206       0.0074    5975.7546    5975.7619    5972.9060    5972.9654       0.0593
     131.0    4797.7668 1445909.0000    3671.0000     122.0946     122.6441       0.0167    5977.5052    5977.5220     122.6636         10      39.8206       0.0077    5975.7714    5975.7792    5972.9854    5973.0440       0.0587
     132.0    4744.7625 1445909.0000    3671.0000     122.0957     122.6447       0.0137    5977.5814    5977.5950     122.6638         10      40.8206       0.0074    5975.8427    5975.8500    5973.0017    5973.0599       0.0583
     133.0    4718.4081 1445909.0000    3671.0000     122.0962     122.6453       0.0102    5977.6030    5977.6133     122.6639         10      41.8206       0.0074    5975.8722    5975.8795    5973.0540    5973.1123       0.0583
     134.0    4705.1525 1445909.0000    3671.0000     122.0968     122.6456       0.0074    5977.7084    5977.7159     122.6643         10      42.8206       0.0088    5975.8437    5975.8524    5973.0394    5973.0985       0.0591
     135.0    4712.0269 1445909.0000    3671.0000     122.0971     122.6449       0.0043    5977.7614    5977.7657     122.6644         10      43.8206       0.0110    5976.0047    5976.0155    5973.1654    5973.2250       0.0596
     136.0    4699.2288 1445909.0000    3671.0000     122.0973     122.6450       0.0022    5977.7612    5977.7635     122.6647         10      44.8206       0.0116    5975.8590    5975.8707    5973.1072    5973.1666       0.0593
     137.0    4717.3363 1445909.0000    3671.0000     122.0964     122.6443       0.0036    5977.5831    5977.5868     122.6650         10      45.8206       0.0109    5975.8759    5975.8868    5973.0639    5973.1226       0.0588
     138.0    4760.5694 1445909.0000    3671.0000     122.0979     122.6464       0.0082    5977.6603    5977.6687     122.6649         10      46.8206       0.0103    5975.9251    5975.9353    5973.0524    5973.1110       0.0586
     139.0    4805.1075 1445909.0000    3671.0000     122.0979     122.6450       0.0127    5977.5225    5977.5351     122.6652         10      47.8206       0.0109    5975.8823    5975.8932    5973.0217    5973.0803       0.0588
     140.0    4803.1525 1445909.0000    3671.0000     122.0978     122.6434       0.0153    5977.5063    5977.5217     122.6655         10      48.8206       0.0125    5975.7404    5975.7530    5972.9677    5973.0263       0.0587
     141.0    4801.0000 1445909.0000    3671.0000     122.0989     122.6458       0.0168    5977.5910    5977.6076     122.6655         10      49.8206       0.0136    5975.8935    5975.9072    5972.9652    5973.0238       0.0585
     142.0    4766.5337 1445909.0000    3671.0000     122.0979     122.6468       0.0174    5977.6489    5977.6665     122.6658         10      50.8206       0.0127    5975.7510    5975.7635    5972.9550    5973.0138       0.0588
     143.0    4726.9956 1445909.0000    3671.0000     122.0982     122.6452       0.0152    5977.5622    5977.5776     122.6657         10      51.8206       0.0094    5975.7226    5975.7321    5972.9619    5973.0210       0.0590
     144.0    4766.7756 1445909.0000    3671.0000     122.0996     122.6473       0.0108    5977.6065    5977.6172     122.6662         10      52.8206       0.0057    5975.8244    5975.8302    5972.9822    5973.0413       0.0591
     145.0    4802.4394 1445909.0000    3671.0000     122.0977     122.6469       0.0069    5977.6145    5977.6215     122.6663         10      53.8206       0.0035    5975.8274    5975.8308    5973.0347    5973.0938       0.0590
     146.0    4776.8162 1445909.0000    3671.0000     122.0990     122.6469       0.0040    5977.6558    5977.6599     122.6665         10      54.8206       0.0034    5975.9228    5975.9262    5973.0372    5973.0963       0.0589
     147.0    4734.7131 1445909.0000    3671.0000     122.0976     122.6468       0.0017    5977.5782    5977.5801     122.6667         10      55.8206       0.0044    5975.8228    5975.8272    5973.0258    5973.0849       0.0591
     148.0    4718.7937 1445909.0000    3671.0000     122.0985     122.6475       0.0006    5977.6331    5977.6335     122.6669         10      56.8206       0.0062    5975.8824    5975.8886    5973.0560    5973.1149       0.0588
     149.0    4705.5112 1445909.0000    3671.0000     122.0982     122.6462       0.0021    5977.6767    5977.6789     122.6670         10      57.8206       0.0094    5975.9605    5975.9699    5973.1395    5973.1976       0.0583
     150.0    4689.0494 1445909.0000    3671.0000     122.1001     122.6474       0.0055    5977.6673    5977.6727     122.6673         10      58.8206       0.0132    5975.9793    5975.9925    5973.0888    5973.1469       0.0581
     151.0    4687.6412 1445909.0000    3671.0000     122.0998     122.6465       0.0100    5977.6336    5977.6433     122.6674         10      59.8206       0.0168    5975.7939    5975.8109    5973.0619    5973.1205       0.0584
     152.0    4736.4169 1445909.0000    3671.0000     122.0993     122.6470       0.0128    5977.6197    5977.6326     122.6677         10      60.8206       0.0181    5975.9872    5976.0052    5973.1151    5973.1737       0.0584
     153.0    4818.3944 1445909.0000    3671.0000     122.1001     122.6479       0.0160    5977.7010    5977.7171     122.6679         10      61.8206       0.0185    5975.8346    5975.8531    5973.0703    5973.1289       0.0584
     154.0    4802.8162 1445909.0000    3671.0000     122.1001     122.6472       0.0183    5977.6060    5977.6245     122.6680         10      62.8206       0.0180    5975.8918    5975.9099    5973.0227    5973.0808       0.0580
     155.0    4767.2781 1445909.0000    3671.0000     122.1018     122.6495       0.0178    5977.5418    5977.5595     122.6682         10      63.8206       0.0170    5975.7705    5975.7874    5972.8923    5972.9504       0.0579
     156.0    4793.8250 1445909.0000    3671.0000     122.1008     122.6480       0.0149    5977.4947    5977.5097     122.6681         10      64.8206       0.0148    5975.8205    5975.8351    5972.9623    5973.0199       0.0575
     157.0    4734.5294 1445909.0000    3671.0000     122.1021     122.6493       0.0107    5977.6512    5977.6618     122.6687         10      65.8206       0.0125    5975.9694    5975.9819    5973.0712    5973.1283       0.0573
     158.0    4733.1300 1445909.0000    3671.0000     122.1025     122.6492       0.0077    5977.7251    5977.7331     122.6686         10      66.8206       0.0113    5975.8951    5975.9065    5973.0237    5973.0808       0.0572
     159.0    4722.8700 1445909.0000    3671.0000     122.1009     122.6499       0.0068    5977.6360    5977.6428     122.6691         10      67.8206       0.0108    5975.8787    5975.8894    5973.0915    5973.1487       0.0573
     160.0    4715.0763 1445909.0000    3671.0000     122.1018     122.6488       0.0074    5977.7412    5977.7485     122.6692         10      68.8206       0.0106    5976.0271    5976.0378    5973.1540    5973.2116       0.0576
