~VERSION INFORMATION
VERS.           2.0   :CWLS Log ASCII Standard - VERSION 2.0
WRAP.           NO    :One Line per depth step
PROD.  Schlumberger   :LAS Producer
PROG.  DLIS to ASCII 2.2                               :LAS Program name and version
CREA.        2020/10/30 12:18                          :LAS Creation date {YYYY/MM/DD hh:mm}
SOURCE.     XPT_HRLA_TLD_MCFL_037LTP.DLIS              :DLIS File Name
FILE-ID.     XPT_HRLA_TLD_MCFL_037LTP                  :File Identification Number
#--------------------------------------------------
~WELL INFORMATION
#MNEM.UNIT      DATA             DESCRIPTION
#---- ------ --------------   -----------------------------
STRT .S        35745.0       :START TIME      
STOP .S        36558.0       :STOP TIME      
STEP .S            1.0       :STEP     
NULL .          -999.25      :NULL VALUE
COMP .        Nexus Energy                             :COMPANY
WELL .        Crux-3                                   :WELL
FLD  .        Crux                                     :FIELD
LOC  .        Easting: 656981.7mE                      :LOCATION
CNTY .        Sedco-703                                :COUNTY
STAT .        Northern Territory                       :STATE
CTRY .        Australia                                :COUNTRY
API  .                                                 :API NUMBER
UWI  .                                                 :UNIQUE WELL ID
DATE .        31-Dec-2007                              :LOG DATE {DD-MMM-YYYY}
SRVC .        Schlumberger                             :SERVICE COMPANY
LATI .DEG     12*57'32.63" S                           :LATITUDE
LONG .DEG     124*26'50.07" E                          :LONGITUDE
GDAT .                                                 :GeoDetic Datum
#-----------------------------------------------------------------------------
~PARAMETER INFORMATION
#MNEM.UNIT    VALUE                      DESCRIPTION
#---- -----   --------------------       ------------------------
RUN  .          1                        :RUN NUMBER
PDAT .        LAT                        :Permanent Datum
EPD  .M           0.000000               :Elevation of Permanent Datum above Mean Sea Level
EPD  .M           0.000000               :Elevation of tool zero above Mean Sea Level
LMF  .          DF                       :Logging Measured From (Name of Logging Elevation Reference)
APD  .M          26.400000               :Elevation of Depth Reference (LMF) above Permanent Datum
#-----------------------------------------------------------------------------
~CURVE INFORMATION
#MNEM.UNIT   API CODE                                  DESCRIPTION
#---- -----  --------                                  -----------------------
TIME .S                                                :TIME {F10.1}
TENS_SL.LBF                                            :Cable Tension {F13.4}
DEPT_SL..1IN                                           :Station logging depth {F13.4}
PDEP_XPT.M                                             :XPT Probe Depth {F13.4}
MTEP_SAP.DEGC                                          :Sapphire Gauge Manometer Temperature {F13.4}
MTEP_HYD.DEGC                                          :Hydrostatic Sapphire Gauge Manometer Temperature {F13.4}
PCO_HYD.PSI                                            :Hydrostatic Sapphire Dynamic Compensation {F13.4}
PND_HYD.PSI                                            :Hydrostatic Sapphire Pressure Without Dynamic Compensation {F13.4}
CP_HYD.PSI                                             :Hydrostatic Sapphire Pressure With Dynamic Compensation {F13.4}
MTEP_QG.DEGC                                           :CQG Manometer Temperature {F13.4}
PTNO_XPT.                                              :XPT Pretest Number {I11}
ETIM_XPT.S                                             :Elapsed Logging Time {F13.4}
PCO_SAP.PSI                                            :Sapphire Dynamic Compensation {F13.4}
PND_SAP.PSI                                            :Sapphire Pressure Without Dynamic Compensation {F13.4}
CP_SAP.PSI                                             :Sapphire Pressure With Dynamic Compensation {F13.4}
QNDP .PSI                                              :CQG Pressure Without Dynamic Compensation {F13.4}
QCP  .PSI                                              :CQG Pressure With Dynamic Compensation {F13.4}
QPCO .PSI                                              :CQG Dynamic Compensation {F13.4}
#-----------------------------------------------------------------------------
# 
#     TIME      TENS_SL      DEPT_SL      PDEP_XPT     MTEP_SAP     MTEP_HYD     PCO_HYD      PND_HYD       CP_HYD      MTEP_QG       PTNO_XPT       ETIM_XPT     PCO_SAP      PND_SAP       CP_SAP        QNDP         QCP          QPCO
#
~A  
# ...
   35990.0    4736.7320 1417595.0000    3599.0823     118.7142     119.2697       0.0055    5862.4440    5862.4497     118.8949          0     244.7480       0.0063    5504.8073    5504.8136    5501.6491    5501.9271       0.2781
   35991.0    4738.2520 1417595.0000    3599.0823     118.7156     119.2699       0.0079    5862.4738    5862.4817     118.8957          0     245.7480       0.0090    5504.8686    5504.8775    5501.6773    5501.9536       0.2765
   35992.0    4707.3320 1417595.0000    3599.0823     118.7150     119.2701       0.0075    5862.4740    5862.4816     118.8967          0     246.7480       0.0110    5504.9084    5504.9193    5501.6887    5501.9639       0.2752
   35993.0    4650.6240 1417595.0000    3599.0823     118.7152     119.2691       0.0045    5862.5074    5862.5120     118.8975          0     247.7480       0.0107    5504.8260    5504.8368    5501.6908    5501.9652       0.2742
   35994.0    4630.5120 1417595.0000    3599.0823     118.7151     119.2690       0.0017    5862.6520    5862.6538     118.8984          0     248.7480       0.0083    5504.9463    5504.9544    5501.7032    5501.9761       0.2730
   35995.0    4618.5280 1417595.0000    3599.0823     118.7153     119.2700       0.0011    5862.7393    5862.7403     118.8992          0     249.7480       0.0057    5504.8950    5504.9006    5501.7187    5501.9902       0.2715
   35996.0    4597.7960 1417595.0000    3599.0823     118.7153     119.2684       0.0017    5862.7388    5862.7402     118.9001          0     250.7480       0.0041    5504.8914    5504.8954    5501.7211    5501.9912       0.2699
   35997.0    4579.2840 1417595.0000    3599.0823     118.7156     119.2700       0.0013    5862.7000    5862.7014     118.9012          0     251.7480       0.0036    5504.9372    5504.9406    5501.7193    5501.9883       0.2691
   35998.0    4622.1240 1417595.0000    3599.0823     118.7156     119.2688       0.0004    5862.6538    5862.6540     118.9021          0     252.7480       0.0040    5504.8986    5504.9025    5501.7158    5501.9841       0.2682
   35999.0    4706.8160 1417595.0000    3599.0823     118.7153     119.2692      -0.0002    5862.6818    5862.6818     118.9029          0     253.7480       0.0064    5504.9110    5504.9172    5501.7118    5501.9781       0.2663
   36000.0    4725.5120 1417595.0000    3599.0823     118.7161     119.2693       0.0002    5862.5640    5862.5641     118.9037          0     254.7480       0.0080    5504.8848    5504.8927    5501.7065    5501.9711       0.2647
   36001.0    4722.5040 1417595.0000    3599.0823     118.7160     119.2684       0.0009    5862.4414    5862.4424     118.9046          0     255.7480       0.0091    5504.9321    5504.9414    5501.7027    5501.9654       0.2627
   36002.0    4698.8120 1417595.0000    3599.0823     118.7173     119.2684       0.0016    5862.4414    5862.4429     118.9059          0     256.7480       0.0089    5504.9826    5504.9915    5501.7148    5501.9761       0.2611
   36003.0    4688.7560 1417595.0000    3599.0823     118.7167     119.2694       0.0018    5862.4613    5862.4632     118.9062          0     257.7480       0.0078    5504.9130    5504.9208    5501.7297    5501.9894       0.2597
   36004.0    4682.7640 1417595.0000    3599.0823     118.7173     119.2690       0.0009    5862.5515    5862.5522     118.9070          0     258.7480       0.0060    5505.0030    5505.0091    5501.7326    5501.9902       0.2578
   36005.0    4657.0640 1417595.0000    3599.0823     118.7161     119.2700      -0.0009    5862.5762    5862.5753     118.9080          0     259.7480       0.0041    5504.9271    5504.9311    5501.7473    5502.0033       0.2560
   36006.0    4640.0240 1417595.0000    3599.0823     118.7173     119.2693      -0.0024    5862.6887    5862.6862     118.9091          0     260.7480       0.0034    5505.0046    5505.0080    5501.7662    5502.0215       0.2553
   36007.0    4618.3000 1417595.0000    3599.0823     118.7158     119.2700      -0.0024    5862.6948    5862.6924     118.9097          0     261.7480       0.0040    5504.9894    5504.9936    5501.7734    5502.0283       0.2549
   36008.0    4636.6840 1417595.0000    3599.0823     118.7162     119.2685      -0.0017    5862.6239    5862.6224     118.9108          0     262.7480       0.0052    5504.9781    5504.9834    5501.7813    5502.0353       0.2540
   36009.0    4618.0720 1417595.0000    3599.0823     118.7183     119.2697      -0.0011    5862.6732    5862.6722     118.9114          0     263.7480       0.0060    5505.0182    5505.0241    5501.7851    5502.0379       0.2528
   36010.0    4596.2840 1417595.0000    3599.0823     118.7180     119.2692       0.0003    5862.7025    5862.7027     118.9124          0     264.7480       0.0063    5505.0235    5505.0299    5501.7903    5502.0420       0.2518
   36011.0    4589.0080 1417595.0000    3599.0823     118.7184     119.2702       0.0029    5862.6730    5862.6758     118.9130          0     265.7480       0.0062    5505.0009    5505.0072    5501.7934    5502.0444       0.2511
   36012.0    4642.6040 1417595.0000    3599.0823     118.7178     119.2692       0.0061    5862.5774    5862.5833     118.9140          0     266.7480       0.0046    5505.0858    5505.0905    5501.8065    5502.0570       0.2505
   36013.0    4699.8960 1417595.0000    3599.0823     118.7178     119.2700       0.0073    5862.6354    5862.6427     118.9149          0     267.7480       0.0112    5504.9786    5504.9897    5501.8201    5502.0846       0.2647
   36014.0    4707.7640 1417595.0000    3599.0823     118.7168     119.2697       0.0063    5862.5240    5862.5305     118.9154          0     268.7480       0.0595    5504.9201    5504.9796    5501.8166    5502.1586       0.3420
   36015.0    4694.7800 1417595.0000    3599.0823     118.7171     119.2693       0.0044    5862.4409    5862.4453     118.9163          0     269.7480       0.1803    5504.9575    5505.1379    5501.8222    5502.3468       0.5246
   36016.0    4702.9680 1417595.0000    3599.0823     118.7169     119.2707       0.0033    5862.4648    5862.4683     118.9172          0     270.7480       0.3483    5504.9253    5505.2736    5501.8457    5502.6264       0.7807
   36017.0    4704.7560 1417595.0000    3599.0823     118.7167     119.2712       0.0028    5862.5192    5862.5221     118.9179          0     271.7480       0.4949    5505.0105    5505.5052    5501.8510    5502.8802       1.0293
   36018.0    4683.0560 1417595.0000    3599.0823     118.7170     119.2687       0.0013    5862.4447    5862.4461     118.9190          0     272.7480       0.5673    5504.8648    5505.4319    5501.7264    5502.9423       1.2159
   36019.0    4631.8680 1417595.0000    3599.0823     118.7729     119.2705       0.0001    5862.5224    5862.5224     118.9354          0     273.7480       0.5639    5867.7921    5868.3559    5859.1562    5860.4990       1.3429
   36020.0    4632.7080 1417595.0000    3599.0823     118.7829     119.2703       0.0011    5862.5798    5862.5806     118.9378          0     274.7480       0.4888    5864.0609    5864.5498    5856.8271    5858.2247       1.3975
   36021.0    4608.0800 1417595.0000    3599.0823     118.7844     119.2703       0.0035    5862.6425    5862.6460     118.9406          0     275.7480       0.3355    5863.7570    5864.0925    5856.9772    5858.3246       1.3474
   36022.0    4616.7000 1417595.0000    3599.0823     118.7814     119.2700       0.0050    5862.6061    5862.6110     118.9441          0     276.7480       0.1335    5863.2948    5863.4282    5857.0898    5858.3057       1.2160
   36023.0    4625.9920 1417595.0000    3599.0823     118.7778     119.2694       0.0045    5862.5834    5862.5878     118.9480          0     277.7480      -0.0473    5862.7618    5862.7147    5857.2374    5858.3170       1.0798
   36024.0    4671.8800 1417595.0000    3599.0823     118.7735     119.2708       0.0038    5862.6968    5862.7007     118.9510          0     278.7480      -0.1531    5862.4574    5862.3043    5857.3603    5858.3508       0.9904
