~VERSION INFORMATION
VERS.           2.0   :CWLS Log ASCII Standard - VERSION 2.0
WRAP.           NO    :One Line per depth step
PROD.  Schlumberger   :LAS Producer
PROG.  DLIS to ASCII 2.2                               :LAS Program name and version
CREA.        2020/10/30 12:18                          :LAS Creation date {YYYY/MM/DD hh:mm}
SOURCE.     XPT_HRLA_TLD_MCFL_045LTP.DLIS              :DLIS File Name
FILE-ID.     XPT_HRLA_TLD_MCFL_045LTP                  :File Identification Number
#--------------------------------------------------
~WELL INFORMATION
#MNEM.UNIT      DATA             DESCRIPTION
#---- ------ --------------   -----------------------------
STRT .S         3688.0       :START TIME      
STOP .S         4251.0       :STOP TIME      
STEP .S            1.0       :STEP     
NULL .          -999.25      :NULL VALUE
COMP .        Nexus Energy                             :COMPANY
WELL .        Crux-3                                   :WELL
FLD  .        Crux                                     :FIELD
LOC  .        Easting: 656981.7mE                      :LOCATION
CNTY .        Sedco-703                                :COUNTY
STAT .        Northern Territory                       :STATE
CTRY .        Australia                                :COUNTRY
API  .                                                 :API NUMBER
UWI  .                                                 :UNIQUE WELL ID
DATE .        31-Dec-2007                              :LOG DATE {DD-MMM-YYYY}
SRVC .        Schlumberger                             :SERVICE COMPANY
LATI .DEG     12*57'32.63" S                           :LATITUDE
LONG .DEG     124*26'50.07" E                          :LONGITUDE
GDAT .                                                 :GeoDetic Datum
#-----------------------------------------------------------------------------
~PARAMETER INFORMATION
#MNEM.UNIT    VALUE                      DESCRIPTION
#---- -----   --------------------       ------------------------
RUN  .          1                        :RUN NUMBER
PDAT .        LAT                        :Permanent Datum
EPD  .M           0.000000               :Elevation of Permanent Datum above Mean Sea Level
EPD  .M           0.000000               :Elevation of tool zero above Mean Sea Level
LMF  .          DF                       :Logging Measured From (Name of Logging Elevation Reference)
APD  .M          26.400000               :Elevation of Depth Reference (LMF) above Permanent Datum
#-----------------------------------------------------------------------------
~CURVE INFORMATION
#MNEM.UNIT   API CODE                                  DESCRIPTION
#---- -----  --------                                  -----------------------
TIME .S                                                :TIME {F10.1}
TENS_SL.LBF                                            :Cable Tension {F13.4}
DEPT_SL..1IN                                           :Station logging depth {F13.4}
PDEP_XPT.M                                             :XPT Probe Depth {F13.4}
MTEP_SAP.DEGC                                          :Sapphire Gauge Manometer Temperature {F13.4}
MTEP_HYD.DEGC                                          :Hydrostatic Sapphire Gauge Manometer Temperature {F13.4}
PCO_HYD.PSI                                            :Hydrostatic Sapphire Dynamic Compensation {F13.4}
PND_HYD.PSI                                            :Hydrostatic Sapphire Pressure Without Dynamic Compensation {F13.4}
CP_HYD.PSI                                             :Hydrostatic Sapphire Pressure With Dynamic Compensation {F13.4}
MTEP_QG.DEGC                                           :CQG Manometer Temperature {F13.4}
PTNO_XPT.                                              :XPT Pretest Number {I11}
ETIM_XPT.S                                             :Elapsed Logging Time {F13.4}
PCO_SAP.PSI                                            :Sapphire Dynamic Compensation {F13.4}
PND_SAP.PSI                                            :Sapphire Pressure Without Dynamic Compensation {F13.4}
CP_SAP.PSI                                             :Sapphire Pressure With Dynamic Compensation {F13.4}
QNDP .PSI                                              :CQG Pressure Without Dynamic Compensation {F13.4}
QCP  .PSI                                              :CQG Pressure With Dynamic Compensation {F13.4}
QPCO .PSI                                              :CQG Dynamic Compensation {F13.4}
#-----------------------------------------------------------------------------
# 
#     TIME      TENS_SL      DEPT_SL      PDEP_XPT     MTEP_SAP     MTEP_HYD     PCO_HYD      PND_HYD       CP_HYD      MTEP_QG       PTNO_XPT       ETIM_XPT     PCO_SAP      PND_SAP       CP_SAP        QNDP         QCP          QPCO
#
~A  
# ...
    3758.0    4721.2775 1440603.0000    3657.5227     121.9497     122.4579      -0.0145    5955.4951    5955.4805     122.5195          6      70.0725      -0.0232    5953.8103    5953.7873    5951.2816    5951.2601      -0.0216
    3759.0    4779.6975 1440603.0000    3657.5227     121.9484     122.4588      -0.0148    5955.4826    5955.4679     122.5192          6      71.0725      -0.0269    5953.6217    5953.5949    5951.2256    5951.2036      -0.0221
    3760.0    4828.3775 1440603.0000    3657.5227     121.9491     122.4573      -0.0173    5955.4144    5955.3971     122.5195          6      72.0725      -0.0301    5953.6166    5953.5866    5951.1723    5951.1502      -0.0222
    3761.0    4845.6375 1440603.0000    3657.5227     121.9480     122.4564      -0.0209    5955.3755    5955.3544     122.5195          6      73.0725      -0.0315    5953.7477    5953.7162    5951.2178    5951.1953      -0.0224
    3762.0    4837.1575 1440603.0000    3657.5227     121.9475     122.4573      -0.0229    5955.3504    5955.3275     122.5195          6      74.0725      -0.0313    5953.7733    5953.7420    5951.2465    5951.2231      -0.0233
    3763.0    4784.1575 1440603.0000    3657.5227     121.9469     122.4578      -0.0228    5955.4579    5955.4349     122.5189          6      75.0725      -0.0306    5953.7008    5953.6702    5951.1930    5951.1691      -0.0240
    3764.0    4732.7525 1440603.0000    3657.5227     121.9459     122.4554      -0.0234    5955.3871    5955.3639     122.5191          6      76.0725      -0.0299    5953.6680    5953.6380    5951.2188    5951.1948      -0.0240
    3765.0    4703.3475 1440603.0000    3657.5227     121.9468     122.4557      -0.0255    5955.4474    5955.4220     122.5191          6      77.0725      -0.0284    5953.7422    5953.7139    5951.2857    5951.2622      -0.0236
    3766.0    4696.6675 1440603.0000    3657.5227     121.9454     122.4552      -0.0276    5955.4452    5955.4178     122.5188          6      78.0725      -0.0256    5953.7832    5953.7576    5951.2933    5951.2694      -0.0237
    3767.0    4723.8725 1440603.0000    3657.5227     121.9451     122.4552      -0.0285    5955.4448    5955.4164     122.5191          6      79.0725      -0.0232    5953.7913    5953.7681    5951.2923    5951.2688      -0.0236
    3768.0    4804.2200 1440603.0000    3657.5227     121.9439     122.4520      -0.0280    5955.4116    5955.3837     122.5187          6      80.0725      -0.0221    5953.7845    5953.7625    5951.2968    5951.2739      -0.0231
    3769.0    4875.4950 1440603.0000    3657.5227     121.9443     122.4530      -0.0260    5955.4066    5955.3804     122.5187          6      81.0725      -0.0217    5953.7729    5953.7514    5951.2734    5951.2509      -0.0225
    3770.0    4935.1025 1440603.0000    3657.5227     121.9438     122.4526      -0.0227    5955.3576    5955.3347     122.5187          6      82.0725      -0.0208    5953.7252    5953.7045    5951.1974    5951.1747      -0.0227
    3771.0    4960.6950 1440603.0000    3657.5227     121.9450     122.4513      -0.0196    5955.2842    5955.2646     122.5185          6      83.0725      -0.0200    5953.5679    5953.5479    5951.1256    5951.1021      -0.0234
    3772.0    4936.0250 1440603.0000    3657.5227     121.9432     122.4526      -0.0169    5955.2699    5955.2530     122.5186          6      84.0725      -0.0207    5953.6650    5953.6443    5951.1637    5951.1401      -0.0236
    3773.0    4826.4600 1440603.0000    3657.5227     121.9433     122.4528      -0.0143    5955.2829    5955.2685     122.5184          6      85.0725      -0.0225    5953.6860    5953.6634    5951.1600    5951.1361      -0.0238
    3774.0    4724.4175 1440603.0000    3657.5227     121.9425     122.4521      -0.0130    5955.4123    5955.3992     122.5182          6      86.0725      -0.0239    5953.8151    5953.7912    5951.2026    5951.1787      -0.0241
    3775.0    4651.3325 1440603.0000    3657.5227     121.9411     122.4513      -0.0145    5955.4341    5955.4197     122.5183          6      87.0725      -0.0248    5953.8233    5953.7984    5951.3601    5951.3356      -0.0246
    3776.0    4633.7700 1440603.0000    3657.5227     121.9414     122.4505      -0.0181    5955.5499    5955.5317     122.5182          6      88.0725      -0.0253    5953.9060    5953.8806    5951.4433    5951.4184      -0.0249
    3777.0    4691.6425 1440603.0000    3657.5227     121.9416     122.4516      -0.0213    5955.6677    5955.6463     122.5181          6      89.0725      -0.0252    5954.0688    5954.0434    5951.4745    5951.4491      -0.0252
    3778.0    4822.7575 1440603.0000    3657.5227     121.9400     122.4505      -0.0235    5955.6348    5955.6112     122.5181          6      90.0725      -0.0244    5953.9477    5953.9234    5951.4342    5951.4087      -0.0256
    3779.0    4926.7850 1440603.0000    3657.5227     121.9391     122.4506      -0.0258    5955.5764    5955.5504     122.5178          6      91.0725      -0.0236    5953.7733    5953.7496    5951.3175    5951.2916      -0.0261
    3780.0    4988.3625 1440603.0000    3657.5227     121.9391     122.4498      -0.0280    5955.2795    5955.2517     122.5179          6      92.0725      -0.0229    5953.5254    5953.5024    5951.0965    5951.0702      -0.0262
    3781.0    4990.6800 1440603.0000    3657.5227     121.9391     122.4482      -0.0286    5955.1633    5955.1346     122.5178          6      93.0725      -0.0219    5953.5208    5953.4988    5951.0321    5951.0058      -0.0262
    3782.0    4952.6625 1440603.0000    3657.5227     121.9391     122.4481      -0.0269    5955.1572    5955.1304     122.5176          6      94.0725      -0.0214    5953.4508    5953.4293    5950.9845    5950.9586      -0.0260
    3783.0    4838.8950 1440603.0000    3657.5227     121.9383     122.4482      -0.0233    5955.0725    5955.0490     122.5179          6      95.0725      -0.0218    5953.5255    5953.5036    5951.0029    5950.9770      -0.0258
    3784.0    4741.9825 1440603.0000    3657.5227     121.9379     122.4465      -0.0194    5955.1597    5955.1404     122.5177          6      96.0725      -0.0222    5953.5922    5953.5701    5951.1472    5951.1213      -0.0259
    3785.0    4662.2450 1440603.0000    3657.5227     121.9377     122.4460      -0.0162    5955.3362    5955.3201     122.5175          6      97.0725      -0.0226    5953.8113    5953.7889    5951.3095    5951.2832      -0.0262
    3786.0    4627.4350 1440603.0000    3657.5227     121.9366     122.4482      -0.0150    5955.4917    5955.4766     122.5174          6      98.0725      -0.0233    5953.8829    5953.8595    5951.4000    5951.3736      -0.0265
    3787.0    4638.8000 1440603.0000    3657.5227     121.9362     122.4458      -0.0167    5955.5996    5955.5827     122.5172          6      99.0725      -0.0245    5953.9405    5953.9159    5951.4783    5951.4515      -0.0267
    3788.0    4721.1925 1440603.0000    3657.5227     121.9370     122.4455      -0.0198    5955.6425    5955.6227     122.5172          6     100.0725      -0.0246    5953.9446    5953.9200    5951.4863    5951.4595      -0.0268
    3789.0    4831.6550 1440603.0000    3657.5227     121.9360     122.4461      -0.0217    5955.4798    5955.4583     122.5170          6     101.0725      -0.0235    5953.8210    5953.7975    5951.3461    5951.3193      -0.0267
    3790.0    4907.1900 1440603.0000    3657.5227     121.9357     122.4460      -0.0218    5955.3558    5955.3339     122.5171          6     102.0725      -0.0227    5953.7341    5953.7113    5951.2301    5951.2037      -0.0264
    3791.0    4948.7250 1440603.0000    3657.5227     121.9347     122.4437      -0.0223    5955.3247    5955.3022     122.5169          6     103.0725      -0.0225    5953.6725    5953.6500    5951.1763    5951.1502      -0.0261
    3792.0    4956.8400 1440603.0000    3657.5227     121.9350     122.4431      -0.0233    5955.1987    5955.1753     122.5166          6     104.0725      -0.0227    5953.5447    5953.5222    5951.0759    5951.0501      -0.0261
