~VERSION INFORMATION
VERS.           2.0   :CWLS Log ASCII Standard - VERSION 2.0
WRAP.           NO    :One Line per depth step
PROD.  Schlumberger   :LAS Producer
PROG.  DLIS to ASCII 2.2                               :LAS Program name and version
CREA.        2020/10/30 12:18                          :LAS Creation date {YYYY/MM/DD hh:mm}
SOURCE.     XPT_HRLA_TLD_MCFL_049LTP.DLIS              :DLIS File Name
FILE-ID.     XPT_HRLA_TLD_MCFL_049LTP                  :File Identification Number
#--------------------------------------------------
~WELL INFORMATION
#MNEM.UNIT      DATA             DESCRIPTION
#---- ------ --------------   -----------------------------
STRT .S          815.0       :START TIME      
STOP .S         1341.0       :STOP TIME      
STEP .S            1.0       :STEP     
NULL .          -999.25      :NULL VALUE
COMP .        Nexus Energy                             :COMPANY
WELL .        Crux-3                                   :WELL
FLD  .        Crux                                     :FIELD
LOC  .        Easting: 656981.7mE                      :LOCATION
CNTY .        Sedco-703                                :COUNTY
STAT .        Northern Territory                       :STATE
CTRY .        Australia                                :COUNTRY
API  .                                                 :API NUMBER
UWI  .                                                 :UNIQUE WELL ID
DATE .        31-Dec-2007                              :LOG DATE {DD-MMM-YYYY}
SRVC .        Schlumberger                             :SERVICE COMPANY
LATI .DEG     12*57'32.63" S                           :LATITUDE
LONG .DEG     124*26'50.07" E                          :LONGITUDE
GDAT .                                                 :GeoDetic Datum
#-----------------------------------------------------------------------------
~PARAMETER INFORMATION
#MNEM.UNIT    VALUE                      DESCRIPTION
#---- -----   --------------------       ------------------------
RUN  .          1                        :RUN NUMBER
PDAT .        LAT                        :Permanent Datum
EPD  .M           0.000000               :Elevation of Permanent Datum above Mean Sea Level
EPD  .M           0.000000               :Elevation of tool zero above Mean Sea Level
LMF  .          DF                       :Logging Measured From (Name of Logging Elevation Reference)
APD  .M          26.400000               :Elevation of Depth Reference (LMF) above Permanent Datum
#-----------------------------------------------------------------------------
~CURVE INFORMATION
#MNEM.UNIT   API CODE                                  DESCRIPTION
#---- -----  --------                                  -----------------------
TIME .S                                                :TIME {F10.1}
TENS_SL.LBF                                            :Cable Tension {F13.4}
DEPT_SL..1IN                                           :Station logging depth {F13.4}
PDEP_XPT.M                                             :XPT Probe Depth {F13.4}
MTEP_SAP.DEGC                                          :Sapphire Gauge Manometer Temperature {F13.4}
MTEP_HYD.DEGC                                          :Hydrostatic Sapphire Gauge Manometer Temperature {F13.4}
PCO_HYD.PSI                                            :Hydrostatic Sapphire Dynamic Compensation {F13.4}
PND_HYD.PSI                                            :Hydrostatic Sapphire Pressure Without Dynamic Compensation {F13.4}
CP_HYD.PSI                                             :Hydrostatic Sapphire Pressure With Dynamic Compensation {F13.4}
MTEP_QG.DEGC                                           :CQG Manometer Temperature {F13.4}
PTNO_XPT.                                              :XPT Pretest Number {I11}
ETIM_XPT.S                                             :Elapsed Logging Time {F13.4}
PCO_SAP.PSI                                            :Sapphire Dynamic Compensation {F13.4}
PND_SAP.PSI                                            :Sapphire Pressure Without Dynamic Compensation {F13.4}
CP_SAP.PSI                                             :Sapphire Pressure With Dynamic Compensation {F13.4}
QNDP .PSI                                              :CQG Pressure Without Dynamic Compensation {F13.4}
QCP  .PSI                                              :CQG Pressure With Dynamic Compensation {F13.4}
QPCO .PSI                                              :CQG Dynamic Compensation {F13.4}
#-----------------------------------------------------------------------------
# 
#     TIME      TENS_SL      DEPT_SL      PDEP_XPT     MTEP_SAP     MTEP_HYD     PCO_HYD      PND_HYD       CP_HYD      MTEP_QG       PTNO_XPT       ETIM_XPT     PCO_SAP      PND_SAP       CP_SAP        QNDP         QCP          QPCO
#
~A  
# ...
     955.0    4642.5906 1451040.0000    3684.0325     122.2600     122.8460       0.0172    5998.5174    5998.5349     122.7739         13     140.4819       0.3758    5529.6663    5530.0421    5525.8891    5525.9833       0.0943
     956.0    4653.0106 1451040.0000    3684.0325     122.2646     122.8459       0.0161    5998.4139    5998.4300     122.7740         13     141.4819       0.2713    5531.0041    5531.2752    5527.3472    5527.4867       0.1395
     957.0    4693.0212 1451040.0000    3684.0325     122.2652     122.8457       0.0152    5998.4111    5998.4263     122.7749         13     142.4819       0.1783    5531.7565    5531.9347    5528.1569    5528.3315       0.1745
     958.0    4743.6481 1451040.0000    3684.0325     122.2689     122.8469       0.0157    5998.4618    5998.4775     122.7755         13     143.4819       0.1166    5532.2712    5532.3878    5528.7532    5528.9698       0.2167
     959.0    4773.7825 1451040.0000    3684.0325     122.2691     122.8469       0.0166    5998.3803    5998.3970     122.7764         13     144.4819       0.0827    5532.5377    5532.6204    5529.1553    5529.4141       0.2588
     960.0    4763.6163 1451040.0000    3684.0325     122.2719     122.8468       0.0161    5998.3667    5998.3828     122.7770         13     145.4819       0.0643    5532.7760    5532.8403    5529.4265    5529.7161       0.2894
     961.0    4715.1600 1451040.0000    3684.0325     122.2707     122.8471       0.0143    5998.3667    5998.3812     122.7786         13     146.4819       0.0537    5532.9394    5532.9931    5529.6707    5529.9786       0.3080
     962.0    4672.3625 1451040.0000    3684.0325     122.2729     122.8484       0.0136    5998.4089    5998.4226     122.7795         13     147.4819       0.0483    5533.1596    5533.2078    5529.9190    5530.2375       0.3186
     963.0    4655.7356 1451040.0000    3684.0325     122.2720     122.8479       0.0153    5998.3750    5998.3901     122.7807         13     148.4819       0.0469    5533.4025    5533.4494    5530.1351    5530.4582       0.3230
     964.0    4665.8656 1451040.0000    3684.0325     122.2715     122.8479       0.0176    5998.4346    5998.4523     122.7814         13     149.4819       0.0465    5533.3611    5533.4075    5530.3175    5530.6401       0.3226
     965.0    4730.2600 1451040.0000    3684.0325     122.2728     122.8473       0.0192    5998.4727    5998.4920     122.7826         13     150.4819       0.0453    5533.5575    5533.6029    5530.4804    5530.7998       0.3194
     966.0    4778.0725 1451040.0000    3684.0325     122.2730     122.8479       0.0201    5998.4350    5998.4551     122.7837         13     151.4819       0.0425    5533.7052    5533.7477    5530.6312    5530.9457       0.3146
     967.0    4764.9169 1451040.0000    3684.0325     122.2765     122.8502       0.0204    5998.4585    5998.4789     122.7845         13     152.4819       0.0396    5533.8739    5533.9136    5530.7775    5531.0857       0.3083
     968.0    4752.0363 1451040.0000    3684.0325     122.2766     122.8501       0.0185    5998.2862    5998.3047     122.7855         13     153.4819       0.0367    5534.0247    5534.0612    5530.9056    5531.2067       0.3009
     969.0    4713.4137 1451040.0000    3684.0325     122.2753     122.8502       0.0145    5998.3371    5998.3518     122.7866         13     154.4819       0.0323    5534.1520    5534.1844    5530.9983    5531.2918       0.2935
     970.0    4667.6994 1451040.0000    3684.0325     122.2778     122.8496       0.0116    5998.3332    5998.3448     122.7875         13     155.4819       0.0274    5534.2319    5534.2593    5531.1030    5531.3901       0.2868
     971.0    4659.1088 1451040.0000    3684.0325     122.2754     122.8507       0.0116    5998.4123    5998.4238     122.7886         13     156.4819       0.0235    5534.2279    5534.2513    5531.1843    5531.4648       0.2805
     972.0    4646.3625 1451040.0000    3684.0325     122.2802     122.8502       0.0132    5998.5131    5998.5263     122.7892         13     157.4819       0.0215    5534.3089    5534.3305    5531.2477    5531.5218       0.2742
     973.0    4641.3006 1451040.0000    3684.0325     122.2775     122.8490       0.0138    5998.4024    5998.4161     122.7902         13     158.4819       0.0180    5534.3940    5534.4122    5531.3129    5531.5810       0.2683
     974.0    4699.5244 1451040.0000    3684.0325     122.2783     122.8517       0.0138    5998.4507    5998.4643     122.7913         13     159.4819       0.0123    5534.3964    5534.4087    5531.3653    5531.6281       0.2629
     975.0    4757.4456 1451040.0000    3684.0325     122.2791     122.8524       0.0144    5998.3680    5998.3821     122.7919         13     160.4819       0.0090    5534.4776    5534.4865    5531.4094    5531.6668       0.2575
     976.0    4770.0831 1451040.0000    3684.0325     122.2801     122.8522       0.0147    5998.4476    5998.4623     122.7928         13     161.4819       0.0120    5534.4229    5534.4350    5531.4528    5531.7043       0.2516
     977.0    4778.1450 1451040.0000    3684.0325     122.2781     122.8520       0.0140    5998.2384    5998.2523     122.7935         13     162.4819       0.0188    5534.4880    5534.5068    5531.4850    5531.7307       0.2458
     978.0    4774.4819 1451040.0000    3684.0325     122.2779     122.8509       0.0135    5998.2275    5998.2412     122.7944         13     163.4819       0.0239    5534.5305    5534.5543    5531.5071    5531.7479       0.2407
     979.0    4752.8337 1451040.0000    3684.0325     122.2774     122.8519       0.0150    5998.2375    5998.2524     122.7954         13     164.4819       0.0270    5534.5151    5534.5422    5531.5327    5531.7691       0.2363
     980.0    4693.8231 1451040.0000    3684.0325     122.2822     122.8524       0.0182    5998.2914    5998.3096     122.7958         13     165.4819       0.0305    5534.5915    5534.6219    5531.5483    5531.7808       0.2325
     981.0    4650.6994 1451040.0000    3684.0325     122.2808     122.8536       0.0210    5998.4700    5998.4910     122.7967         13     166.4819       0.0339    5534.5617    5534.5953    5531.5609    5531.7899       0.2291
     982.0    4652.7100 1451040.0000    3684.0325     122.2821     122.8526       0.0216    5998.4576    5998.4791     122.7975         13     167.4819       0.0340    5534.5836    5534.6176    5531.5640    5531.7899       0.2261
     983.0    4663.4094 1451040.0000    3684.0325     122.2817     122.8543       0.0206    5998.5856    5998.6063     122.7981         13     168.4819       0.0312    5534.5755    5534.6067    5531.5792    5531.8023       0.2232
     984.0    4679.0106 1451040.0000    3684.0325     122.2834     122.8539       0.0193    5998.5256    5998.5451     122.7987         13     169.4819       0.0282    5534.6924    5534.7207    5531.5908    5531.8111       0.2202
     985.0    4731.5500 1451040.0000    3684.0325     122.2838     122.8549       0.0188    5998.5682    5998.5867     122.7994         13     170.4819       0.0267    5534.6344    5534.6611    5531.5912    5531.8087       0.2173
     986.0    4753.7250 1451040.0000    3684.0325     122.2835     122.8541       0.0182    5998.4511    5998.4691     122.8001         13     171.4819       0.0261    5534.6040    5534.6301    5531.6003    5531.8146       0.2143
     987.0    4733.4819 1451040.0000    3684.0325     122.2865     122.8555       0.0167    5998.3033    5998.3200     122.8007         13     172.4819       0.0245    5534.7449    5534.7694    5531.6053    5531.8167       0.2114
     988.0    4752.7931 1451040.0000    3684.0325     122.2841     122.8552       0.0141    5998.1741    5998.1881     122.8015         13     173.4819       0.0198    5534.6723    5534.6922    5531.6021    5531.8108       0.2086
     989.0    4757.5800 1451040.0000    3684.0325     122.2845     122.8559       0.0116    5998.2201    5998.2317     122.8023         13     174.4819       0.0135    5534.6251    5534.6385    5531.6096    5531.8158       0.2061
