~VERSION INFORMATION
VERS.           2.0   :CWLS Log ASCII Standard - VERSION 2.0
WRAP.           NO    :One Line per depth step
PROD.  Schlumberger   :LAS Producer
PROG.  DLIS to ASCII 2.2                               :LAS Program name and version
CREA.        2020/10/30 12:18                          :LAS Creation date {YYYY/MM/DD hh:mm}
SOURCE.     XPT_HRLA_TLD_MCFL_066LTP.DLIS              :DLIS File Name
FILE-ID.     XPT_HRLA_TLD_MCFL_066LTP                  :File Identification Number
#--------------------------------------------------
~WELL INFORMATION
#MNEM.UNIT      DATA             DESCRIPTION
#---- ------ --------------   -----------------------------
STRT .S         3575.0       :START TIME      
STOP .S         3949.0       :STOP TIME      
STEP .S            1.0       :STEP     
NULL .          -999.25      :NULL VALUE
COMP .        Nexus Energy                             :COMPANY
WELL .        Crux-3                                   :WELL
FLD  .        Crux                                     :FIELD
LOC  .        Easting: 656981.7mE                      :LOCATION
CNTY .        Sedco-703                                :COUNTY
STAT .        Northern Territory                       :STATE
CTRY .        Australia                                :COUNTRY
API  .                                                 :API NUMBER
UWI  .                                                 :UNIQUE WELL ID
DATE .        31-Dec-2007                              :LOG DATE {DD-MMM-YYYY}
SRVC .        Schlumberger                             :SERVICE COMPANY
LATI .DEG     12*57'32.63" S                           :LATITUDE
LONG .DEG     124*26'50.07" E                          :LONGITUDE
GDAT .                                                 :GeoDetic Datum
#-----------------------------------------------------------------------------
~PARAMETER INFORMATION
#MNEM.UNIT    VALUE                      DESCRIPTION
#---- -----   --------------------       ------------------------
RUN  .          1                        :RUN NUMBER
PDAT .        LAT                        :Permanent Datum
EPD  .M           0.000000               :Elevation of Permanent Datum above Mean Sea Level
EPD  .M           0.000000               :Elevation of tool zero above Mean Sea Level
LMF  .          DF                       :Logging Measured From (Name of Logging Elevation Reference)
APD  .M          26.400000               :Elevation of Depth Reference (LMF) above Permanent Datum
#-----------------------------------------------------------------------------
~CURVE INFORMATION
#MNEM.UNIT   API CODE                                  DESCRIPTION
#---- -----  --------                                  -----------------------
TIME .S                                                :TIME {F10.1}
TENS_SL.LBF                                            :Cable Tension {F13.4}
DEPT_SL..1IN                                           :Station logging depth {F13.4}
PDEP_XPT.M                                             :XPT Probe Depth {F13.4}
MTEP_SAP.DEGC                                          :Sapphire Gauge Manometer Temperature {F13.4}
MTEP_HYD.DEGC                                          :Hydrostatic Sapphire Gauge Manometer Temperature {F13.4}
PCO_HYD.PSI                                            :Hydrostatic Sapphire Dynamic Compensation {F13.4}
PND_HYD.PSI                                            :Hydrostatic Sapphire Pressure Without Dynamic Compensation {F13.4}
CP_HYD.PSI                                             :Hydrostatic Sapphire Pressure With Dynamic Compensation {F13.4}
MTEP_QG.DEGC                                           :CQG Manometer Temperature {F13.4}
PTNO_XPT.                                              :XPT Pretest Number {I11}
ETIM_XPT.S                                             :Elapsed Logging Time {F13.4}
PCO_SAP.PSI                                            :Sapphire Dynamic Compensation {F13.4}
PND_SAP.PSI                                            :Sapphire Pressure Without Dynamic Compensation {F13.4}
CP_SAP.PSI                                             :Sapphire Pressure With Dynamic Compensation {F13.4}
QNDP .PSI                                              :CQG Pressure Without Dynamic Compensation {F13.4}
QCP  .PSI                                              :CQG Pressure With Dynamic Compensation {F13.4}
QPCO .PSI                                              :CQG Dynamic Compensation {F13.4}
#-----------------------------------------------------------------------------
# 
#     TIME      TENS_SL      DEPT_SL      PDEP_XPT     MTEP_SAP     MTEP_HYD     PCO_HYD      PND_HYD       CP_HYD      MTEP_QG       PTNO_XPT       ETIM_XPT     PCO_SAP      PND_SAP       CP_SAP        QNDP         QCP          QPCO
#
~A  
# ...
    3610.0    4980.5290 1556924.0000    3952.9780     132.4428     133.0045       0.0121    6424.6371    6424.6493     132.2139         29      35.4710       0.0216    6422.3089    6422.3304    6418.9348    6419.5498       0.6149
    3611.0    4975.2900 1556924.0000    3952.9780     132.4432     133.0055       0.0124    6424.5606    6424.5728     132.2157         29      36.4710       0.0221    6422.2882    6422.3105    6418.9617    6419.5744       0.6127
    3612.0    4995.9050 1556924.0000    3952.9780     132.4442     133.0053       0.0126    6424.6729    6424.6856     132.2175         29      37.4710       0.0225    6422.2033    6422.2257    6418.9534    6419.5633       0.6102
    3613.0    5053.2600 1556924.0000    3952.9780     132.4428     133.0051       0.0119    6424.6580    6424.6701     132.2193         29      38.4710       0.0227    6422.2992    6422.3218    6418.9373    6419.5451       0.6079
    3614.0    5103.8400 1556924.0000    3952.9780     132.4442     133.0061       0.0113    6424.6196    6424.6309     132.2211         29      39.4710       0.0239    6422.2420    6422.2660    6418.9350    6419.5419       0.6070
    3615.0    5113.2250 1556924.0000    3952.9780     132.4431     133.0045       0.0112    6424.6700    6424.6813     132.2229         29      40.4710       0.0263    6422.2233    6422.2496    6418.9561    6419.5635       0.6073
    3616.0    5091.9930 1556924.0000    3952.9780     132.4456     133.0065       0.0116    6424.6435    6424.6552     132.2248         29      41.4710       0.0282    6422.2933    6422.3216    6418.8893    6419.4972       0.6078
    3617.0    5103.7240 1556924.0000    3952.9780     132.4443     133.0064       0.0122    6424.5355    6424.5477     132.2269         29      42.4710       0.0287    6422.1781    6422.2069    6418.8923    6419.5003       0.6079
    3618.0    5127.0000 1556924.0000    3952.9780     132.4464     133.0064       0.0124    6424.6452    6424.6574     132.2287         29      43.4710       0.0286    6422.3253    6422.3541    6418.9278    6419.5352       0.6073
    3619.0    5097.7980 1556924.0000    3952.9780     132.4484     133.0072       0.0126    6424.7271    6424.7397     132.2303         29      44.4710       0.0287    6422.2673    6422.2960    6418.9537    6419.5597       0.6060
    3620.0    5032.0300 1556924.0000    3952.9780     132.4470     133.0059       0.0132    6424.6696    6424.6828     132.2326         29      45.4710       0.0274    6422.2615    6422.2891    6418.9951    6419.5994       0.6042
    3621.0    5011.4850 1556924.0000    3952.9780     132.4467     133.0073       0.0137    6424.6727    6424.6863     132.2345         29      46.4710       0.0236    6422.2171    6422.2406    6418.9864    6419.5885       0.6022
    3622.0    5028.5870 1556924.0000    3952.9780     132.4490     133.0077       0.0133    6424.7694    6424.7826     132.2360         29      47.4710       0.0182    6422.3607    6422.3789    6419.0676    6419.6676       0.5999
    3623.0    5009.5730 1556924.0000    3952.9780     132.4484     133.0077       0.0119    6424.7793    6424.7912     132.2380         29      48.4710       0.0140    6422.3615    6422.3756    6419.0885    6419.6867       0.5982
    3624.0    4981.0510 1556924.0000    3952.9780     132.4482     133.0094       0.0104    6424.7538    6424.7641     132.2399         29      49.4710       0.0129    6422.2976    6422.3107    6419.0328    6419.6295       0.5967
    3625.0    5017.1580 1556924.0000    3952.9780     132.4476     133.0081       0.0086    6424.7585    6424.7671     132.2417         29      50.4710       0.0152    6422.2533    6422.2686    6419.0027    6419.5978       0.5952
    3626.0    5078.4200 1556924.0000    3952.9780     132.4485     133.0076       0.0060    6424.6351    6424.6411     132.2436         29      51.4710       0.0187    6422.1815    6422.2002    6418.9604    6419.5544       0.5938
    3627.0    5077.2250 1556924.0000    3952.9780     132.4465     133.0087       0.0043    6424.7387    6424.7431     132.2458         29      52.4710       0.0220    6422.1622    6422.1841    6418.9644    6419.5567       0.5922
    3628.0    5079.5430 1556924.0000    3952.9780     132.4483     133.0081       0.0057    6424.4983    6424.5039     132.2468         29      53.4710       0.0246    6422.0613    6422.0860    6418.8125    6419.4033       0.5908
    3629.0    5095.1160 1556924.0000    3952.9780     132.4513     133.0087       0.0095    6424.4399    6424.4496     132.2489         29      54.4710       0.0276    6422.0973    6422.1249    6418.8489    6419.4388       0.5897
    3630.0    5088.2900 1556924.0000    3952.9780     132.4522     133.0087       0.0130    6424.6171    6424.6302     132.2509         29      55.4710       0.0299    6422.2362    6422.2660    6418.9063    6419.4952       0.5890
    3631.0    5036.8420 1556924.0000    3952.9780     132.4507     133.0085       0.0139    6424.6386    6424.6526     132.2523         29      56.4710       0.0301    6422.2753    6422.3055    6418.9773    6419.5652       0.5878
    3632.0    5008.0790 1556924.0000    3952.9780     132.4518     133.0103       0.0137    6424.6382    6424.6519     132.2543         29      57.4710       0.0286    6422.3001    6422.3286    6419.0409    6419.6275       0.5866
    3633.0    5031.1740 1556924.0000    3952.9780     132.4521     133.0102       0.0135    6424.6396    6424.6533     132.2562         29      58.4710       0.0281    6422.2721    6422.3004    6419.0832    6419.6676       0.5847
    3634.0    5010.1020 1556924.0000    3952.9780     132.4529     133.0101       0.0133    6424.8178    6424.8310     132.2579         29      59.4710       0.0283    6422.3681    6422.3964    6419.1200    6419.7015       0.5818
    3635.0    4992.3550 1556924.0000    3952.9780     132.4537     133.0101       0.0126    6424.7400    6424.7524     132.2597         29      60.4710       0.0271    6422.3023    6422.3294    6419.0579    6419.6364       0.5785
    3636.0    5031.2670 1556924.0000    3952.9780     132.4543     133.0099       0.0110    6424.6950    6424.7062     132.2618         29      61.4710       0.0232    6422.3002    6422.3232    6418.9931    6419.5688       0.5758
    3637.0    5106.3830 1556924.0000    3952.9780     132.4542     133.0104       0.0099    6424.6464    6424.6562     132.2631         29      62.4710       0.0196    6422.3087    6422.3285    6419.0031    6419.5778       0.5747
    3638.0    5142.1740 1556924.0000    3952.9780     132.4553     133.0097       0.0098    6424.6499    6424.6596     132.2651         29      63.4710       0.0189    6422.2530    6422.2720    6419.0279    6419.6023       0.5746
    3639.0    5107.4430 1556924.0000    3952.9780     132.4535     133.0126       0.0109    6424.7303    6424.7411     132.2668         29      64.4710       0.0197    6422.1908    6422.2103    6418.9358    6419.5100       0.5742
    3640.0    5062.1090 1556924.0000    3952.9780     132.4544     133.0104       0.0120    6424.5046    6424.5168     132.2683         29      65.4710       0.0199    6422.1981    6422.2180    6418.8954    6419.4691       0.5737
    3641.0    5043.4640 1556924.0000    3952.9780     132.4556     133.0106       0.0121    6424.5812    6424.5934     132.2703         29      66.4710       0.0187    6422.2772    6422.2959    6418.9794    6419.5516       0.5721
    3642.0    5018.5150 1556924.0000    3952.9780     132.4567     133.0107       0.0119    6424.6430    6424.6548     132.2720         29      67.4710       0.0156    6422.2826    6422.2984    6419.0108    6419.5752       0.5645
    3643.0    4991.5220 1556924.0000    3952.9780     132.4569     133.0118       0.0124    6424.7158    6424.7281     132.2738         29      68.4710       0.0053    6422.3303    6422.3355    6419.0078    6419.5515       0.5437
    3644.0    4997.5430 1556924.0000    3952.9780     132.4568     133.0124       0.0145    6424.7300    6424.7444     132.2757         29      69.4710      -0.0164    6422.2983    6422.2821    6419.0904    6419.5981       0.5077
