~VERSION INFORMATION
VERS.           2.0   :CWLS Log ASCII Standard - VERSION 2.0
WRAP.           NO    :One Line per depth step
PROD.  Schlumberger   :LAS Producer
PROG.  DLIS to ASCII 2.2                               :LAS Program name and version
CREA.        2020/10/30 12:18                          :LAS Creation date {YYYY/MM/DD hh:mm}
SOURCE.     XPT_HRLA_TLD_MCFL_063LTP.DLIS              :DLIS File Name
FILE-ID.     XPT_HRLA_TLD_MCFL_063LTP                  :File Identification Number
#--------------------------------------------------
~WELL INFORMATION
#MNEM.UNIT      DATA             DESCRIPTION
#---- ------ --------------   -----------------------------
STRT .S          150.0       :START TIME      
STOP .S          316.0       :STOP TIME      
STEP .S            1.0       :STEP     
NULL .          -999.25      :NULL VALUE
COMP .        Nexus Energy                             :COMPANY
WELL .        Crux-3                                   :WELL
FLD  .        Crux                                     :FIELD
LOC  .        Easting: 656981.7mE                      :LOCATION
CNTY .        Sedco-703                                :COUNTY
STAT .        Northern Territory                       :STATE
CTRY .        Australia                                :COUNTRY
API  .                                                 :API NUMBER
UWI  .                                                 :UNIQUE WELL ID
DATE .        31-Dec-2007                              :LOG DATE {DD-MMM-YYYY}
SRVC .        Schlumberger                             :SERVICE COMPANY
LATI .DEG     12*57'32.63" S                           :LATITUDE
LONG .DEG     124*26'50.07" E                          :LONGITUDE
GDAT .                                                 :GeoDetic Datum
#-----------------------------------------------------------------------------
~PARAMETER INFORMATION
#MNEM.UNIT    VALUE                      DESCRIPTION
#---- -----   --------------------       ------------------------
RUN  .          1                        :RUN NUMBER
PDAT .        LAT                        :Permanent Datum
EPD  .M           0.000000               :Elevation of Permanent Datum above Mean Sea Level
EPD  .M           0.000000               :Elevation of tool zero above Mean Sea Level
LMF  .          DF                       :Logging Measured From (Name of Logging Elevation Reference)
APD  .M          26.400000               :Elevation of Depth Reference (LMF) above Permanent Datum
#-----------------------------------------------------------------------------
~CURVE INFORMATION
#MNEM.UNIT   API CODE                                  DESCRIPTION
#---- -----  --------                                  -----------------------
TIME .S                                                :TIME {F10.1}
TENS_SL.LBF                                            :Cable Tension {F13.4}
DEPT_SL..1IN                                           :Station logging depth {F13.4}
PDEP_XPT.M                                             :XPT Probe Depth {F13.4}
MTEP_SAP.DEGC                                          :Sapphire Gauge Manometer Temperature {F13.4}
MTEP_HYD.DEGC                                          :Hydrostatic Sapphire Gauge Manometer Temperature {F13.4}
PCO_HYD.PSI                                            :Hydrostatic Sapphire Dynamic Compensation {F13.4}
PND_HYD.PSI                                            :Hydrostatic Sapphire Pressure Without Dynamic Compensation {F13.4}
CP_HYD.PSI                                             :Hydrostatic Sapphire Pressure With Dynamic Compensation {F13.4}
MTEP_QG.DEGC                                           :CQG Manometer Temperature {F13.4}
PTNO_XPT.                                              :XPT Pretest Number {I11}
ETIM_XPT.S                                             :Elapsed Logging Time {F13.4}
PCO_SAP.PSI                                            :Sapphire Dynamic Compensation {F13.4}
PND_SAP.PSI                                            :Sapphire Pressure Without Dynamic Compensation {F13.4}
CP_SAP.PSI                                             :Sapphire Pressure With Dynamic Compensation {F13.4}
QNDP .PSI                                              :CQG Pressure Without Dynamic Compensation {F13.4}
QCP  .PSI                                              :CQG Pressure With Dynamic Compensation {F13.4}
QPCO .PSI                                              :CQG Dynamic Compensation {F13.4}
#-----------------------------------------------------------------------------
# 
#     TIME      TENS_SL      DEPT_SL      PDEP_XPT     MTEP_SAP     MTEP_HYD     PCO_HYD      PND_HYD       CP_HYD      MTEP_QG       PTNO_XPT       ETIM_XPT     PCO_SAP      PND_SAP       CP_SAP        QNDP         QCP          QPCO
#
~A  
     150.0    5122.6929 1528190.0000    3879.9937     129.5929     130.0959       0.0000    6308.7072    6308.7072     130.2882         26       0.3493       0.0000    6306.2396    6306.2396    6304.2792    6304.2792       0.0000
     151.0    5071.1239 1528190.0000    3879.9937     129.5908     130.0928       0.0000    6308.7341    6308.7341     130.2879         26       1.3493       0.0000    6306.2288    6306.2288    6304.3299    6304.3299       0.0000
     152.0    5067.5127 1528190.0000    3879.9937     129.5902     130.0934       0.0000    6308.8016    6308.8016     130.2874         26       2.3493       0.0000    6306.2582    6306.2582    6304.3874    6304.3874       0.0000
     153.0    5105.1437 1528190.0000    3879.9937     129.5883     130.0924       0.0000    6309.0254    6309.0254     130.2872         26       3.3493       0.0000    6306.5468    6306.5468    6304.7387    6304.7387       0.0000
     154.0    5103.3155 1528190.0000    3879.9937     129.5873     130.0909       0.0000    6309.1370    6309.1370     130.2867         26       4.3493       0.0000    6306.6305    6306.6305    6304.8350    6304.8350       0.0000
     155.0    5092.1437 1528190.0000    3879.9937     129.5877     130.0914       0.0000    6309.0924    6309.0924     130.2864         26       5.3493       0.0000    6306.6609    6306.6609    6304.8039    6304.8039       0.0000
     156.0    5101.8423 1528190.0000    3879.9937     129.5872     130.0883      -0.0512    6309.1695    6309.1183     130.2860         26       6.3493      -0.0404    6306.6971    6306.6567    6304.8220    6304.7063      -0.1156
     157.0    5115.2873 1528190.0000    3879.9937     129.5863     130.0880      -0.0513    6309.1822    6309.1312     130.2857         26       7.3493      -0.0411    6306.5761    6306.5351    6304.8047    6304.6889      -0.1155
     158.0    5133.2873 1528190.0000    3879.9937     129.5850     130.0868      -0.0534    6309.2542    6309.2006     130.2851         26       8.3493      -0.0438    6306.6533    6306.6095    6304.8342    6304.7180      -0.1160
     159.0    5151.9859 1528190.0000    3879.9937     129.5849     130.0870      -0.0556    6309.2383    6309.1826     130.2847         26       9.3493      -0.0456    6306.5969    6306.5515    6304.7916    6304.6744      -0.1173
     160.0    5165.3493 1528190.0000    3879.9937     129.5848     130.0860      -0.0560    6309.2652    6309.2092     130.2847         26      10.3493      -0.0459    6306.6970    6306.6511    6304.8591    6304.7407      -0.1185
     161.0    5162.8563 1528190.0000    3879.9937     129.5828     130.0848      -0.0554    6309.2580    6309.2028     130.2840         26      11.3493      -0.0458    6306.8018    6306.7559    6304.8927    6304.7723      -0.1203
     162.0    5159.7944 1528190.0000    3879.9937     129.5821     130.0832      -0.0541    6309.2355    6309.1813     130.2836         26      12.3493      -0.0445    6306.6644    6306.6200    6304.8306    6304.7080      -0.1225
     163.0    5156.6169 1528190.0000    3879.9937     129.5807     130.0818      -0.0518    6309.2656    6309.2138     130.2835         26      13.3493      -0.0427    6306.6864    6306.6436    6304.8569    6304.7334      -0.1235
     164.0    5116.5492 1528190.0000    3879.9937     129.5801     130.0804      -0.0467    6309.3210    6309.2743     130.2831         26      14.3493      -0.0401    6306.6906    6306.6505    6304.8794    6304.7554      -0.1239
     165.0    5058.7746 1528190.0000    3879.9937     129.5808     130.0810      -0.0407    6309.3380    6309.2975     130.2828         26      15.3493      -0.0392    6306.6977    6306.6586    6304.8205    6304.6970      -0.1234
     166.0    5036.0000 1528190.0000    3879.9937     129.5798     130.0802      -0.0402    6309.3853    6309.3450     130.2821         26      16.3493      -0.0403    6306.6467    6306.6064    6304.8307    6304.7076      -0.1231
     167.0    5038.4451 1528190.0000    3879.9937     129.5776     130.0787      -0.0429    6309.3657    6309.3229     130.2819         26      17.3493      -0.0426    6306.7309    6306.6885    6304.8899    6304.7673      -0.1227
     168.0    5054.1775 1528190.0000    3879.9937     129.5766     130.0802      -0.0470    6309.4516    6309.4045     130.2816         26      18.3493      -0.0444    6306.6954    6306.6510    6304.9531    6304.8300      -0.1229
     169.0    5091.4170 1528190.0000    3879.9937     129.5779     130.0776      -0.0511    6309.4627    6309.4117     130.2811         26      19.3493      -0.0452    6306.9143    6306.8691    6305.0005    6304.8769      -0.1237
     170.0    5139.1155 1528190.0000    3879.9937     129.5765     130.0772      -0.0545    6309.4126    6309.3581     130.2808         26      20.3493      -0.0460    6306.8831    6306.8372    6304.9904    6304.8659      -0.1242
     171.0    5165.0620 1528190.0000    3879.9937     129.5747     130.0751      -0.0569    6309.3971    6309.3404     130.2804         26      21.3493      -0.0476    6306.8420    6306.7945    6304.9992    6304.8747      -0.1246
     172.0    5151.5549 1528190.0000    3879.9937     129.5755     130.0751      -0.0576    6309.3907    6309.3330     130.2800         26      22.3493      -0.0491    6306.8309    6306.7818    6304.9554    6304.8302      -0.1252
     173.0    5133.0281 1528190.0000    3879.9937     129.5733     130.0731      -0.0568    6309.2934    6309.2366     130.2796         26      23.3493      -0.0494    6306.7437    6306.6943    6304.8804    6304.7545      -0.1257
     174.0    5091.9802 1528190.0000    3879.9937     129.5727     130.0724      -0.0553    6309.2504    6309.1949     130.2795         26      24.3493      -0.0487    6306.8967    6306.8480    6304.9397    6304.8142      -0.1257
     175.0    5044.7887 1528190.0000    3879.9937     129.5702     130.0726      -0.0529    6309.4849    6309.4319     130.2788         26      25.3493      -0.0477    6306.8238    6306.7762    6304.9999    6304.8740      -0.1260
     176.0    5020.1775 1528190.0000    3879.9937     129.5714     130.0696      -0.0510    6309.3819    6309.3312     130.2781         26      26.3493      -0.0460    6306.8688    6306.8229    6305.0083    6304.8813      -0.1271
     177.0    5048.3352 1528190.0000    3879.9937     129.5696     130.0696      -0.0505    6309.4621    6309.4118     130.2780         26      27.3493      -0.0441    6306.8838    6306.8397    6305.1154    6304.9875      -0.1278
     178.0    5065.1437 1528190.0000    3879.9937     129.5695     130.0685      -0.0500    6309.5303    6309.4803     130.2776         26      28.3493      -0.0430    6306.9664    6306.9235    6305.1528    6305.0249      -0.1281
     179.0    5089.5127 1528190.0000    3879.9937     129.5695     130.0682      -0.0492    6309.5580    6309.5087     130.2772         26      29.3493      -0.0432    6306.9348    6306.8913    6305.0664    6304.9380      -0.1283
     180.0    5125.7465 1528190.0000    3879.9937     129.5684     130.0672      -0.0494    6309.4364    6309.3869     130.2768         26      30.3493      -0.0445    6307.0139    6306.9693    6305.0533    6304.9238      -0.1294
     181.0    5135.9859 1528190.0000    3879.9937     129.5654     130.0654      -0.0511    6309.4982    6309.4472     130.2764         26      31.3493      -0.0459    6306.8811    6306.8352    6305.0882    6304.9580      -0.1301
     182.0    5152.4930 1528190.0000    3879.9937     129.5652     130.0663      -0.0525    6309.4167    6309.3641     130.2759         26      32.3493      -0.0468    6306.7681    6306.7213    6304.9715    6304.8415      -0.1301
     183.0    5159.3493 1528190.0000    3879.9937     129.5666     130.0638      -0.0521    6309.3299    6309.2778     130.2756         26      33.3493      -0.0455    6306.8126    6306.7673    6304.9575    6304.8276      -0.1298
     184.0    5157.5549 1528190.0000    3879.9937     129.5639     130.0627      -0.0508    6309.4091    6309.3581     130.2752         26      34.3493      -0.0432    6306.8661    6306.8229    6305.0524    6304.9230      -0.1295
