~VERSION INFORMATION
VERS.           2.0   :CWLS Log ASCII Standard - VERSION 2.0
WRAP.           NO    :One Line per depth step
PROD.  Schlumberger   :LAS Producer
PROG.  DLIS to ASCII 2.2                               :LAS Program name and version
CREA.        2020/10/30 12:18                          :LAS Creation date {YYYY/MM/DD hh:mm}
SOURCE.     XPT_HRLA_TLD_MCFL_045LTP.DLIS              :DLIS File Name
FILE-ID.     XPT_HRLA_TLD_MCFL_045LTP                  :File Identification Number
#--------------------------------------------------
~WELL INFORMATION
#MNEM.UNIT      DATA             DESCRIPTION
#---- ------ --------------   -----------------------------
STRT .S         3688.0       :START TIME      
STOP .S         4251.0       :STOP TIME      
STEP .S            1.0       :STEP     
NULL .          -999.25      :NULL VALUE
COMP .        Nexus Energy                             :COMPANY
WELL .        Crux-3                                   :WELL
FLD  .        Crux                                     :FIELD
LOC  .        Easting: 656981.7mE                      :LOCATION
CNTY .        Sedco-703                                :COUNTY
STAT .        Northern Territory                       :STATE
CTRY .        Australia                                :COUNTRY
API  .                                                 :API NUMBER
UWI  .                                                 :UNIQUE WELL ID
DATE .        31-Dec-2007                              :LOG DATE {DD-MMM-YYYY}
SRVC .        Schlumberger                             :SERVICE COMPANY
LATI .DEG     12*57'32.63" S                           :LATITUDE
LONG .DEG     124*26'50.07" E                          :LONGITUDE
GDAT .                                                 :GeoDetic Datum
#-----------------------------------------------------------------------------
~PARAMETER INFORMATION
#MNEM.UNIT    VALUE                      DESCRIPTION
#---- -----   --------------------       ------------------------
RUN  .          1                        :RUN NUMBER
PDAT .        LAT                        :Permanent Datum
EPD  .M           0.000000               :Elevation of Permanent Datum above Mean Sea Level
EPD  .M           0.000000               :Elevation of tool zero above Mean Sea Level
LMF  .          DF                       :Logging Measured From (Name of Logging Elevation Reference)
APD  .M          26.400000               :Elevation of Depth Reference (LMF) above Permanent Datum
#-----------------------------------------------------------------------------
~CURVE INFORMATION
#MNEM.UNIT   API CODE                                  DESCRIPTION
#---- -----  --------                                  -----------------------
TIME .S                                                :TIME {F10.1}
TENS_SL.LBF                                            :Cable Tension {F13.4}
DEPT_SL..1IN                                           :Station logging depth {F13.4}
PDEP_XPT.M                                             :XPT Probe Depth {F13.4}
MTEP_SAP.DEGC                                          :Sapphire Gauge Manometer Temperature {F13.4}
MTEP_HYD.DEGC                                          :Hydrostatic Sapphire Gauge Manometer Temperature {F13.4}
PCO_HYD.PSI                                            :Hydrostatic Sapphire Dynamic Compensation {F13.4}
PND_HYD.PSI                                            :Hydrostatic Sapphire Pressure Without Dynamic Compensation {F13.4}
CP_HYD.PSI                                             :Hydrostatic Sapphire Pressure With Dynamic Compensation {F13.4}
MTEP_QG.DEGC                                           :CQG Manometer Temperature {F13.4}
PTNO_XPT.                                              :XPT Pretest Number {I11}
ETIM_XPT.S                                             :Elapsed Logging Time {F13.4}
PCO_SAP.PSI                                            :Sapphire Dynamic Compensation {F13.4}
PND_SAP.PSI                                            :Sapphire Pressure Without Dynamic Compensation {F13.4}
CP_SAP.PSI                                             :Sapphire Pressure With Dynamic Compensation {F13.4}
QNDP .PSI                                              :CQG Pressure Without Dynamic Compensation {F13.4}
QCP  .PSI                                              :CQG Pressure With Dynamic Compensation {F13.4}
QPCO .PSI                                              :CQG Dynamic Compensation {F13.4}
#-----------------------------------------------------------------------------
# 
#     TIME      TENS_SL      DEPT_SL      PDEP_XPT     MTEP_SAP     MTEP_HYD     PCO_HYD      PND_HYD       CP_HYD      MTEP_QG       PTNO_XPT       ETIM_XPT     PCO_SAP      PND_SAP       CP_SAP        QNDP         QCP          QPCO
#
~A  
# ...
    3933.0    4973.9275 1440603.0000    3657.5227     121.8715     122.4031      -0.0154    5955.1920    5955.1764     122.4724          7     245.0725      -0.0111    5525.0585    5525.0473    5522.3901    5522.4146       0.0244
    3934.0    4972.4925 1440603.0000    3657.5227     121.8708     122.4024      -0.0151    5955.2460    5955.2310     122.4724          7     246.0725      -0.0095    5525.0910    5525.0814    5522.3994    5522.4228       0.0233
    3935.0    4958.8950 1440603.0000    3657.5227     121.8696     122.4005      -0.0136    5955.3264    5955.3130     122.4725          7     247.0725      -0.0101    5525.0425    5525.0324    5522.3987    5522.4208       0.0220
    3936.0    4866.9125 1440603.0000    3657.5227     121.8708     122.4016      -0.0125    5955.3536    5955.3409     122.4728          7     248.0725      -0.0129    5525.1119    5525.0992    5522.3937    5522.4143       0.0208
    3937.0    4851.8400 1440603.0000    3657.5227     121.8689     122.3996      -0.0116    5955.3964    5955.3848     122.4728          7     249.0725      -0.0159    5524.9606    5524.9448    5522.3965    5522.4160       0.0195
    3938.0    4837.2900 1440603.0000    3657.5227     121.8696     122.4008      -0.0109    5955.5673    5955.5566     122.4729          7     250.0725      -0.0178    5525.0900    5525.0721    5522.4019    5522.4201       0.0183
    3939.0    4842.0875 1440603.0000    3657.5227     121.8692     122.4009      -0.0111    5955.5849    5955.5737     122.4728          7     251.0725      -0.0184    5525.0406    5525.0220    5522.4013    5522.4189       0.0176
    3940.0    4856.9425 1440603.0000    3657.5227     121.8672     122.4008      -0.0130    5955.5206    5955.5075     122.4730          7     252.0725      -0.0186    5524.9238    5524.9052    5522.4006    5522.4177       0.0171
    3941.0    4875.2350 1440603.0000    3657.5227     121.8686     122.4002      -0.0149    5955.4551    5955.4401     122.4730          7     253.0725      -0.0178    5525.0069    5524.9891    5522.3987    5522.4158       0.0170
    3942.0    4955.0725 1440603.0000    3657.5227     121.8689     122.4002      -0.0158    5955.4551    5955.4395     122.4728          7     254.0725      -0.0155    5525.1680    5525.1523    5522.4000    5522.4171       0.0170
    3943.0    4953.8250 1440603.0000    3657.5227     121.8665     122.3987      -0.0153    5955.3346    5955.3191     122.4731          7     255.0725      -0.0130    5524.9322    5524.9193    5522.3953    5522.4119       0.0166
    3944.0    4925.7825 1440603.0000    3657.5227     121.8665     122.3976      -0.0142    5955.2062    5955.1918     122.4732          7     256.0725      -0.0116    5525.0271    5525.0156    5522.3914    5522.4072       0.0158
    3945.0    4926.0450 1440603.0000    3657.5227     121.8682     122.4002      -0.0118    5955.3354    5955.3236     122.4734          7     257.0725      -0.0107    5525.0641    5525.0533    5522.3931    5522.4078       0.0147
    3946.0    4961.7375 1440603.0000    3657.5227     121.8680     122.3985      -0.0098    5955.3631    5955.3533     122.4732          7     258.0725      -0.0099    5525.0871    5525.0773    5522.3919    5522.4056       0.0137
    3947.0    4915.8675 1440603.0000    3657.5227     121.8652     122.3986      -0.0105    5955.3957    5955.3852     122.4732          7     259.0725      -0.0096    5524.9945    5524.9847    5522.3931    5522.4063       0.0132
    3948.0    4862.0575 1440603.0000    3657.5227     121.8663     122.3976      -0.0133    5955.5147    5955.5016     122.4734          7     260.0725      -0.0111    5524.9586    5524.9475    5522.3951    5522.4078       0.0126
    3949.0    4849.4200 1440603.0000    3657.5227     121.8671     122.3983      -0.0146    5955.4653    5955.4506     122.4733          7     261.0725      -0.0154    5525.0425    5525.0272    5522.3926    5522.4034       0.0107
    3950.0    4841.9275 1440603.0000    3657.5227     121.8668     122.3992      -0.0130    5955.4793    5955.4664     122.4734          7     262.0725      -0.0268    5525.1531    5525.1264    5522.3900    5522.3891      -0.0009
    3951.0    4840.9275 1440603.0000    3657.5227     121.8685     122.3964      -0.0101    5955.5026    5955.4927     122.4736          7     263.0725      -0.0497    5525.0746    5525.0251    5522.3963    5522.3638      -0.0325
    3952.0    4841.1600 1440603.0000    3657.5227     121.8654     122.3972      -0.0072    5955.5136    5955.5066     122.4734          7     264.0725      -0.0822    5524.9666    5524.8845    5522.3910    5522.3078      -0.0833
    3953.0    4857.0150 1440603.0000    3657.5227     121.8642     122.3967      -0.0044    5955.4442    5955.4398     122.4734          7     265.0725      -0.1124    5524.9219    5524.8095    5522.3946    5522.2572      -0.1373
    3954.0    4870.0000 1440603.0000    3657.5227     121.8626     122.3979      -0.0032    5955.4912    5955.4878     122.4735          7     266.0725      -0.1285    5524.9466    5524.8180    5522.3855    5522.2063      -0.1794
    3955.0    4867.7525 1440603.0000    3657.5227     121.8575     122.3968      -0.0053    5955.4478    5955.4427     122.4714          7     267.0725      -0.1277    5476.8372    5476.7095    5475.2791    5475.0717      -0.2074
    3956.0    4838.3475 1440603.0000    3657.5227     121.8517     122.3975      -0.0091    5955.4864    5955.4773     122.4700          8     268.0725      -0.1124    5451.1291    5451.0165    5449.5988    5449.3770      -0.2217
    3957.0    4829.9275 1440603.0000    3657.5227     121.8494     122.3973      -0.0129    5955.4844    5955.4713     122.4698          8     269.0725      -0.0841    5455.5651    5455.4812    5453.7794    5453.5627      -0.2166
    3958.0    4834.0025 1440603.0000    3657.5227     121.8513     122.3966      -0.0165    5955.4769    5955.4606     122.4694          8     270.0725      -0.0456    5457.1818    5457.1364    5455.1391    5454.9481      -0.1909
    3959.0    4903.1475 1440603.0000    3657.5227     121.8514     122.3957      -0.0193    5955.4204    5955.4010     122.4689          8     271.0725      -0.0078    5455.7418    5455.7341    5453.7181    5453.5591      -0.1589
    3960.0    4969.3625 1440603.0000    3657.5227     121.8528     122.3970      -0.0190    5955.4753    5955.4562     122.4683          8     272.0725       0.0217    5457.9088    5457.9306    5455.8043    5455.6756      -0.1286
    3961.0    4972.6950 1440603.0000    3657.5227     121.8540     122.3965      -0.0152    5955.4912    5955.4760     122.4679          8     273.0725       0.0463    5459.0939    5459.1402    5456.8033    5456.7119      -0.0914
    3962.0    4955.3475 1440603.0000    3657.5227     121.8520     122.3946      -0.0115    5955.3025    5955.2908     122.4673          8     274.0725       0.0732    5457.6967    5457.7699    5455.4599    5455.4210      -0.0389
    3963.0    4946.9275 1440603.0000    3657.5227     121.8549     122.3956      -0.0097    5955.2908    5955.2810     122.4671          8     275.0725       0.0999    5459.5514    5459.6513    5457.1390    5457.1608       0.0216
    3964.0    4938.3875 1440603.0000    3657.5227     121.8538     122.3956      -0.0087    5955.3621    5955.3534     122.4669          8     276.0725       0.1160    5459.8297    5459.9455    5457.4319    5457.5076       0.0755
    3965.0    4840.8550 1440603.0000    3657.5227     121.8588     122.3957      -0.0078    5955.4799    5955.4721     122.4680          8     277.0725       0.1178    5490.1927    5490.3105    5486.9940    5487.1122       0.1182
    3966.0    4837.6225 1440603.0000    3657.5227     121.8648     122.3935      -0.0080    5955.4407    5955.4329     122.4692          8     278.0725       0.1069    5521.9070    5522.0138    5518.5675    5518.7158       0.1483
    3967.0    4821.2325 1440603.0000    3657.5227     121.8679     122.3949      -0.0097    5955.5835    5955.5736     122.4694          8     279.0725       0.0844    5523.2149    5523.2992    5519.8977    5520.0584       0.1605
