~VERSION INFORMATION
VERS.           2.0   :CWLS Log ASCII Standard - VERSION 2.0
WRAP.           NO    :One Line per depth step
PROD.  Schlumberger   :LAS Producer
PROG.  DLIS to ASCII 2.2                               :LAS Program name and version
CREA.        2020/10/30 12:18                          :LAS Creation date {YYYY/MM/DD hh:mm}
SOURCE.     XPT_HRLA_TLD_MCFL_059LTP.DLIS              :DLIS File Name
FILE-ID.     XPT_HRLA_TLD_MCFL_059LTP                  :File Identification Number
#--------------------------------------------------
~WELL INFORMATION
#MNEM.UNIT      DATA             DESCRIPTION
#---- ------ --------------   -----------------------------
STRT .S         8390.0       :START TIME      
STOP .S         8580.0       :STOP TIME      
STEP .S            1.0       :STEP     
NULL .          -999.25      :NULL VALUE
COMP .        Nexus Energy                             :COMPANY
WELL .        Crux-3                                   :WELL
FLD  .        Crux                                     :FIELD
LOC  .        Easting: 656981.7mE                      :LOCATION
CNTY .        Sedco-703                                :COUNTY
STAT .        Northern Territory                       :STATE
CTRY .        Australia                                :COUNTRY
API  .                                                 :API NUMBER
UWI  .                                                 :UNIQUE WELL ID
DATE .        31-Dec-2007                              :LOG DATE {DD-MMM-YYYY}
SRVC .        Schlumberger                             :SERVICE COMPANY
LATI .DEG     12*57'32.63" S                           :LATITUDE
LONG .DEG     124*26'50.07" E                          :LONGITUDE
GDAT .                                                 :GeoDetic Datum
#-----------------------------------------------------------------------------
~PARAMETER INFORMATION
#MNEM.UNIT    VALUE                      DESCRIPTION
#---- -----   --------------------       ------------------------
RUN  .          1                        :RUN NUMBER
PDAT .        LAT                        :Permanent Datum
EPD  .M           0.000000               :Elevation of Permanent Datum above Mean Sea Level
EPD  .M           0.000000               :Elevation of tool zero above Mean Sea Level
LMF  .          DF                       :Logging Measured From (Name of Logging Elevation Reference)
APD  .M          26.400000               :Elevation of Depth Reference (LMF) above Permanent Datum
#-----------------------------------------------------------------------------
~CURVE INFORMATION
#MNEM.UNIT   API CODE                                  DESCRIPTION
#---- -----  --------                                  -----------------------
TIME .S                                                :TIME {F10.1}
TENS_SL.LBF                                            :Cable Tension {F13.4}
DEPT_SL..1IN                                           :Station logging depth {F13.4}
PDEP_XPT.M                                             :XPT Probe Depth {F13.4}
MTEP_SAP.DEGC                                          :Sapphire Gauge Manometer Temperature {F13.4}
MTEP_HYD.DEGC                                          :Hydrostatic Sapphire Gauge Manometer Temperature {F13.4}
PCO_HYD.PSI                                            :Hydrostatic Sapphire Dynamic Compensation {F13.4}
PND_HYD.PSI                                            :Hydrostatic Sapphire Pressure Without Dynamic Compensation {F13.4}
CP_HYD.PSI                                             :Hydrostatic Sapphire Pressure With Dynamic Compensation {F13.4}
MTEP_QG.DEGC                                           :CQG Manometer Temperature {F13.4}
PTNO_XPT.                                              :XPT Pretest Number {I11}
ETIM_XPT.S                                             :Elapsed Logging Time {F13.4}
PCO_SAP.PSI                                            :Sapphire Dynamic Compensation {F13.4}
PND_SAP.PSI                                            :Sapphire Pressure Without Dynamic Compensation {F13.4}
CP_SAP.PSI                                             :Sapphire Pressure With Dynamic Compensation {F13.4}
QNDP .PSI                                              :CQG Pressure Without Dynamic Compensation {F13.4}
QCP  .PSI                                              :CQG Pressure With Dynamic Compensation {F13.4}
QPCO .PSI                                              :CQG Dynamic Compensation {F13.4}
#-----------------------------------------------------------------------------
# 
#     TIME      TENS_SL      DEPT_SL      PDEP_XPT     MTEP_SAP     MTEP_HYD     PCO_HYD      PND_HYD       CP_HYD      MTEP_QG       PTNO_XPT       ETIM_XPT     PCO_SAP      PND_SAP       CP_SAP        QNDP         QCP          QPCO
#
~A  
    8390.0    5140.6400 1535646.0000    3898.9316     128.9196     129.4808       0.0000    6338.5405    6338.5405     129.5673         22       0.0800       0.0000    6336.0358    6336.0358    6333.7604    6333.7604       0.0000
    8391.0    5220.4400 1535646.0000    3898.9316     128.9190     129.4823       0.0000    6338.5571    6338.5571     129.5675         22       1.0800       0.0000    6336.0184    6336.0184    6333.8137    6333.8137       0.0000
    8392.0    5256.4000 1535646.0000    3898.9316     128.9206     129.4816       0.0000    6338.7870    6338.7870     129.5677         22       2.0800       0.0000    6336.2822    6336.2822    6333.9984    6333.9984       0.0000
    8393.0    5215.0000 1535646.0000    3898.9316     128.9207     129.4823       0.0000    6338.5571    6338.5571     129.5679         22       3.0800       0.0000    6336.0668    6336.0668    6333.7466    6333.7466       0.0000
    8394.0    5214.3600 1535646.0000    3898.9316     128.9200     129.4826       0.0000    6338.4759    6338.4759     129.5678         22       4.0800       0.0000    6335.8835    6335.8835    6333.6214    6333.6214       0.0000
    8395.0    5202.2000 1535646.0000    3898.9316     128.9206     129.4831       0.0000    6338.4443    6338.4443     129.5676         22       5.0800       0.0000    6335.9060    6335.9060    6333.7285    6333.7285       0.0000
    8396.0    5142.0400 1535646.0000    3898.9316     128.9225     129.4831       0.0107    6338.5649    6338.5757     129.5680         22       6.0800       0.0146    6336.1334    6336.1479    6333.7571    6333.7834       0.0263
    8397.0    5081.5600 1535646.0000    3898.9316     128.9220     129.4826       0.0101    6338.5964    6338.6066     129.5681         22       7.0800       0.0128    6336.1926    6336.2053    6333.9120    6333.9389       0.0268
    8398.0    5040.2400 1535646.0000    3898.9316     128.9246     129.4845       0.0108    6338.5804    6338.5911     129.5680         22       8.0800       0.0114    6336.3562    6336.3675    6334.0375    6334.0639       0.0263
    8399.0    5021.6800 1535646.0000    3898.9316     128.9217     129.4831       0.0132    6338.7844    6338.7978     129.5683         22       9.0800       0.0099    6336.3354    6336.3455    6334.0881    6334.1135       0.0254
    8400.0    5044.6800 1535646.0000    3898.9316     128.9219     129.4831       0.0166    6338.7947    6338.8114     129.5683         22      10.0800       0.0101    6336.4857    6336.4958    6334.1737    6334.1986       0.0249
    8401.0    5091.8000 1535646.0000    3898.9316     128.9215     129.4839       0.0196    6338.9358    6338.9554     129.5684         22      11.0800       0.0130    6336.4201    6336.4332    6334.2391    6334.2640       0.0250
    8402.0    5149.3200 1535646.0000    3898.9316     128.9227     129.4841       0.0219    6338.9378    6338.9595     129.5684         22      12.0800       0.0169    6336.4347    6336.4518    6334.2457    6334.2708       0.0250
    8403.0    5174.7200 1535646.0000    3898.9316     128.9228     129.4842       0.0231    6338.9389    6338.9618     129.5687         22      13.0800       0.0199    6336.5188    6336.5386    6334.2061    6334.2312       0.0252
    8404.0    5159.7600 1535646.0000    3898.9316     128.9240     129.4854       0.0232    6338.9501    6338.9731     129.5685         22      14.0800       0.0217    6336.4712    6336.4926    6334.1657    6334.1911       0.0254
    8405.0    5156.6000 1535646.0000    3898.9316     128.9240     129.4856       0.0217    6338.9463    6338.9680     129.5689         22      15.0800       0.0216    6336.3487    6336.3704    6334.0965    6334.1218       0.0253
    8406.0    5148.7200 1535646.0000    3898.9316     128.9228     129.4861       0.0202    6338.8398    6338.8601     129.5687         22      16.0800       0.0198    6336.3384    6336.3581    6334.1009    6334.1263       0.0253
    8407.0    5105.8800 1535646.0000    3898.9316     128.9235     129.4861       0.0192    6338.9604    6338.9795     129.5688         22      17.0800       0.0173    6336.5502    6336.5673    6334.2427    6334.2686       0.0256
    8408.0    5043.2400 1535646.0000    3898.9316     128.9249     129.4863       0.0191    6339.0227    6339.0418     129.5691         22      18.0800       0.0163    6336.4462    6336.4623    6334.2302    6334.2567       0.0266
    8409.0    4998.4800 1535646.0000    3898.9316     128.9253     129.4864       0.0195    6338.9810    6339.0005     129.5690         22      19.0800       0.0168    6336.5562    6336.5730    6334.2538    6334.2807       0.0268
    8410.0    4979.7200 1535646.0000    3898.9316     128.9248     129.4884       0.0184    6338.9849    6339.0035     129.5689         22      20.0800       0.0182    6336.6232    6336.6412    6334.3037    6334.3301       0.0265
    8411.0    4964.3600 1535646.0000    3898.9316     128.9260     129.4875       0.0156    6339.1285    6339.1442     129.5692         22      21.0800       0.0197    6336.7440    6336.7636    6334.4222    6334.4485       0.0262
    8412.0    4960.1200 1535646.0000    3898.9316     128.9251     129.4882       0.0122    6339.2421    6339.2542     129.5693         22      22.0800       0.0207    6336.7279    6336.7487    6334.4330    6334.4594       0.0264
    8413.0    5001.9200 1535646.0000    3898.9316     128.9260     129.4888       0.0097    6339.2589    6339.2687     129.5693         22      23.0800       0.0206    6336.7893    6336.8098    6334.4451    6334.4720       0.0267
    8414.0    5075.6000 1535646.0000    3898.9316     128.9268     129.4888       0.0079    6339.2617    6339.2694     129.5695         22      24.0800       0.0191    6336.7720    6336.7909    6334.5040    6334.5309       0.0268
    8415.0    5141.4400 1535646.0000    3898.9316     128.9285     129.4869       0.0069    6339.1921    6339.1989     129.5695         22      25.0800       0.0168    6336.7738    6336.7906    6334.4565    6334.4842       0.0275
    8416.0    5157.5200 1535646.0000    3898.9316     128.9254     129.4896       0.0089    6339.1744    6339.1831     129.5695         22      26.0800       0.0128    6336.5299    6336.5427    6334.3681    6334.3964       0.0282
    8417.0    5151.2800 1535646.0000    3898.9316     128.9265     129.4879       0.0114    6339.1281    6339.1396     129.5697         22      27.0800       0.0110    6336.6025    6336.6136    6334.3026    6334.3309       0.0283
    8418.0    5137.1600 1535646.0000    3898.9316     128.9280     129.4890       0.0140    6339.1366    6339.1506     129.5698         22      28.0800       0.0112    6336.5529    6336.5640    6334.3027    6334.3311       0.0285
    8419.0    5063.6800 1535646.0000    3898.9316     128.9262     129.4892       0.0147    6339.2268    6339.2415     129.5701         22      29.0800       0.0150    6336.5292    6336.5442    6334.3529    6334.3822       0.0293
    8420.0    4988.9200 1535646.0000    3898.9316     128.9283     129.4890       0.0147    6339.1120    6339.1267     129.5699         22      30.0800       0.0166    6336.7842    6336.8009    6334.3868    6334.4166       0.0296
    8421.0    4963.4800 1535646.0000    3898.9316     128.9290     129.4910       0.0146    6339.3270    6339.3416     129.5701         22      31.0800       0.0168    6336.8154    6336.8322    6334.5194    6334.5492       0.0299
    8422.0    4944.4000 1535646.0000    3898.9316     128.9294     129.4892       0.0138    6339.2949    6339.3086     129.5701         22      32.0800       0.0156    6336.8606    6336.8762    6334.5792    6334.6090       0.0300
    8423.0    4930.4000 1535646.0000    3898.9316     128.9297     129.4907       0.0128    6339.4326    6339.4453     129.5702         22      33.0800       0.0158    6336.8413    6336.8570    6334.5894    6334.6197       0.0301
    8424.0    4987.4800 1535646.0000    3898.9316     128.9299     129.4910       0.0142    6339.3269    6339.3411     129.5704         22      34.0800       0.0177    6336.8235    6336.8414    6334.5538    6334.5841       0.0301
