~VERSION INFORMATION
VERS.           2.0   :CWLS Log ASCII Standard - VERSION 2.0
WRAP.           NO    :One Line per depth step
PROD.  Schlumberger   :LAS Producer
PROG.  DLIS to ASCII 2.2                               :LAS Program name and version
CREA.        2020/10/30 12:18                          :LAS Creation date {YYYY/MM/DD hh:mm}
SOURCE.     XPT_HRLA_TLD_MCFL_057LTP.DLIS              :DLIS File Name
FILE-ID.     XPT_HRLA_TLD_MCFL_057LTP                  :File Identification Number
#--------------------------------------------------
~WELL INFORMATION
#MNEM.UNIT      DATA             DESCRIPTION
#---- ------ --------------   -----------------------------
STRT .S         6912.0       :START TIME      
STOP .S         7441.0       :STOP TIME      
STEP .S            1.0       :STEP     
NULL .          -999.25      :NULL VALUE
COMP .        Nexus Energy                             :COMPANY
WELL .        Crux-3                                   :WELL
FLD  .        Crux                                     :FIELD
LOC  .        Easting: 656981.7mE                      :LOCATION
CNTY .        Sedco-703                                :COUNTY
STAT .        Northern Territory                       :STATE
CTRY .        Australia                                :COUNTRY
API  .                                                 :API NUMBER
UWI  .                                                 :UNIQUE WELL ID
DATE .        31-Dec-2007                              :LOG DATE {DD-MMM-YYYY}
SRVC .        Schlumberger                             :SERVICE COMPANY
LATI .DEG     12*57'32.63" S                           :LATITUDE
LONG .DEG     124*26'50.07" E                          :LONGITUDE
GDAT .                                                 :GeoDetic Datum
#-----------------------------------------------------------------------------
~PARAMETER INFORMATION
#MNEM.UNIT    VALUE                      DESCRIPTION
#---- -----   --------------------       ------------------------
RUN  .          1                        :RUN NUMBER
PDAT .        LAT                        :Permanent Datum
EPD  .M           0.000000               :Elevation of Permanent Datum above Mean Sea Level
EPD  .M           0.000000               :Elevation of tool zero above Mean Sea Level
LMF  .          DF                       :Logging Measured From (Name of Logging Elevation Reference)
APD  .M          26.400000               :Elevation of Depth Reference (LMF) above Permanent Datum
#-----------------------------------------------------------------------------
~CURVE INFORMATION
#MNEM.UNIT   API CODE                                  DESCRIPTION
#---- -----  --------                                  -----------------------
TIME .S                                                :TIME {F10.1}
TENS_SL.LBF                                            :Cable Tension {F13.4}
DEPT_SL..1IN                                           :Station logging depth {F13.4}
PDEP_XPT.M                                             :XPT Probe Depth {F13.4}
MTEP_SAP.DEGC                                          :Sapphire Gauge Manometer Temperature {F13.4}
MTEP_HYD.DEGC                                          :Hydrostatic Sapphire Gauge Manometer Temperature {F13.4}
PCO_HYD.PSI                                            :Hydrostatic Sapphire Dynamic Compensation {F13.4}
PND_HYD.PSI                                            :Hydrostatic Sapphire Pressure Without Dynamic Compensation {F13.4}
CP_HYD.PSI                                             :Hydrostatic Sapphire Pressure With Dynamic Compensation {F13.4}
MTEP_QG.DEGC                                           :CQG Manometer Temperature {F13.4}
PTNO_XPT.                                              :XPT Pretest Number {I11}
ETIM_XPT.S                                             :Elapsed Logging Time {F13.4}
PCO_SAP.PSI                                            :Sapphire Dynamic Compensation {F13.4}
PND_SAP.PSI                                            :Sapphire Pressure Without Dynamic Compensation {F13.4}
CP_SAP.PSI                                             :Sapphire Pressure With Dynamic Compensation {F13.4}
QNDP .PSI                                              :CQG Pressure Without Dynamic Compensation {F13.4}
QCP  .PSI                                              :CQG Pressure With Dynamic Compensation {F13.4}
QPCO .PSI                                              :CQG Dynamic Compensation {F13.4}
#-----------------------------------------------------------------------------
# 
#     TIME      TENS_SL      DEPT_SL      PDEP_XPT     MTEP_SAP     MTEP_HYD     PCO_HYD      PND_HYD       CP_HYD      MTEP_QG       PTNO_XPT       ETIM_XPT     PCO_SAP      PND_SAP       CP_SAP        QNDP         QCP          QPCO
#
~A  
# ...
    7332.0    4894.7480 1526236.0000    3875.0305     129.0484     129.5566      -0.0337    6300.9371    6300.9034     129.8398         20     420.0105      -0.0473    5601.0072    5600.9598    5599.0386    5598.8390      -0.1995
    7333.0    4870.7060 1526236.0000    3875.0305     129.0477     129.5551      -0.0321    6300.8599    6300.8278     129.8391         20     421.0105      -0.0455    5600.9515    5600.9060    5599.0416    5598.8418      -0.1996
    7334.0    4842.5380 1526236.0000    3875.0305     129.0453     129.5567      -0.0302    6300.9730    6300.9430     129.8386         20     422.0105      -0.0436    5600.9378    5600.8942    5599.0522    5598.8525      -0.1995
    7335.0    4798.9685 1526236.0000    3875.0305     129.0466     129.5551      -0.0280    6301.0394    6301.0116     129.8381         20     423.0105      -0.0415    5601.0771    5601.0357    5599.0504    5598.8512      -0.1991
    7336.0    4796.5670 1526236.0000    3875.0305     129.0453     129.5559      -0.0270    6300.9888    6300.9619     129.8374         20     424.0105      -0.0395    5600.9861    5600.9467    5599.0520    5598.8535      -0.1984
    7337.0    4851.0185 1526236.0000    3875.0305     129.0450     129.5528      -0.0280    6300.9622    6300.9340     129.8368         20     425.0105      -0.0381    5600.9465    5600.9085    5599.0569    5598.8588      -0.1980
    7338.0    4947.9135 1526236.0000    3875.0305     129.0439     129.5529      -0.0304    6301.0765    6301.0462     129.8359         20     426.0105      -0.0383    5601.0276    5600.9895    5599.0659    5598.8682      -0.1975
    7339.0    5033.8215 1526236.0000    3875.0305     129.0416     129.5522      -0.0323    6300.9876    6300.9552     129.8355         20     427.0105      -0.0396    5600.9361    5600.8966    5599.0599    5598.8626      -0.1971
    7340.0    5016.2230 1526236.0000    3875.0305     129.0424     129.5533      -0.0331    6300.8494    6300.8162     129.8349         20     428.0105      -0.0398    5600.9058    5600.8661    5599.0593    5598.8620      -0.1974
    7341.0    4943.2100 1526236.0000    3875.0305     129.0410     129.5528      -0.0334    6300.8341    6300.8009     129.8342         20     429.0105      -0.0391    5601.0357    5600.9967    5599.0591    5598.8613      -0.1979
    7342.0    4962.1495 1526236.0000    3875.0305     129.0410     129.5501      -0.0336    6300.8058    6300.7721     129.8338         20     430.0105      -0.0388    5600.9776    5600.9389    5599.0665    5598.8682      -0.1982
    7343.0    4881.6640 1526236.0000    3875.0305     129.0407     129.5504      -0.0325    6300.9155    6300.8832     129.8329         20     431.0105      -0.0387    5601.0632    5601.0246    5599.0685    5598.8699      -0.1985
    7344.0    4850.4830 1526236.0000    3875.0305     129.0399     129.5498      -0.0294    6300.9260    6300.8968     129.8325         20     432.0105      -0.0375    5600.9937    5600.9561    5599.0732    5598.8744      -0.1989
    7345.0    4895.5800 1526236.0000    3875.0305     129.0392     129.5495      -0.0266    6301.0637    6301.0370     129.8318         20     433.0105      -0.0361    5601.0271    5600.9910    5599.0755    5598.8761      -0.1994
    7346.0    4856.4305 1526236.0000    3875.0305     129.0372     129.5489      -0.0261    6301.0164    6300.9901     129.8312         20     434.0105      -0.0362    5600.9394    5600.9032    5599.0787    5598.8794      -0.1993
    7347.0    4896.5800 1526236.0000    3875.0305     129.0354     129.5490      -0.0271    6301.0943    6301.0669     129.8305         20     435.0105      -0.0374    5601.0426    5601.0050    5599.0682    5598.8690      -0.1991
    7348.0    4858.1445 1526236.0000    3875.0305     129.0380     129.5490      -0.0280    6301.0361    6301.0081     129.8301         20     436.0105      -0.0375    5601.0494    5601.0118    5599.0750    5598.8757      -0.1991
    7349.0    4966.0420 1526236.0000    3875.0305     129.0353     129.5475      -0.0295    6300.9306    6300.9010     129.8295         20     437.0105      -0.0373    5600.9542    5600.9171    5599.0751    5598.8762      -0.1989
    7350.0    4970.4620 1526236.0000    3875.0305     129.0332     129.5464      -0.0319    6300.9469    6300.9152     129.8291         20     438.0105      -0.0389    5600.9394    5600.9003    5599.0747    5598.8764      -0.1985
    7351.0    5014.0630 1526236.0000    3875.0305     129.0347     129.5465      -0.0332    6300.8814    6300.8482     129.8282         20     439.0105      -0.0409    5600.9608    5600.9201    5599.0739    5598.8757      -0.1983
    7352.0    5019.8950 1526236.0000    3875.0305     129.0336     129.5468      -0.0319    6300.8027    6300.7709     129.8276         20     440.0105      -0.0409    5600.9768    5600.9358    5599.0726    5598.8744      -0.1982
    7353.0    5009.8005 1526236.0000    3875.0305     129.0350     129.5448      -0.0294    6300.8075    6300.7782     129.8269         20     441.0105      -0.0384    5600.9826    5600.9441    5599.0711    5598.8724      -0.1986
    7354.0    4990.0025 1526236.0000    3875.0305     129.0311     129.5437      -0.0267    6300.8387    6300.8120     129.8264         20     442.0105      -0.0369    5601.0268    5600.9899    5599.0823    5598.8838      -0.1985
    7355.0    4895.2230 1526236.0000    3875.0305     129.0327     129.5449      -0.0236    6300.9740    6300.9503     129.8257         20     443.0105      -0.0379    5601.0408    5601.0029    5599.0840    5598.8858      -0.1981
    7356.0    4823.1235 1526236.0000    3875.0305     129.0313     129.5437      -0.0212    6301.0079    6300.9869     129.8252         20     444.0105      -0.0398    5600.9231    5600.8836    5599.0840    5598.8867      -0.1972
    7357.0    4928.7060 1526236.0000    3875.0305     129.0303     129.5427      -0.0219    6301.0091    6300.9872     129.8245         20     445.0105      -0.0407    5601.0060    5600.9654    5599.0875    5598.8912      -0.1963
    7358.0    4900.9580 1526236.0000    3875.0305     129.0307     129.5440      -0.0257    6301.2230    6301.1974     129.8240         20     446.0105      -0.0395    5601.0816    5601.0422    5599.0907    5598.8950      -0.1956
    7359.0    4896.2965 1526236.0000    3875.0305     129.0289     129.5437      -0.0302    6301.1602    6301.1298     129.8231         20     447.0105      -0.0374    5600.9589    5600.9213    5599.0837    5598.8884      -0.1951
    7360.0    4830.4515 1526236.0000    3875.0305     129.0274     129.5430      -0.0336    6301.1519    6301.1183     129.8227         20     448.0105      -0.0358    5601.0658    5601.0299    5599.0851    5598.8908      -0.1944
    7361.0    4874.3860 1526236.0000    3875.0305     129.0273     129.5411      -0.0359    6301.0297    6300.9937     129.8220         20     449.0105      -0.0339    5601.0138    5600.9799    5599.0862    5598.8919      -0.1943
    7362.0    5004.5590 1526236.0000    3875.0305     129.0264     129.5407      -0.0370    6300.9463    6300.9092     129.8218         20     450.0105      -0.0315    5601.1126    5601.0809    5599.0909    5598.8961      -0.1950
    7363.0    4963.3255 1526236.0000    3875.0305     129.0275     129.5401      -0.0365    6300.8924    6300.8560     129.8208         20     451.0105      -0.0295    5601.0824    5601.0527    5599.0869    5598.8909      -0.1959
    7364.0    4993.9370 1526236.0000    3875.0305     129.0255     129.5391      -0.0350    6300.7847    6300.7498     129.8202         20     452.0105      -0.0300    5600.9671    5600.9370    5599.0835    5598.8869      -0.1965
    7365.0    4987.8425 1526236.0000    3875.0305     129.0253     129.5399      -0.0334    6300.6981    6300.6649     129.8192         20     453.0105      -0.0326    5601.0751    5601.0424    5599.0812    5598.8844      -0.1968
    7366.0    4972.7480 1526236.0000    3875.0305     129.0249     129.5390      -0.0320    6300.8445    6300.8125     129.8190         20     454.0105      -0.0353    5601.0448    5601.0095    5599.0874    5598.8905      -0.1970
