~VERSION INFORMATION
VERS.           2.0   :CWLS Log ASCII Standard - VERSION 2.0
WRAP.           NO    :One Line per depth step
PROD.  Schlumberger   :LAS Producer
PROG.  DLIS to ASCII 2.2                               :LAS Program name and version
CREA.        2020/10/30 12:18                          :LAS Creation date {YYYY/MM/DD hh:mm}
SOURCE.     XPT_HRLA_TLD_MCFL_064LTP.DLIS              :DLIS File Name
FILE-ID.     XPT_HRLA_TLD_MCFL_064LTP                  :File Identification Number
#--------------------------------------------------
~WELL INFORMATION
#MNEM.UNIT      DATA             DESCRIPTION
#---- ------ --------------   -----------------------------
STRT .S         1332.0       :START TIME      
STOP .S         1827.0       :STOP TIME      
STEP .S            1.0       :STEP     
NULL .          -999.25      :NULL VALUE
COMP .        Nexus Energy                             :COMPANY
WELL .        Crux-3                                   :WELL
FLD  .        Crux                                     :FIELD
LOC  .        Easting: 656981.7mE                      :LOCATION
CNTY .        Sedco-703                                :COUNTY
STAT .        Northern Territory                       :STATE
CTRY .        Australia                                :COUNTRY
API  .                                                 :API NUMBER
UWI  .                                                 :UNIQUE WELL ID
DATE .        31-Dec-2007                              :LOG DATE {DD-MMM-YYYY}
SRVC .        Schlumberger                             :SERVICE COMPANY
LATI .DEG     12*57'32.63" S                           :LATITUDE
LONG .DEG     124*26'50.07" E                          :LONGITUDE
GDAT .                                                 :GeoDetic Datum
#-----------------------------------------------------------------------------
~PARAMETER INFORMATION
#MNEM.UNIT    VALUE                      DESCRIPTION
#---- -----   --------------------       ------------------------
RUN  .          1                        :RUN NUMBER
PDAT .        LAT                        :Permanent Datum
EPD  .M           0.000000               :Elevation of Permanent Datum above Mean Sea Level
EPD  .M           0.000000               :Elevation of tool zero above Mean Sea Level
LMF  .          DF                       :Logging Measured From (Name of Logging Elevation Reference)
APD  .M          26.400000               :Elevation of Depth Reference (LMF) above Permanent Datum
#-----------------------------------------------------------------------------
~CURVE INFORMATION
#MNEM.UNIT   API CODE                                  DESCRIPTION
#---- -----  --------                                  -----------------------
TIME .S                                                :TIME {F10.1}
TENS_SL.LBF                                            :Cable Tension {F13.4}
DEPT_SL..1IN                                           :Station logging depth {F13.4}
PDEP_XPT.M                                             :XPT Probe Depth {F13.4}
MTEP_SAP.DEGC                                          :Sapphire Gauge Manometer Temperature {F13.4}
MTEP_HYD.DEGC                                          :Hydrostatic Sapphire Gauge Manometer Temperature {F13.4}
PCO_HYD.PSI                                            :Hydrostatic Sapphire Dynamic Compensation {F13.4}
PND_HYD.PSI                                            :Hydrostatic Sapphire Pressure Without Dynamic Compensation {F13.4}
CP_HYD.PSI                                             :Hydrostatic Sapphire Pressure With Dynamic Compensation {F13.4}
MTEP_QG.DEGC                                           :CQG Manometer Temperature {F13.4}
PTNO_XPT.                                              :XPT Pretest Number {I11}
ETIM_XPT.S                                             :Elapsed Logging Time {F13.4}
PCO_SAP.PSI                                            :Sapphire Dynamic Compensation {F13.4}
PND_SAP.PSI                                            :Sapphire Pressure Without Dynamic Compensation {F13.4}
CP_SAP.PSI                                             :Sapphire Pressure With Dynamic Compensation {F13.4}
QNDP .PSI                                              :CQG Pressure Without Dynamic Compensation {F13.4}
QCP  .PSI                                              :CQG Pressure With Dynamic Compensation {F13.4}
QPCO .PSI                                              :CQG Dynamic Compensation {F13.4}
#-----------------------------------------------------------------------------
# 
#     TIME      TENS_SL      DEPT_SL      PDEP_XPT     MTEP_SAP     MTEP_HYD     PCO_HYD      PND_HYD       CP_HYD      MTEP_QG       PTNO_XPT       ETIM_XPT     PCO_SAP      PND_SAP       CP_SAP        QNDP         QCP          QPCO
#
~A  
# ...
    1472.0    4802.5184 1496483.0000    3799.4575     128.5483     128.9806      -0.1152    6182.0014    6181.8862     129.4601         28     140.1646       0.0909    5567.5628    5567.6536    5565.7797    5565.2382      -0.5414
    1473.0    4808.8285 1496483.0000    3799.4575     128.5469     128.9790      -0.1160    6182.0364    6181.9204     129.4584         28     141.1646       0.0568    5568.8210    5568.8777    5567.1006    5566.6546      -0.4461
    1474.0    4875.7075 1496483.0000    3799.4575     128.5482     128.9752      -0.1176    6181.9216    6181.8040     129.4575         28     142.1646       0.0316    5570.0246    5570.0561    5568.3817    5568.0093      -0.3723
    1475.0    4859.4939 1496483.0000    3799.4575     128.5504     128.9737      -0.1195    6181.7820    6181.6627     129.4564         28     143.1646       0.0123    5571.2606    5571.2731    5569.4400    5569.1243      -0.3157
    1476.0    4864.3048 1496483.0000    3799.4575     128.5486     128.9708      -0.1199    6181.6650    6181.5452     129.4554         28     144.1646      -0.0036    5572.1569    5572.1532    5570.4020    5570.1293      -0.2726
    1477.0    4869.4150 1496483.0000    3799.4575     128.5482     128.9697      -0.1172    6181.7744    6181.6571     129.4550         28     145.1646      -0.0190    5572.9841    5572.9651    5571.1811    5570.9399      -0.2410
    1478.0    4824.1470 1496483.0000    3799.4575     128.5471     128.9682      -0.1130    6181.7842    6181.6712     129.4542         28     146.1646      -0.0333    5573.5578    5573.5248    5571.7167    5571.4982      -0.2187
    1479.0    4765.6462 1496483.0000    3799.4575     128.5476     128.9643      -0.1096    6181.8710    6181.7614     129.4536         28     147.1646      -0.0450    5573.9680    5573.9229    5572.2018    5571.9992      -0.2026
    1480.0    4771.8599 1496483.0000    3799.4575     128.5460     128.9634      -0.1069    6181.9945    6181.8875     129.4529         28     148.1646      -0.0543    5574.2770    5574.2226    5572.5541    5572.3629      -0.1914
    1481.0    4764.7864 1496483.0000    3799.4575     128.5453     128.9612      -0.1051    6181.9644    6181.8594     129.4524         28     149.1646      -0.0634    5574.5680    5574.5045    5572.8064    5572.6221      -0.1843
    1482.0    4779.0612 1496483.0000    3799.4575     128.5440     128.9598      -0.1050    6182.0920    6181.9870     129.4516         28     150.1646      -0.0721    5574.7752    5574.7031    5572.9693    5572.7882      -0.1809
    1483.0    4765.0299 1496483.0000    3799.4575     128.5431     128.9573      -0.1066    6182.0048    6181.8984     129.4512         28     151.1646      -0.0786    5574.8322    5574.7538    5573.0133    5572.8336      -0.1798
    1484.0    4819.6830 1496483.0000    3799.4575     128.5421     128.9567      -0.1080    6181.9614    6181.8534     129.4506         28     152.1646      -0.0830    5574.7251    5574.6419    5573.0073    5572.8271      -0.1801
    1485.0    4816.7864 1496483.0000    3799.4575     128.5387     128.9538      -0.1089    6181.8612    6181.7523     129.4502         28     153.1646      -0.0867    5574.6553    5574.5685    5572.8915    5572.7098      -0.1817
    1486.0    4843.0789 1496483.0000    3799.4575     128.5368     128.9523      -0.1104    6181.8057    6181.6954     129.4496         28     154.1646      -0.0901    5574.5611    5574.4709    5572.8473    5572.6632      -0.1841
    1487.0    4879.6585 1496483.0000    3799.4575     128.5370     128.9477      -0.1130    6181.6378    6181.5249     129.4492         28     155.1646      -0.0919    5574.5492    5574.4573    5572.8355    5572.6483      -0.1874
    1488.0    4885.1401 1496483.0000    3799.4575     128.5345     128.9482      -0.1146    6181.7603    6181.6458     129.4484         28     156.1646      -0.0919    5574.6348    5574.5430    5572.8375    5572.6465      -0.1910
    1489.0    4881.3484 1496483.0000    3799.4575     128.5324     128.9460      -0.1145    6181.8242    6181.7095     129.4478         28     157.1646      -0.0920    5574.5821    5574.4903    5572.8331    5572.6380      -0.1950
    1490.0    4799.5919 1496483.0000    3799.4575     128.5296     128.9434      -0.1143    6181.7979    6181.6836     129.4474         28     158.1646      -0.0924    5574.5085    5574.4163    5572.8246    5572.6256      -0.1989
    1491.0    4758.3782 1496483.0000    3799.4575     128.5294     128.9421      -0.1147    6181.8304    6181.7156     129.4467         28     159.1646      -0.0921    5574.4973    5574.4053    5572.8172    5572.6141      -0.2032
    1492.0    4738.1891 1496483.0000    3799.4575     128.5277     128.9389      -0.1147    6181.9694    6181.8547     129.4461         28     160.1646      -0.0907    5574.5270    5574.4361    5572.8066    5572.5982      -0.2082
    1493.0    4733.9388 1496483.0000    3799.4575     128.5270     128.9351      -0.1134    6181.8901    6181.7770     129.4452         28     161.1646      -0.0893    5574.5498    5574.4605    5572.8017    5572.5880      -0.2137
    1494.0    4764.9265 1496483.0000    3799.4575     128.5241     128.9358      -0.1113    6181.9590    6181.8474     129.4445         28     162.1646      -0.0897    5574.4828    5574.3932    5572.7954    5572.5763      -0.2190
    1495.0    4799.7741 1496483.0000    3799.4575     128.5220     128.9336      -0.1106    6181.8781    6181.7673     129.4438         28     163.1646      -0.0919    5574.4988    5574.4071    5572.7865    5572.5622      -0.2242
    1496.0    4825.6462 1496483.0000    3799.4575     128.5219     128.9313      -0.1116    6181.9707    6181.8593     129.4432         28     164.1646      -0.0949    5574.5176    5574.4227    5572.7787    5572.5494      -0.2292
    1497.0    4828.4028 1496483.0000    3799.4575     128.5207     128.9288      -0.1135    6181.8675    6181.7539     129.4424         28     165.1646      -0.0979    5574.4533    5574.3554    5572.7691    5572.5354      -0.2337
    1498.0    4794.4028 1496483.0000    3799.4575     128.5176     128.9282      -0.1151    6181.9314    6181.8162     129.4419         28     166.1646      -0.0998    5574.4559    5574.3563    5572.7663    5572.5291      -0.2371
    1499.0    4765.3415 1496483.0000    3799.4575     128.5157     128.9243      -0.1154    6181.9040    6181.7888     129.4410         28     167.1646      -0.1001    5574.5171    5574.4170    5572.7619    5572.5219      -0.2402
    1500.0    4769.5728 1496483.0000    3799.4575     128.5132     128.9223      -0.1140    6181.8493    6181.7353     129.4402         28     168.1646      -0.0995    5574.4374    5574.3378    5572.7551    5572.5114      -0.2436
    1501.0    4815.4081 1496483.0000    3799.4575     128.5117     128.9215      -0.1110    6181.9277    6181.8168     129.4396         28     169.1646      -0.0984    5574.3714    5574.2728    5572.7477    5572.5003      -0.2472
    1502.0    4857.6095 1496483.0000    3799.4575     128.5110     128.9186      -0.1088    6181.8630    6181.7541     129.4388         28     170.1646      -0.0972    5574.4218    5574.3246    5572.7400    5572.4893      -0.2507
    1503.0    4875.2381 1496483.0000    3799.4575     128.5094     128.9168      -0.1096    6181.8786    6181.7690     129.4379         28     171.1646      -0.0962    5574.4193    5574.3231    5572.7323    5572.4783      -0.2541
    1504.0    4842.7075 1496483.0000    3799.4575     128.5076     128.9153      -0.1124    6181.8623    6181.7501     129.4369         28     172.1646      -0.0960    5574.3690    5574.2728    5572.7264    5572.4687      -0.2579
    1505.0    4816.6164 1496483.0000    3799.4575     128.5045     128.9130      -0.1146    6181.8509    6181.7362     129.4365         28     173.1646      -0.0966    5574.3286    5574.2319    5572.7174    5572.4559      -0.2615
    1506.0    4761.4272 1496483.0000    3799.4575     128.5029     128.9110      -0.1154    6181.9371    6181.8218     129.4354         28     174.1646      -0.0969    5574.3811    5574.2842    5572.7107    5572.4457      -0.2650
