~VERSION INFORMATION
VERS.           2.0   :CWLS Log ASCII Standard - VERSION 2.0
WRAP.           NO    :One Line per depth step
PROD.  Schlumberger   :LAS Producer
PROG.  DLIS to ASCII 2.2                               :LAS Program name and version
CREA.        2020/10/30 12:18                          :LAS Creation date {YYYY/MM/DD hh:mm}
SOURCE.     XPT_HRLA_TLD_MCFL_046LTP.DLIS              :DLIS File Name
FILE-ID.     XPT_HRLA_TLD_MCFL_046LTP                  :File Identification Number
#--------------------------------------------------
~WELL INFORMATION
#MNEM.UNIT      DATA             DESCRIPTION
#---- ------ --------------   -----------------------------
STRT .S         4617.0       :START TIME      
STOP .S         5507.0       :STOP TIME      
STEP .S            1.0       :STEP     
NULL .          -999.25      :NULL VALUE
COMP .        Nexus Energy                             :COMPANY
WELL .        Crux-3                                   :WELL
FLD  .        Crux                                     :FIELD
LOC  .        Easting: 656981.7mE                      :LOCATION
CNTY .        Sedco-703                                :COUNTY
STAT .        Northern Territory                       :STATE
CTRY .        Australia                                :COUNTRY
API  .                                                 :API NUMBER
UWI  .                                                 :UNIQUE WELL ID
DATE .        31-Dec-2007                              :LOG DATE {DD-MMM-YYYY}
SRVC .        Schlumberger                             :SERVICE COMPANY
LATI .DEG     12*57'32.63" S                           :LATITUDE
LONG .DEG     124*26'50.07" E                          :LONGITUDE
GDAT .                                                 :GeoDetic Datum
#-----------------------------------------------------------------------------
~PARAMETER INFORMATION
#MNEM.UNIT    VALUE                      DESCRIPTION
#---- -----   --------------------       ------------------------
RUN  .          1                        :RUN NUMBER
PDAT .        LAT                        :Permanent Datum
EPD  .M           0.000000               :Elevation of Permanent Datum above Mean Sea Level
EPD  .M           0.000000               :Elevation of tool zero above Mean Sea Level
LMF  .          DF                       :Logging Measured From (Name of Logging Elevation Reference)
APD  .M          26.400000               :Elevation of Depth Reference (LMF) above Permanent Datum
#-----------------------------------------------------------------------------
~CURVE INFORMATION
#MNEM.UNIT   API CODE                                  DESCRIPTION
#---- -----  --------                                  -----------------------
TIME .S                                                :TIME {F10.1}
TENS_SL.LBF                                            :Cable Tension {F13.4}
DEPT_SL..1IN                                           :Station logging depth {F13.4}
PDEP_XPT.M                                             :XPT Probe Depth {F13.4}
MTEP_SAP.DEGC                                          :Sapphire Gauge Manometer Temperature {F13.4}
MTEP_HYD.DEGC                                          :Hydrostatic Sapphire Gauge Manometer Temperature {F13.4}
PCO_HYD.PSI                                            :Hydrostatic Sapphire Dynamic Compensation {F13.4}
PND_HYD.PSI                                            :Hydrostatic Sapphire Pressure Without Dynamic Compensation {F13.4}
CP_HYD.PSI                                             :Hydrostatic Sapphire Pressure With Dynamic Compensation {F13.4}
MTEP_QG.DEGC                                           :CQG Manometer Temperature {F13.4}
PTNO_XPT.                                              :XPT Pretest Number {I11}
ETIM_XPT.S                                             :Elapsed Logging Time {F13.4}
PCO_SAP.PSI                                            :Sapphire Dynamic Compensation {F13.4}
PND_SAP.PSI                                            :Sapphire Pressure Without Dynamic Compensation {F13.4}
CP_SAP.PSI                                             :Sapphire Pressure With Dynamic Compensation {F13.4}
QNDP .PSI                                              :CQG Pressure Without Dynamic Compensation {F13.4}
QCP  .PSI                                              :CQG Pressure With Dynamic Compensation {F13.4}
QPCO .PSI                                              :CQG Dynamic Compensation {F13.4}
#-----------------------------------------------------------------------------
# 
#     TIME      TENS_SL      DEPT_SL      PDEP_XPT     MTEP_SAP     MTEP_HYD     PCO_HYD      PND_HYD       CP_HYD      MTEP_QG       PTNO_XPT       ETIM_XPT     PCO_SAP      PND_SAP       CP_SAP        QNDP         QCP          QPCO
#
~A  
# ...
    4897.0    4749.5890 1443523.0000    3664.9392     121.8526     122.4076       0.0019    5967.4800    5967.4821     122.4576          9     279.6870       0.0078    5509.1571    5509.1647    5506.2857    5506.3335       0.0480
    4898.0    4722.6950 1443523.0000    3664.9392     121.8525     122.4075       0.0035    5967.5669    5967.5703     122.4579          9     280.6870       0.0033    5509.3511    5509.3544    5506.5872    5506.6340       0.0468
    4899.0    4712.5040 1443523.0000    3664.9392     121.8539     122.4067       0.0033    5967.6662    5967.6696     122.4581          9     281.6870       0.0000    5509.7921    5509.7921    5506.8896    5506.9360       0.0464
    4900.0    4694.8860 1443523.0000    3664.9392     121.8522     122.4069       0.0026    5967.6572    5967.6596     122.4583          9     282.6870      -0.0008    5509.9275    5509.9266    5507.1616    5507.2080       0.0465
    4901.0    4706.5490 1443523.0000    3664.9392     121.8524     122.4081       0.0037    5967.6104    5967.6141     122.4583          9     283.6870       0.0007    5510.2273    5510.2281    5507.4530    5507.4991       0.0461
    4902.0    4767.2120 1443523.0000    3664.9392     121.8518     122.4088       0.0069    5967.5711    5967.5779     122.4581          9     284.6870       0.0037    5510.4985    5510.5023    5507.7464    5507.7919       0.0455
    4903.0    4804.7400 1443523.0000    3664.9392     121.8539     122.4067       0.0094    5967.5360    5967.5454     122.4588          9     285.6870       0.0072    5510.7587    5510.7659    5508.0096    5508.0550       0.0455
    4904.0    4821.3050 1443523.0000    3664.9392     121.8535     122.4075       0.0094    5967.4844    5967.4939     122.4589          9     286.6870       0.0094    5511.0564    5511.0659    5508.2847    5508.3306       0.0460
    4905.0    4839.7400 1443523.0000    3664.9392     121.8527     122.4081       0.0075    5967.4969    5967.5043     122.4591          9     287.6870       0.0093    5511.2226    5511.2319    5508.5502    5508.5961       0.0461
    4906.0    4844.6260 1443523.0000    3664.9392     121.8546     122.4081       0.0051    5967.4424    5967.4476     122.4590          9     288.6870       0.0083    5511.6490    5511.6572    5508.8123    5508.8577       0.0455
    4907.0    4819.9550 1443523.0000    3664.9392     121.8533     122.4096       0.0031    5967.5776    5967.5808     122.4592          9     289.6870       0.0068    5511.8458    5511.8528    5509.0924    5509.1373       0.0449
    4908.0    4774.6500 1443523.0000    3664.9392     121.8533     122.4096       0.0008    5967.6361    5967.6371     122.4593          9     290.6870       0.0045    5512.1523    5512.1568    5509.3469    5509.3914       0.0445
    4909.0    4751.4430 1443523.0000    3664.9392     121.8540     122.4072      -0.0017    5967.6039    5967.6023     122.4596          9     291.6870       0.0022    5512.3460    5512.3483    5509.6007    5509.6445       0.0437
    4910.0    4726.0160 1443523.0000    3664.9392     121.8554     122.4084      -0.0025    5967.5835    5967.5811     122.4597          9     292.6870       0.0010    5512.6986    5512.6996    5509.8626    5509.9053       0.0427
    4911.0    4716.0000 1443523.0000    3664.9392     121.8549     122.4081      -0.0000    5967.6802    5967.6801     122.4596          9     293.6870       0.0004    5512.9016    5512.9021    5510.1052    5510.1472       0.0420
    4912.0    4711.8780 1443523.0000    3664.9392     121.8520     122.4081       0.0044    5967.6730    5967.6773     122.4601          9     294.6870      -0.0007    5512.9921    5512.9915    5510.3421    5510.3846       0.0425
    4913.0    4737.4800 1443523.0000    3664.9392     121.8541     122.4079       0.0072    5967.5186    5967.5257     122.4599          9     295.6870      -0.0010    5513.3715    5513.3705    5510.5981    5510.6414       0.0432
    4914.0    4768.5490 1443523.0000    3664.9392     121.8546     122.4093       0.0075    5967.6522    5967.6596     122.4602          9     296.6870       0.0007    5513.6155    5513.6160    5510.8311    5510.8740       0.0431
    4915.0    4776.3130 1443523.0000    3664.9392     121.8546     122.4092       0.0064    5967.6157    5967.6221     122.4604          9     297.6870       0.0033    5513.8650    5513.8683    5511.0577    5511.1005       0.0427
    4916.0    4755.3900 1443523.0000    3664.9392     121.8536     122.4094       0.0050    5967.6167    5967.6218     122.4605          9     298.6870       0.0050    5513.9479    5513.9531    5511.2931    5511.3356       0.0424
    4917.0    4735.6950 1443523.0000    3664.9392     121.8545     122.4089       0.0031    5967.5890    5967.5919     122.4604          9     299.6870       0.0054    5514.4038    5514.4091    5511.5160    5511.5579       0.0420
    4918.0    4738.5570 1443523.0000    3664.9392     121.8531     122.4092       0.0007    5967.6157    5967.6164     122.4606          9     300.6870       0.0050    5514.4638    5514.4687    5511.7404    5511.7813       0.0407
    4919.0    4772.9150 1443523.0000    3664.9392     121.8546     122.4091      -0.0007    5967.5718    5967.5710     122.4609          9     301.6870       0.0046    5514.7787    5514.7833    5511.9717    5512.0109       0.0391
    4920.0    4807.6100 1443523.0000    3664.9392     121.8545     122.4093      -0.0006    5967.5962    5967.5957     122.4608          9     302.6870       0.0037    5514.9226    5514.9265    5512.1776    5512.2162       0.0384
    4921.0    4825.2440 1443523.0000    3664.9392     121.8540     122.4083       0.0003    5967.6066    5967.6071     122.4612          9     303.6870       0.0023    5515.0496    5515.0519    5512.3862    5512.4250       0.0387
    4922.0    4828.3130 1443523.0000    3664.9392     121.8545     122.4091       0.0006    5967.5132    5967.5137     122.4612          9     304.6870       0.0015    5515.4140    5515.4155    5512.6043    5512.6434       0.0390
    4923.0    4819.0690 1443523.0000    3664.9392     121.8546     122.4079       0.0005    5967.4782    5967.4787     122.4616          9     305.6870       0.0023    5515.4797    5515.4821    5512.8048    5512.8439       0.0390
    4924.0    4797.8250 1443523.0000    3664.9392     121.8542     122.4096       0.0007    5967.5991    5967.5998     122.4616          9     306.6870       0.0047    5515.7663    5515.7709    5513.0067    5513.0457       0.0391
    4925.0    4781.0690 1443523.0000    3664.9392     121.8544     122.4085       0.0006    5967.6260    5967.6265     122.4617          9     307.6870       0.0068    5516.0046    5516.0113    5513.2135    5513.2531       0.0395
    4926.0    4772.8780 1443523.0000    3664.9392     121.8566     122.4089      -0.0008    5967.5864    5967.5855     122.4617          9     308.6870       0.0084    5516.1679    5516.1762    5513.4013    5513.4414       0.0399
    4927.0    4768.2520 1443523.0000    3664.9392     121.8561     122.4091      -0.0023    5967.5726    5967.5705     122.4618          9     309.6870       0.0093    5516.4115    5516.4207    5513.5884    5513.6279       0.0396
    4928.0    4761.5040 1443523.0000    3664.9392     121.8536     122.4091      -0.0016    5967.5719    5967.5703     122.4620          9     310.6870       0.0094    5516.5034    5516.5127    5513.7787    5513.8175       0.0389
    4929.0    4756.2520 1443523.0000    3664.9392     121.8552     122.4090       0.0013    5967.5709    5967.5723     122.4621          9     311.6870       0.0076    5516.6322    5516.6400    5513.9566    5513.9946       0.0380
    4930.0    4773.5490 1443523.0000    3664.9392     121.8560     122.4073       0.0046    5967.5542    5967.5589     122.4621          9     312.6870       0.0049    5516.9640    5516.9689    5514.1426    5514.1797       0.0371
    4931.0    4826.6550 1443523.0000    3664.9392     121.8553     122.4090       0.0069    5967.5869    5967.5939     122.4624          9     313.6870       0.0023    5517.1093    5517.1114    5514.3314    5514.3680       0.0365
