~VERSION INFORMATION
VERS.           2.0   :CWLS Log ASCII Standard - VERSION 2.0
WRAP.           NO    :One Line per depth step
PROD.  Schlumberger   :LAS Producer
PROG.  DLIS to ASCII 2.2                               :LAS Program name and version
CREA.        2020/10/30 12:18                          :LAS Creation date {YYYY/MM/DD hh:mm}
SOURCE.     XPT_HRLA_TLD_MCFL_063LTP.DLIS              :DLIS File Name
FILE-ID.     XPT_HRLA_TLD_MCFL_063LTP                  :File Identification Number
#--------------------------------------------------
~WELL INFORMATION
#MNEM.UNIT      DATA             DESCRIPTION
#---- ------ --------------   -----------------------------
STRT .S          150.0       :START TIME      
STOP .S          316.0       :STOP TIME      
STEP .S            1.0       :STEP     
NULL .          -999.25      :NULL VALUE
COMP .        Nexus Energy                             :COMPANY
WELL .        Crux-3                                   :WELL
FLD  .        Crux                                     :FIELD
LOC  .        Easting: 656981.7mE                      :LOCATION
CNTY .        Sedco-703                                :COUNTY
STAT .        Northern Territory                       :STATE
CTRY .        Australia                                :COUNTRY
API  .                                                 :API NUMBER
UWI  .                                                 :UNIQUE WELL ID
DATE .        31-Dec-2007                              :LOG DATE {DD-MMM-YYYY}
SRVC .        Schlumberger                             :SERVICE COMPANY
LATI .DEG     12*57'32.63" S                           :LATITUDE
LONG .DEG     124*26'50.07" E                          :LONGITUDE
GDAT .                                                 :GeoDetic Datum
#-----------------------------------------------------------------------------
~PARAMETER INFORMATION
#MNEM.UNIT    VALUE                      DESCRIPTION
#---- -----   --------------------       ------------------------
RUN  .          1                        :RUN NUMBER
PDAT .        LAT                        :Permanent Datum
EPD  .M           0.000000               :Elevation of Permanent Datum above Mean Sea Level
EPD  .M           0.000000               :Elevation of tool zero above Mean Sea Level
LMF  .          DF                       :Logging Measured From (Name of Logging Elevation Reference)
APD  .M          26.400000               :Elevation of Depth Reference (LMF) above Permanent Datum
#-----------------------------------------------------------------------------
~CURVE INFORMATION
#MNEM.UNIT   API CODE                                  DESCRIPTION
#---- -----  --------                                  -----------------------
TIME .S                                                :TIME {F10.1}
TENS_SL.LBF                                            :Cable Tension {F13.4}
DEPT_SL..1IN                                           :Station logging depth {F13.4}
PDEP_XPT.M                                             :XPT Probe Depth {F13.4}
MTEP_SAP.DEGC                                          :Sapphire Gauge Manometer Temperature {F13.4}
MTEP_HYD.DEGC                                          :Hydrostatic Sapphire Gauge Manometer Temperature {F13.4}
PCO_HYD.PSI                                            :Hydrostatic Sapphire Dynamic Compensation {F13.4}
PND_HYD.PSI                                            :Hydrostatic Sapphire Pressure Without Dynamic Compensation {F13.4}
CP_HYD.PSI                                             :Hydrostatic Sapphire Pressure With Dynamic Compensation {F13.4}
MTEP_QG.DEGC                                           :CQG Manometer Temperature {F13.4}
PTNO_XPT.                                              :XPT Pretest Number {I11}
ETIM_XPT.S                                             :Elapsed Logging Time {F13.4}
PCO_SAP.PSI                                            :Sapphire Dynamic Compensation {F13.4}
PND_SAP.PSI                                            :Sapphire Pressure Without Dynamic Compensation {F13.4}
CP_SAP.PSI                                             :Sapphire Pressure With Dynamic Compensation {F13.4}
QNDP .PSI                                              :CQG Pressure Without Dynamic Compensation {F13.4}
QCP  .PSI                                              :CQG Pressure With Dynamic Compensation {F13.4}
QPCO .PSI                                              :CQG Dynamic Compensation {F13.4}
#-----------------------------------------------------------------------------
# 
#     TIME      TENS_SL      DEPT_SL      PDEP_XPT     MTEP_SAP     MTEP_HYD     PCO_HYD      PND_HYD       CP_HYD      MTEP_QG       PTNO_XPT       ETIM_XPT     PCO_SAP      PND_SAP       CP_SAP        QNDP         QCP          QPCO
#
~A  
# ...
     220.0    5108.7465 1528190.0000    3879.9937     129.5212     130.0285      -0.0605    6309.5652    6309.5047     130.2569         26      70.3493      -0.1363    6245.0251    6244.8889    6243.8552    6243.4611      -0.3940
     221.0    5120.7324 1528190.0000    3879.9937     129.5221     130.0266      -0.0572    6309.5345    6309.4772     130.2556         26      71.3493      -0.1129    6242.3407    6242.2277    6240.8417    6240.4461      -0.3958
     222.0    5134.5549 1528190.0000    3879.9937     129.5219     130.0260      -0.0531    6309.5276    6309.4746     130.2548         26      72.3493      -0.0898    6241.2565    6241.1666    6238.4437    6238.0491      -0.3945
     223.0    5101.3577 1528190.0000    3879.9937     129.5191     130.0251      -0.0487    6309.4882    6309.4396     130.2534         26      73.3493      -0.0767    6236.3642    6236.2875    6234.0698    6233.6704      -0.3993
     224.0    5042.4113 1528190.0000    3879.9937     129.5190     130.0255      -0.0447    6309.4619    6309.4173     130.2523         26      74.3493      -0.0725    6234.3975    6234.3250    6229.1553    6228.7493      -0.4058
     225.0    5021.8704 1528190.0000    3879.9937     129.5184     130.0247      -0.0429    6309.5747    6309.5317     130.2506         26      75.3493      -0.0684    6224.8799    6224.8114    6215.8887    6215.4859      -0.4028
     226.0    5023.6085 1528190.0000    3879.9937     129.5153     130.0239      -0.0433    6309.6270    6309.5837     130.2496         26      76.3493      -0.0600    6211.4258    6211.3657    6207.9910    6207.6038      -0.3872
     227.0    5065.4930 1528190.0000    3879.9937     129.5122     130.0225      -0.0440    6309.6317    6309.5878     130.2477         26      77.3493      -0.0477    6198.2994    6198.2517    6196.9737    6196.6100      -0.3637
     228.0    5097.1494 1528190.0000    3879.9937     129.5128     130.0215      -0.0439    6309.6003    6309.5564     130.2468         26      78.3493      -0.0324    6196.0849    6196.0526    6194.6260    6194.2889      -0.3373
     229.0    5141.9042 1528190.0000    3879.9937     129.5156     130.0202      -0.0433    6309.5864    6309.5430     130.2462         26      79.3493      -0.0162    6200.1589    6200.1428    6198.4591    6198.1497      -0.3093
     230.0    5128.5690 1528190.0000    3879.9937     129.5120     130.0197      -0.0438    6309.5208    6309.4769     130.2449         26      80.3493      -0.0051    6200.5397    6200.5345    6198.8615    6198.5781      -0.2834
     231.0    5096.3295 1528190.0000    3879.9937     129.5144     130.0202      -0.0457    6309.5264    6309.4808     130.2445         26      81.3493      -0.0038    6201.2955    6201.2918    6199.6214    6199.3552      -0.2663
     232.0    5060.6169 1528190.0000    3879.9937     129.5131     130.0202      -0.0489    6309.5264    6309.4775     130.2435         26      82.3493      -0.0126    6201.6844    6201.6717    6199.9654    6199.7030      -0.2623
     233.0    5029.2816 1528190.0000    3879.9937     129.5135     130.0180      -0.0523    6309.5624    6309.5099     130.2426         26      83.3493      -0.0296    6201.4978    6201.4681    6199.6613    6199.3900      -0.2715
     234.0    5018.8620 1528190.0000    3879.9937     129.5139     130.0163      -0.0548    6309.6047    6309.5499     130.2420         26      84.3493      -0.0527    6201.1801    6201.1275    6199.2133    6198.9226      -0.2906
     235.0    5038.6309 1528190.0000    3879.9937     129.5118     130.0153      -0.0550    6309.6091    6309.5541     130.2414         26      85.3493      -0.0787    6201.7631    6201.6845    6199.8292    6199.5119      -0.3172
     236.0    5009.3014 1528190.0000    3879.9937     129.5107     130.0156      -0.0530    6309.7677    6309.7148     130.2404         26      86.3493      -0.1029    6193.1476    6193.0446    6191.2926    6190.9438      -0.3491
     237.0    5015.3352 1528190.0000    3879.9937     129.5081     130.0133      -0.0502    6309.6880    6309.6379     130.2391         26      87.3493      -0.1212    6179.3318    6179.2106    6177.6327    6177.2497      -0.3828
     238.0    5031.7944 1528190.0000    3879.9937     129.5041     130.0126      -0.0479    6309.5955    6309.5477     130.2376         26      88.3493      -0.1304    6163.2152    6163.0849    6161.8686    6161.4560      -0.4125
     239.0    5044.6845 1528190.0000    3879.9937     129.5022     130.0114      -0.0481    6309.6512    6309.6030     130.2363         26      89.3493      -0.1288    6149.1422    6149.0134    6147.8237    6147.3910      -0.4326
     240.0    5072.9719 1528190.0000    3879.9937     129.4979     130.0116      -0.0507    6309.6051    6309.5546     130.2351         26      90.3493      -0.1111    6134.5641    6134.4530    6133.4085    6132.9804      -0.4279
     241.0    5105.6366 1528190.0000    3879.9937     129.4984     130.0090      -0.0530    6309.5871    6309.5342     130.2333         26      91.3493      -0.0605    6121.7980    6121.7374    6120.6522    6120.2871      -0.3650
     242.0    5124.2873 1528190.0000    3879.9937     129.4970     130.0110      -0.0527    6309.6790    6309.6263     130.2320         26      92.3493       0.0344    6114.2285    6114.2629    6113.0180    6112.7936      -0.2243
     243.0    5134.6028 1528190.0000    3879.9937     129.4952     130.0086      -0.0513    6309.5515    6309.5003     130.2311         26      93.3493       0.1545    6109.1681    6109.3227    6107.8663    6107.8308      -0.0354
     244.0    5131.3014 1528190.0000    3879.9937     129.4943     130.0054      -0.0515    6309.5177    6309.4662     130.2294         26      94.3493       0.2567    6101.3951    6101.6519    6100.1670    6100.3095       0.1425
     245.0    5134.8902 1528190.0000    3879.9937     129.4932     130.0065      -0.0512    6309.6200    6309.5687     130.2284         26      95.3493       0.3113    6097.9681    6098.2794    6096.6604    6096.9386       0.2783
     246.0    5144.0000 1528190.0000    3879.9937     129.5266     130.0072      -0.0486    6309.6375    6309.5888     130.2368         26      96.3493       0.3168    6308.8407    6309.1575    6304.5224    6304.8991       0.3767
     247.0    5141.9042 1528190.0000    3879.9937     129.5330     130.0035      -0.0459    6309.5278    6309.4822     130.2370         26      97.3493       0.2753    6308.2502    6308.5254    6304.3469    6304.7754       0.4285
     248.0    5130.6648 1528190.0000    3879.9937     129.5322     130.0034      -0.0458    6309.5203    6309.4745     130.2372         26      98.3493       0.1855    6307.9557    6308.1414    6304.3726    6304.7836       0.4108
     249.0    5089.0562 1528190.0000    3879.9937     129.5304     130.0026      -0.0468    6309.4929    6309.4460     130.2381         26      99.3493       0.0673    6307.7375    6307.8049    6304.4870    6304.8289       0.3418
     250.0    5040.8423 1528190.0000    3879.9937     129.5281     130.0022      -0.0458    6309.5585    6309.5129     130.2389         26     100.3493      -0.0366    6307.6000    6307.5634    6304.5556    6304.8293       0.2736
     251.0    5045.5549 1528190.0000    3879.9937     129.5256     130.0011      -0.0432    6309.5897    6309.5466     130.2396         26     101.3493      -0.0963    6307.3547    6307.2585    6304.6046    6304.8435       0.2387
     252.0    5039.9521 1528190.0000    3879.9937     129.5231     129.9999      -0.0423    6309.6957    6309.6532     130.2404         26     102.3493      -0.1163    6307.4049    6307.2886    6304.7645    6304.9889       0.2242
     253.0    5037.6507 1528190.0000    3879.9937     129.5213     129.9994      -0.0437    6309.7057    6309.6620     130.2413         26     103.3493      -0.1177    6307.2976    6307.1800    6304.7903    6304.9957       0.2055
     254.0    5061.4508 1528190.0000    3879.9937     129.5197     129.9983      -0.0460    6309.6533    6309.6074     130.2417         26     104.3493      -0.1142    6307.2411    6307.1271    6304.7965    6304.9743       0.1776
