~VERSION INFORMATION
VERS.           2.0   :CWLS Log ASCII Standard - VERSION 2.0
WRAP.           NO    :One Line per depth step
PROD.  Schlumberger   :LAS Producer
PROG.  DLIS to ASCII 2.2                               :LAS Program name and version
CREA.        2020/10/30 12:18                          :LAS Creation date {YYYY/MM/DD hh:mm}
SOURCE.     XPT_HRLA_TLD_MCFL_069LTP.DLIS              :DLIS File Name
FILE-ID.     XPT_HRLA_TLD_MCFL_069LTP                  :File Identification Number
#--------------------------------------------------
~WELL INFORMATION
#MNEM.UNIT      DATA             DESCRIPTION
#---- ------ --------------   -----------------------------
STRT .S         1113.0       :START TIME      
STOP .S         1454.0       :STOP TIME      
STEP .S            1.0       :STEP     
NULL .          -999.25      :NULL VALUE
COMP .        Nexus Energy                             :COMPANY
WELL .        Crux-3                                   :WELL
FLD  .        Crux                                     :FIELD
LOC  .        Easting: 656981.7mE                      :LOCATION
CNTY .        Sedco-703                                :COUNTY
STAT .        Northern Territory                       :STATE
CTRY .        Australia                                :COUNTRY
API  .                                                 :API NUMBER
UWI  .                                                 :UNIQUE WELL ID
DATE .        31-Dec-2007                              :LOG DATE {DD-MMM-YYYY}
SRVC .        Schlumberger                             :SERVICE COMPANY
LATI .DEG     12*57'32.63" S                           :LATITUDE
LONG .DEG     124*26'50.07" E                          :LONGITUDE
GDAT .                                                 :GeoDetic Datum
#-----------------------------------------------------------------------------
~PARAMETER INFORMATION
#MNEM.UNIT    VALUE                      DESCRIPTION
#---- -----   --------------------       ------------------------
RUN  .          1                        :RUN NUMBER
PDAT .        LAT                        :Permanent Datum
EPD  .M           0.000000               :Elevation of Permanent Datum above Mean Sea Level
EPD  .M           0.000000               :Elevation of tool zero above Mean Sea Level
LMF  .          DF                       :Logging Measured From (Name of Logging Elevation Reference)
APD  .M          26.400000               :Elevation of Depth Reference (LMF) above Permanent Datum
#-----------------------------------------------------------------------------
~CURVE INFORMATION
#MNEM.UNIT   API CODE                                  DESCRIPTION
#---- -----  --------                                  -----------------------
TIME .S                                                :TIME {F10.1}
TENS_SL.LBF                                            :Cable Tension {F13.4}
DEPT_SL..1IN                                           :Station logging depth {F13.4}
PDEP_XPT.M                                             :XPT Probe Depth {F13.4}
MTEP_SAP.DEGC                                          :Sapphire Gauge Manometer Temperature {F13.4}
MTEP_HYD.DEGC                                          :Hydrostatic Sapphire Gauge Manometer Temperature {F13.4}
PCO_HYD.PSI                                            :Hydrostatic Sapphire Dynamic Compensation {F13.4}
PND_HYD.PSI                                            :Hydrostatic Sapphire Pressure Without Dynamic Compensation {F13.4}
CP_HYD.PSI                                             :Hydrostatic Sapphire Pressure With Dynamic Compensation {F13.4}
MTEP_QG.DEGC                                           :CQG Manometer Temperature {F13.4}
PTNO_XPT.                                              :XPT Pretest Number {I11}
ETIM_XPT.S                                             :Elapsed Logging Time {F13.4}
PCO_SAP.PSI                                            :Sapphire Dynamic Compensation {F13.4}
PND_SAP.PSI                                            :Sapphire Pressure Without Dynamic Compensation {F13.4}
CP_SAP.PSI                                             :Sapphire Pressure With Dynamic Compensation {F13.4}
QNDP .PSI                                              :CQG Pressure Without Dynamic Compensation {F13.4}
QCP  .PSI                                              :CQG Pressure With Dynamic Compensation {F13.4}
QPCO .PSI                                              :CQG Dynamic Compensation {F13.4}
#-----------------------------------------------------------------------------
# 
#     TIME      TENS_SL      DEPT_SL      PDEP_XPT     MTEP_SAP     MTEP_HYD     PCO_HYD      PND_HYD       CP_HYD      MTEP_QG       PTNO_XPT       ETIM_XPT     PCO_SAP      PND_SAP       CP_SAP        QNDP         QCP          QPCO
#
~A  
# ...
    1358.0    5042.5612 1534897.0000    3897.0293     132.5966     132.8737      -0.1392    6336.1528    6336.0135     133.3620         34     244.8951      -0.1361    5816.0439    5815.9076    5814.8040    5814.2322      -0.5716
    1359.0    5049.3146 1534897.0000    3897.0293     132.5949     132.8709      -0.1409    6336.1039    6335.9629     133.3601         34     245.8951      -0.1379    5815.8449    5815.7071    5814.5875    5814.0147      -0.5728
    1360.0    5050.7903 1534897.0000    3897.0293     132.5896     132.8694      -0.1414    6336.0281    6335.8865     133.3585         34     246.8951      -0.1402    5815.5419    5815.4018    5814.3602    5813.7860      -0.5742
    1361.0    5038.4682 1534897.0000    3897.0293     132.5887     132.8663      -0.1403    6336.0327    6335.8922     133.3567         34     247.8951      -0.1409    5815.3833    5815.2424    5814.1744    5813.5995      -0.5748
    1362.0    4951.0680 1534897.0000    3897.0293     132.5868     132.8635      -0.1391    6336.1071    6335.9679     133.3550         34     248.8951      -0.1391    5815.1858    5815.0468    5813.9648    5813.3901      -0.5748
    1363.0    4913.2511 1534897.0000    3897.0293     132.5840     132.8602      -0.1390    6336.1136    6335.9744     133.3530         34     249.8951      -0.1373    5815.0378    5814.9006    5813.7429    5813.1682      -0.5747
    1364.0    4890.3072 1534897.0000    3897.0293     132.5827     132.8592      -0.1406    6336.1801    6336.0395     133.3512         34     250.8951      -0.1363    5814.7534    5814.6172    5813.5623    5812.9866      -0.5756
    1365.0    4897.8464 1534897.0000    3897.0293     132.5795     132.8562      -0.1420    6336.3290    6336.1871     133.3498         34     251.8951      -0.1353    5814.6138    5814.4784    5813.3509    5812.7744      -0.5765
    1366.0    4884.6780 1534897.0000    3897.0293     132.5779     132.8534      -0.1433    6336.3385    6336.1949     133.3479         34     252.8951      -0.1326    5814.4081    5814.2753    5813.1358    5812.5587      -0.5771
    1367.0    4970.7222 1534897.0000    3897.0293     132.5749     132.8513      -0.1423    6336.2190    6336.0769     133.3463         34     253.8951      -0.1295    5814.2191    5814.0897    5812.9414    5812.3638      -0.5777
    1368.0    4972.0487 1534897.0000    3897.0293     132.5728     132.8478      -0.1401    6336.0602    6335.9202     133.3444         34     254.8951      -0.1293    5813.9376    5813.8082    5812.7304    5812.1528      -0.5778
    1369.0    5009.4904 1534897.0000    3897.0293     132.5711     132.8442      -0.1361    6336.1205    6335.9843     133.3425         34     255.8951      -0.1339    5813.7419    5813.6082    5812.5183    5811.9320      -0.5864
    1370.0    5033.6928 1534897.0000    3897.0293     132.5674     132.8432      -0.1311    6335.9502    6335.8190     133.3410         34     256.8951      -0.1524    5813.5686    5813.4160    5812.3356    5811.7180      -0.6174
    1371.0    5019.8877 1534897.0000    3897.0293     132.5653     132.8412      -0.1260    6336.0076    6335.8816     133.3390         34     257.8951      -0.1443    5813.3450    5813.2009    5812.1264    5811.5379      -0.5887
    1372.0    4959.8169 1534897.0000    3897.0293     132.5633     132.8381      -0.1219    6336.0564    6335.9343     133.3374         34     258.8951      -0.0334    5813.1672    5813.1337    5811.9381    5811.5713      -0.3669
    1373.0    4943.1536 1534897.0000    3897.0293     132.5609     132.8366      -0.1204    6336.1621    6336.0420     133.3355         34     259.8951       0.2040    5813.0134    5813.2174    5811.7395    5811.7975       0.0582
    1374.0    4931.2585 1534897.0000    3897.0293     132.5573     132.8356      -0.1214    6336.2119    6336.0905     133.3337         34     260.8951       0.4684    5812.7688    5813.2372    5811.5383    5812.0508       0.5125
    1375.0    4918.3634 1534897.0000    3897.0293     132.5299     132.8313      -0.1251    6336.2855    6336.1606     133.3241         35     261.8951       0.6255    5643.2421    5643.8676    5645.2056    5646.0229       0.8172
    1376.0    4881.1950 1534897.0000    3897.0293     132.6072     132.8297      -0.1305    6336.2104    6336.0799     133.3506         35     262.8951       0.6355    6275.2811    6275.9164    6262.9588    6263.9303       0.9714
    1377.0    4916.3855 1534897.0000    3897.0293     132.6413     132.8282      -0.1361    6336.1333    6335.9971     133.3532         35     263.8951       0.5418    6331.5361    6332.0779    6324.4977    6325.5396       1.0418
    1378.0    5033.7858 1534897.0000    3897.0293     132.6456     132.8267      -0.1403    6336.2374    6336.0972     133.3542         35     264.8951       0.3692    6334.5750    6334.9442    6327.6787    6328.6961       1.0176
    1379.0    5032.6780 1534897.0000    3897.0293     132.6395     132.8237      -0.1418    6336.0849    6335.9431     133.3555         35     265.8951       0.1253    6329.0245    6329.1496    6322.9379    6323.7987       0.8609
    1380.0    5015.7829 1534897.0000    3897.0293     132.5949     132.8206      -0.1414    6335.9914    6335.8502     133.3464         35     266.8951      -0.1362    6083.7410    6083.6048    6082.7754    6083.3964       0.6210
    1381.0    4997.8877 1534897.0000    3897.0293     132.6010     132.8167      -0.1397    6335.7696    6335.6300     133.3531         35     267.8951      -0.3597    6193.8863    6193.5265    6192.1129    6192.4658       0.3531
    1382.0    4989.7341 1534897.0000    3897.0293     132.6088     132.8147      -0.1371    6335.9895    6335.8525     133.3597         35     268.8951      -0.5301    6314.1431    6313.6129    6309.0108    6309.0933       0.0825
    1383.0    4929.9218 1534897.0000    3897.0293     132.6099     132.8127      -0.1339    6336.1498    6336.0162     133.3617         35     269.8951      -0.6364    6332.3974    6331.7609    6328.7977    6328.6527      -0.1448
    1384.0    4932.8464 1534897.0000    3897.0293     132.6038     132.8099      -0.1309    6336.1199    6335.9890     133.3629         35     270.8951      -0.6384    6332.2608    6331.6224    6328.9542    6328.7049      -0.2491
    1385.0    4947.4269 1534897.0000    3897.0293     132.5873     132.8079      -0.1288    6336.2201    6336.0913     133.3598         35     271.8951      -0.5292    6244.5652    6244.0358    6243.5642    6243.3262      -0.2382
    1386.0    4946.3146 1534897.0000    3897.0293     132.5300     132.8054      -0.1278    6336.3749    6336.2469     133.3460         35     272.8951      -0.3684    5945.5543    5945.1858    5948.6382    5948.4421      -0.1962
    1387.0    4937.9439 1534897.0000    3897.0293     132.4742     132.8028      -0.1278    6336.3477    6336.2198     133.3324         35     273.8951      -0.1923    5691.0250    5690.8327    5697.0734    5696.9503      -0.1230
    1388.0    4902.9852 1534897.0000    3897.0293     132.5634     132.8006      -0.1287    6336.1828    6336.0543     133.3599         35     274.8951       0.0116    6333.5741    6333.5858    6330.9689    6331.0223       0.0534
    1389.0    4995.6735 1534897.0000    3897.0293     132.5750     132.7982      -0.1296    6336.1984    6336.0686     133.3580         35     275.8951       0.1919    6334.4241    6334.6161    6330.6405    6330.8940       0.2535
    1390.0    4974.7755 1534897.0000    3897.0293     132.5742     132.7965      -0.1305    6336.1792    6336.0489     133.3566         35     276.8951       0.2334    6334.5076    6334.7412    6330.6644    6330.9469       0.2824
    1391.0    5009.4904 1534897.0000    3897.0293     132.5735     132.7939      -0.1317    6336.0897    6335.9582     133.3559         35     277.8951       0.1047    6334.0928    6334.1976    6330.6274    6330.7378       0.1103
    1392.0    5038.1684 1534897.0000    3897.0293     132.5664     132.7903      -0.1326    6335.9109    6335.7781     133.3553         35     278.8951      -0.0853    6333.5075    6333.4222    6330.6841    6330.5827      -0.1013
