~VERSION INFORMATION
VERS.           2.0   :CWLS Log ASCII Standard - VERSION 2.0
WRAP.           NO    :One Line per depth step
PROD.  Schlumberger   :LAS Producer
PROG.  DLIS to ASCII 2.2                               :LAS Program name and version
CREA.        2020/10/30 12:18                          :LAS Creation date {YYYY/MM/DD hh:mm}
SOURCE.     XPT_HRLA_TLD_MCFL_063LTP.DLIS              :DLIS File Name
FILE-ID.     XPT_HRLA_TLD_MCFL_063LTP                  :File Identification Number
#--------------------------------------------------
~WELL INFORMATION
#MNEM.UNIT      DATA             DESCRIPTION
#---- ------ --------------   -----------------------------
STRT .S          150.0       :START TIME      
STOP .S          316.0       :STOP TIME      
STEP .S            1.0       :STEP     
NULL .          -999.25      :NULL VALUE
COMP .        Nexus Energy                             :COMPANY
WELL .        Crux-3                                   :WELL
FLD  .        Crux                                     :FIELD
LOC  .        Easting: 656981.7mE                      :LOCATION
CNTY .        Sedco-703                                :COUNTY
STAT .        Northern Territory                       :STATE
CTRY .        Australia                                :COUNTRY
API  .                                                 :API NUMBER
UWI  .                                                 :UNIQUE WELL ID
DATE .        31-Dec-2007                              :LOG DATE {DD-MMM-YYYY}
SRVC .        Schlumberger                             :SERVICE COMPANY
LATI .DEG     12*57'32.63" S                           :LATITUDE
LONG .DEG     124*26'50.07" E                          :LONGITUDE
GDAT .                                                 :GeoDetic Datum
#-----------------------------------------------------------------------------
~PARAMETER INFORMATION
#MNEM.UNIT    VALUE                      DESCRIPTION
#---- -----   --------------------       ------------------------
RUN  .          1                        :RUN NUMBER
PDAT .        LAT                        :Permanent Datum
EPD  .M           0.000000               :Elevation of Permanent Datum above Mean Sea Level
EPD  .M           0.000000               :Elevation of tool zero above Mean Sea Level
LMF  .          DF                       :Logging Measured From (Name of Logging Elevation Reference)
APD  .M          26.400000               :Elevation of Depth Reference (LMF) above Permanent Datum
#-----------------------------------------------------------------------------
~CURVE INFORMATION
#MNEM.UNIT   API CODE                                  DESCRIPTION
#---- -----  --------                                  -----------------------
TIME .S                                                :TIME {F10.1}
TENS_SL.LBF                                            :Cable Tension {F13.4}
DEPT_SL..1IN                                           :Station logging depth {F13.4}
PDEP_XPT.M                                             :XPT Probe Depth {F13.4}
MTEP_SAP.DEGC                                          :Sapphire Gauge Manometer Temperature {F13.4}
MTEP_HYD.DEGC                                          :Hydrostatic Sapphire Gauge Manometer Temperature {F13.4}
PCO_HYD.PSI                                            :Hydrostatic Sapphire Dynamic Compensation {F13.4}
PND_HYD.PSI                                            :Hydrostatic Sapphire Pressure Without Dynamic Compensation {F13.4}
CP_HYD.PSI                                             :Hydrostatic Sapphire Pressure With Dynamic Compensation {F13.4}
MTEP_QG.DEGC                                           :CQG Manometer Temperature {F13.4}
PTNO_XPT.                                              :XPT Pretest Number {I11}
ETIM_XPT.S                                             :Elapsed Logging Time {F13.4}
PCO_SAP.PSI                                            :Sapphire Dynamic Compensation {F13.4}
PND_SAP.PSI                                            :Sapphire Pressure Without Dynamic Compensation {F13.4}
CP_SAP.PSI                                             :Sapphire Pressure With Dynamic Compensation {F13.4}
QNDP .PSI                                              :CQG Pressure Without Dynamic Compensation {F13.4}
QCP  .PSI                                              :CQG Pressure With Dynamic Compensation {F13.4}
QPCO .PSI                                              :CQG Dynamic Compensation {F13.4}
#-----------------------------------------------------------------------------
# 
#     TIME      TENS_SL      DEPT_SL      PDEP_XPT     MTEP_SAP     MTEP_HYD     PCO_HYD      PND_HYD       CP_HYD      MTEP_QG       PTNO_XPT       ETIM_XPT     PCO_SAP      PND_SAP       CP_SAP        QNDP         QCP          QPCO
#
~A  
# ...
     290.0    5096.9108 1528190.0000    3879.9937     129.4752     129.9679      -0.0537    6309.6341    6309.5806     130.2301         27     140.3493      -0.0522    6306.7773    6306.7250    6305.0693    6304.8993      -0.1701
     291.0    5132.6028 1528190.0000    3879.9937     129.4755     129.9662      -0.0575    6309.4848    6309.4270     130.2297         27     141.3493      -0.0514    6306.7856    6306.7343    6305.0483    6304.8778      -0.1706
     292.0    5130.6986 1528190.0000    3879.9937     129.4751     129.9643      -0.0591    6309.4593    6309.4002     130.2290         27     142.3493      -0.0520    6306.7813    6306.7293    6304.9845    6304.8131      -0.1715
     293.0    5129.2055 1528190.0000    3879.9937     129.4730     129.9655      -0.0568    6309.4220    6309.3652     130.2285         27     143.3493      -0.0522    6306.7251    6306.6728    6304.9619    6304.7901      -0.1717
     294.0    5119.4589 1528190.0000    3879.9937     129.4736     129.9636      -0.0517    6309.4626    6309.4107     130.2279         27     144.3493      -0.0507    6306.7667    6306.7160    6304.9931    6304.8218      -0.1714
     295.0    5087.9454 1528190.0000    3879.9937     129.4715     129.9611      -0.0465    6309.4453    6309.3986     130.2276         27     145.3493      -0.0489    6306.8508    6306.8018    6305.0585    6304.8878      -0.1707
     296.0    5046.3973 1528190.0000    3879.9937     129.4679     129.9609      -0.0420    6309.4326    6309.3905     130.2272         27     146.3493      -0.0485    6306.8005    6306.7520    6305.1230    6304.9530      -0.1702
     297.0    5036.0754 1528190.0000    3879.9937     129.4703     129.9613      -0.0387    6309.5675    6309.5290     130.2266         27     147.3493      -0.0480    6306.9196    6306.8714    6305.1119    6304.9421      -0.1697
     298.0    5007.1096 1528190.0000    3879.9937     129.4690     129.9609      -0.0370    6309.5740    6309.5368     130.2260         27     148.3493      -0.0450    6306.8468    6306.8018    6305.1283    6304.9589      -0.1694
     299.0    4996.9521 1528190.0000    3879.9937     129.4670     129.9605      -0.0370    6309.3437    6309.3066     130.2255         27     149.3493      -0.0414    6307.0269    6306.9857    6305.3010    6305.1317      -0.1693
     300.0    4998.1438 1528190.0000    3879.9937     129.4682     129.9586      -0.0383    6309.4181    6309.3799     130.2248         27     150.3493      -0.0408    6306.8682    6306.8276    6305.0808    6304.9114      -0.1693
     301.0    5007.8424 1528190.0000    3879.9937     129.4672     129.9586      -0.0399    6309.4532    6309.4134     130.2244         27     151.3493      -0.0431    6306.9693    6306.9263    6305.1781    6305.0082      -0.1697
     302.0    5027.9246 1528190.0000    3879.9937     129.4675     129.9566      -0.0416    6309.4117    6309.3702     130.2236         27     152.3493      -0.0458    6306.9518    6306.9060    6305.1930    6305.0227      -0.1705
     303.0    5063.5273 1528190.0000    3879.9937     129.4660     129.9576      -0.0428    6309.4844    6309.4414     130.2233         27     153.3493      -0.0470    6306.8170    6306.7701    6305.0387    6304.8678      -0.1711
     304.0    5095.8287 1528190.0000    3879.9937     129.4636     129.9559      -0.0430    6309.4701    6309.4271     130.2229         27     154.3493      -0.0482    6306.7388    6306.6907    6305.0528    6304.8819      -0.1709
     305.0    5121.9383 1528190.0000    3879.9937     129.4616     129.9553      -0.0436    6309.5296    6309.4862     130.2222         27     155.3493      -0.0501    6306.7939    6306.7436    6305.0622    6304.8914      -0.1706
     306.0    5130.9041 1528190.0000    3879.9937     129.4613     129.9547      -0.0446    6309.5142    6309.4697     130.2216         27     156.3493      -0.0510    6306.7535    6306.7023    6305.0209    6304.8500      -0.1709
     307.0    5129.4452 1528190.0000    3879.9937     129.4616     129.9532      -0.0457    6309.4412    6309.3956     130.2211         27     157.3493      -0.0499    6306.7634    6306.7134    6305.0208    6304.8494      -0.1716
     308.0    5135.0479 1528190.0000    3879.9937     129.4612     129.9531      -0.0455    6309.3996    6309.3542     130.2206         27     158.3493      -0.0482    6306.8199    6306.7716    6305.0250    6304.8532      -0.1721
     309.0    5139.4452 1528190.0000    3879.9937     129.4591     129.9512      -0.0445    6309.4497    6309.4053     130.2201         27     159.3493      -0.0475    6306.7486    6306.7013    6305.0639    6304.8921      -0.1718
     310.0    5142.2534 1528190.0000    3879.9937     129.4587     129.9517      -0.0444    6309.4852    6309.4408     130.2194         27     160.3493      -0.0467    6306.5852    6306.5386    6304.8790    6304.7071      -0.1719
     311.0    5123.6303 1528190.0000    3879.9937     129.4567     129.9506      -0.0448    6309.5036    6309.4668     130.2189         27     161.3493      -0.0461    6306.7708    6306.8589    6305.0827    6304.8750      -0.1718
     312.0    5076.8358 1528190.0000    3879.9937     129.4567     129.9491      -0.0448    6309.5484    6309.4668     130.2187         27     162.3493      -0.0461    6306.7900    6306.8589    6305.0709    6304.8750      -0.1718
     313.0    5024.4864 1528190.0000    3879.9937     129.4563     129.9498      -0.0448    6309.5407    6309.4668     130.2181         27     163.3493      -0.0461    6306.8468    6306.8589    6305.1152    6304.8750      -0.1718
     314.0    5008.1642 1528190.0000    3879.9937     129.4551     129.9472      -0.0448    6309.5829    6309.4668     130.2173         27     164.3493      -0.0461    6306.8655    6306.8589    6305.1316    6304.8750      -0.1718
     315.0    5044.4452 1528190.0000    3879.9937     129.4551     129.9466      -0.0448    6309.5703    6309.4668     130.2171         27     165.3493      -0.0461    6306.9069    6306.8589    6305.1690    6304.8750      -0.1718
     316.0    5054.2397 1528190.0000    3879.9937     129.4533     129.9447      -0.0448    6309.6214    6309.4668     130.2164         27     166.3493      -0.0461    6306.8930    6306.8589    6305.2200    6304.8750      -0.1718
