~VERSION INFORMATION
VERS.           2.0   :CWLS Log ASCII Standard - VERSION 2.0
WRAP.           NO    :One Line per depth step
PROD.  Schlumberger   :LAS Producer
PROG.  DLIS to ASCII 2.2                               :LAS Program name and version
CREA.        2020/10/30 12:18                          :LAS Creation date {YYYY/MM/DD hh:mm}
SOURCE.     XPT_HRLA_TLD_MCFL_046LTP.DLIS              :DLIS File Name
FILE-ID.     XPT_HRLA_TLD_MCFL_046LTP                  :File Identification Number
#--------------------------------------------------
~WELL INFORMATION
#MNEM.UNIT      DATA             DESCRIPTION
#---- ------ --------------   -----------------------------
STRT .S         4617.0       :START TIME      
STOP .S         5507.0       :STOP TIME      
STEP .S            1.0       :STEP     
NULL .          -999.25      :NULL VALUE
COMP .        Nexus Energy                             :COMPANY
WELL .        Crux-3                                   :WELL
FLD  .        Crux                                     :FIELD
LOC  .        Easting: 656981.7mE                      :LOCATION
CNTY .        Sedco-703                                :COUNTY
STAT .        Northern Territory                       :STATE
CTRY .        Australia                                :COUNTRY
API  .                                                 :API NUMBER
UWI  .                                                 :UNIQUE WELL ID
DATE .        31-Dec-2007                              :LOG DATE {DD-MMM-YYYY}
SRVC .        Schlumberger                             :SERVICE COMPANY
LATI .DEG     12*57'32.63" S                           :LATITUDE
LONG .DEG     124*26'50.07" E                          :LONGITUDE
GDAT .                                                 :GeoDetic Datum
#-----------------------------------------------------------------------------
~PARAMETER INFORMATION
#MNEM.UNIT    VALUE                      DESCRIPTION
#---- -----   --------------------       ------------------------
RUN  .          1                        :RUN NUMBER
PDAT .        LAT                        :Permanent Datum
EPD  .M           0.000000               :Elevation of Permanent Datum above Mean Sea Level
EPD  .M           0.000000               :Elevation of tool zero above Mean Sea Level
LMF  .          DF                       :Logging Measured From (Name of Logging Elevation Reference)
APD  .M          26.400000               :Elevation of Depth Reference (LMF) above Permanent Datum
#-----------------------------------------------------------------------------
~CURVE INFORMATION
#MNEM.UNIT   API CODE                                  DESCRIPTION
#---- -----  --------                                  -----------------------
TIME .S                                                :TIME {F10.1}
TENS_SL.LBF                                            :Cable Tension {F13.4}
DEPT_SL..1IN                                           :Station logging depth {F13.4}
PDEP_XPT.M                                             :XPT Probe Depth {F13.4}
MTEP_SAP.DEGC                                          :Sapphire Gauge Manometer Temperature {F13.4}
MTEP_HYD.DEGC                                          :Hydrostatic Sapphire Gauge Manometer Temperature {F13.4}
PCO_HYD.PSI                                            :Hydrostatic Sapphire Dynamic Compensation {F13.4}
PND_HYD.PSI                                            :Hydrostatic Sapphire Pressure Without Dynamic Compensation {F13.4}
CP_HYD.PSI                                             :Hydrostatic Sapphire Pressure With Dynamic Compensation {F13.4}
MTEP_QG.DEGC                                           :CQG Manometer Temperature {F13.4}
PTNO_XPT.                                              :XPT Pretest Number {I11}
ETIM_XPT.S                                             :Elapsed Logging Time {F13.4}
PCO_SAP.PSI                                            :Sapphire Dynamic Compensation {F13.4}
PND_SAP.PSI                                            :Sapphire Pressure Without Dynamic Compensation {F13.4}
CP_SAP.PSI                                             :Sapphire Pressure With Dynamic Compensation {F13.4}
QNDP .PSI                                              :CQG Pressure Without Dynamic Compensation {F13.4}
QCP  .PSI                                              :CQG Pressure With Dynamic Compensation {F13.4}
QPCO .PSI                                              :CQG Dynamic Compensation {F13.4}
#-----------------------------------------------------------------------------
# 
#     TIME      TENS_SL      DEPT_SL      PDEP_XPT     MTEP_SAP     MTEP_HYD     PCO_HYD      PND_HYD       CP_HYD      MTEP_QG       PTNO_XPT       ETIM_XPT     PCO_SAP      PND_SAP       CP_SAP        QNDP         QCP          QPCO
#
~A  
# ...
    5282.0    4783.1960 1443523.0000    3664.9392     121.8913     122.4612       0.0109    5967.7063    5967.7172     122.4973         10     664.6870       0.0055    5525.7473    5525.7527    5523.0424    5523.0746       0.0323
    5283.0    4823.8700 1443523.0000    3664.9392     121.8918     122.4612       0.0096    5967.7013    5967.7111     122.4974         10     665.6870       0.0041    5525.8151    5525.8190    5523.0682    5523.1009       0.0328
    5284.0    4831.1220 1443523.0000    3664.9392     121.8906     122.4624       0.0091    5967.6768    5967.6860     122.4974         10     666.6870       0.0058    5525.7098    5525.7154    5523.0933    5523.1265       0.0331
    5285.0    4824.7560 1443523.0000    3664.9392     121.8912     122.4615       0.0097    5967.4479    5967.4577     122.4976         10     667.6870       0.0066    5525.8320    5525.8385    5523.1167    5523.1496       0.0329
    5286.0    4805.8860 1443523.0000    3664.9392     121.8907     122.4619       0.0101    5967.5859    5967.5962     122.4981         10     668.6870       0.0051    5525.7314    5525.7363    5523.1502    5523.1824       0.0323
    5287.0    4751.5970 1443523.0000    3664.9392     121.8909     122.4618       0.0100    5967.6968    5967.7070     122.4978         10     669.6870       0.0043    5525.8110    5525.8154    5523.1725    5523.2046       0.0319
    5288.0    4740.9920 1443523.0000    3664.9392     121.8918     122.4611       0.0107    5967.6570    5967.6676     122.4978         10     670.6870       0.0062    5525.8486    5525.8546    5523.1991    5523.2309       0.0316
    5289.0    4719.8940 1443523.0000    3664.9392     121.8919     122.4635       0.0129    5967.7227    5967.7353     122.4981         10     671.6870       0.0085    5525.9923    5526.0005    5523.2196    5523.2514       0.0315
    5290.0    4732.7320 1443523.0000    3664.9392     121.8901     122.4622       0.0143    5967.8631    5967.8773     122.4981         10     672.6870       0.0093    5525.7352    5525.7444    5523.2542    5523.2859       0.0317
    5291.0    4707.5890 1443523.0000    3664.9392     121.8915     122.4615       0.0130    5967.8437    5967.8566     122.4981         10     673.6870       0.0106    5525.9651    5525.9757    5523.2760    5523.3078       0.0318
    5292.0    4721.9150 1443523.0000    3664.9392     121.8916     122.4635       0.0118    5967.7822    5967.7939     122.4985         10     674.6870       0.0130    5525.8835    5525.8966    5523.2958    5523.3276       0.0317
    5293.0    4773.0980 1443523.0000    3664.9392     121.8920     122.4644       0.0136    5967.8097    5967.8232     122.4985         10     675.6870       0.0143    5525.9641    5525.9783    5523.3256    5523.3573       0.0316
    5294.0    4800.9920 1443523.0000    3664.9392     121.8932     122.4631       0.0165    5967.7542    5967.7706     122.4988         10     676.6870       0.0128    5525.9610    5525.9736    5523.3455    5523.3773       0.0319
    5295.0    4812.1830 1443523.0000    3664.9392     121.8969     122.4638       0.0165    5967.7290    5967.7456     122.4987         10     677.6870       0.0100    5526.2235    5526.2333    5523.3631    5523.3954       0.0323
    5296.0    4810.8780 1443523.0000    3664.9392     121.8927     122.4639       0.0126    5967.5485    5967.5613     122.4989         10     678.6870       0.0074    5526.0226    5526.0301    5523.3895    5523.4222       0.0328
    5297.0    4813.1220 1443523.0000    3664.9392     121.8917     122.4645       0.0079    5967.6391    5967.6470     122.4989         10     679.6870       0.0051    5526.0269    5526.0320    5523.4131    5523.4463       0.0332
    5298.0    4801.2600 1443523.0000    3664.9392     121.8923     122.4657       0.0052    5967.7466    5967.7520     122.4989         10     680.6870       0.0034    5526.0981    5526.1015    5523.4411    5523.4748       0.0337
    5299.0    4767.5200 1443523.0000    3664.9392     121.8925     122.4650       0.0046    5967.7171    5967.7217     122.4992         10     681.6870       0.0033    5526.1261    5526.1295    5523.4627    5523.4969       0.0343
    5300.0    4745.3820 1443523.0000    3664.9392     121.8938     122.4640       0.0055    5967.7061    5967.7118     122.4993         10     682.6870       0.0046    5526.1198    5526.1245    5523.4809    5523.5156       0.0346
    5301.0    4747.1830 1443523.0000    3664.9392     121.8959     122.4635       0.0076    5967.7208    5967.7285     122.4993         10     683.6870       0.0064    5526.3008    5526.3071    5523.5020    5523.5362       0.0343
    5302.0    4767.8620 1443523.0000    3664.9392     121.8930     122.4644       0.0108    5967.6943    5967.7048     122.4995         10     684.6870       0.0080    5526.1774    5526.1853    5523.5272    5523.5613       0.0340
    5303.0    4760.1990 1443523.0000    3664.9392     121.8940     122.4661       0.0142    5967.7420    5967.7563     122.4996         10     685.6870       0.0094    5526.2048    5526.2143    5523.5472    5523.5814       0.0341
    5304.0    4721.3980 1443523.0000    3664.9392     121.8923     122.4658       0.0163    5967.7469    5967.7630     122.4998         10     686.6870       0.0107    5526.2133    5526.2240    5523.5703    5523.6049       0.0344
    5305.0    4697.3820 1443523.0000    3664.9392     121.8933     122.4665       0.0163    5967.8140    5967.8304     122.4997         10     687.6870       0.0116    5526.2942    5526.3060    5523.5923    5523.6263       0.0340
    5306.0    4701.9310 1443523.0000    3664.9392     121.8958     122.4659       0.0144    5967.7481    5967.7624     122.5000         10     688.6870       0.0127    5526.2939    5526.3065    5523.6127    5523.6459       0.0332
    5307.0    4693.6340 1443523.0000    3664.9392     121.8948     122.4658       0.0120    5967.7469    5967.7587     122.5001         10     689.6870       0.0127    5526.4419    5526.4547    5523.6300    5523.6627       0.0326
    5308.0    4745.0210 1443523.0000    3664.9392     121.8944     122.4658       0.0103    5967.6963    5967.7065     122.5004         10     690.6870       0.0103    5526.2669    5526.2773    5523.6523    5523.6846       0.0324
    5309.0    4774.4350 1443523.0000    3664.9392     121.8945     122.4677       0.0105    5967.7671    5967.7776     122.5001         10     691.6870       0.0063    5526.3116    5526.3178    5523.6696    5523.7021       0.0325
    5310.0    4789.7400 1443523.0000    3664.9392     121.8941     122.4672       0.0118    5967.7026    5967.7143     122.5003         10     692.6870       0.0034    5526.3233    5526.3268    5523.6864    5523.7191       0.0326
    5311.0    4828.2890 1443523.0000    3664.9392     121.8952     122.4677       0.0114    5967.5788    5967.5902     122.5005         10     693.6870       0.0027    5526.3497    5526.3523    5523.6975    5523.7307       0.0332
    5312.0    4847.1220 1443523.0000    3664.9392     121.8947     122.4664       0.0088    5967.5749    5967.5835     122.5006         10     694.6870       0.0029    5526.3539    5526.3568    5523.7176    5523.7513       0.0337
    5313.0    4848.3130 1443523.0000    3664.9392     121.8943     122.4673       0.0060    5967.6429    5967.6488     122.5005         10     695.6870       0.0032    5526.3271    5526.3300    5523.7316    5523.7657       0.0340
    5314.0    4781.3610 1443523.0000    3664.9392     121.8964     122.4680       0.0062    5967.7104    5967.7165     122.5007         10     696.6870       0.0052    5526.4450    5526.4502    5523.7599    5523.7942       0.0343
    5315.0    4737.2600 1443523.0000    3664.9392     121.8959     122.4680       0.0085    5967.8301    5967.8385     122.5011         10     697.6870       0.0090    5526.4205    5526.4294    5523.7760    5523.8107       0.0346
    5316.0    4707.6420 1443523.0000    3664.9392     121.8967     122.4688       0.0104    5967.7778    5967.7881     122.5010         10     698.6870       0.0123    5526.5159    5526.5281    5523.7980    5523.8326       0.0346
