~VERSION INFORMATION
VERS.           2.0   :CWLS Log ASCII Standard - VERSION 2.0
WRAP.           NO    :One Line per depth step
PROD.  Schlumberger   :LAS Producer
PROG.  DLIS to ASCII 2.2                               :LAS Program name and version
CREA.        2020/10/30 12:18                          :LAS Creation date {YYYY/MM/DD hh:mm}
SOURCE.     XPT_HRLA_TLD_MCFL_058LTP.DLIS              :DLIS File Name
FILE-ID.     XPT_HRLA_TLD_MCFL_058LTP                  :File Identification Number
#--------------------------------------------------
~WELL INFORMATION
#MNEM.UNIT      DATA             DESCRIPTION
#---- ------ --------------   -----------------------------
STRT .S         7904.0       :START TIME      
STOP .S         8100.0       :STOP TIME      
STEP .S            1.0       :STEP     
NULL .          -999.25      :NULL VALUE
COMP .        Nexus Energy                             :COMPANY
WELL .        Crux-3                                   :WELL
FLD  .        Crux                                     :FIELD
LOC  .        Easting: 656981.7mE                      :LOCATION
CNTY .        Sedco-703                                :COUNTY
STAT .        Northern Territory                       :STATE
CTRY .        Australia                                :COUNTRY
API  .                                                 :API NUMBER
UWI  .                                                 :UNIQUE WELL ID
DATE .        31-Dec-2007                              :LOG DATE {DD-MMM-YYYY}
SRVC .        Schlumberger                             :SERVICE COMPANY
LATI .DEG     12*57'32.63" S                           :LATITUDE
LONG .DEG     124*26'50.07" E                          :LONGITUDE
GDAT .                                                 :GeoDetic Datum
#-----------------------------------------------------------------------------
~PARAMETER INFORMATION
#MNEM.UNIT    VALUE                      DESCRIPTION
#---- -----   --------------------       ------------------------
RUN  .          1                        :RUN NUMBER
PDAT .        LAT                        :Permanent Datum
EPD  .M           0.000000               :Elevation of Permanent Datum above Mean Sea Level
EPD  .M           0.000000               :Elevation of tool zero above Mean Sea Level
LMF  .          DF                       :Logging Measured From (Name of Logging Elevation Reference)
APD  .M          26.400000               :Elevation of Depth Reference (LMF) above Permanent Datum
#-----------------------------------------------------------------------------
~CURVE INFORMATION
#MNEM.UNIT   API CODE                                  DESCRIPTION
#---- -----  --------                                  -----------------------
TIME .S                                                :TIME {F10.1}
TENS_SL.LBF                                            :Cable Tension {F13.4}
DEPT_SL..1IN                                           :Station logging depth {F13.4}
PDEP_XPT.M                                             :XPT Probe Depth {F13.4}
MTEP_SAP.DEGC                                          :Sapphire Gauge Manometer Temperature {F13.4}
MTEP_HYD.DEGC                                          :Hydrostatic Sapphire Gauge Manometer Temperature {F13.4}
PCO_HYD.PSI                                            :Hydrostatic Sapphire Dynamic Compensation {F13.4}
PND_HYD.PSI                                            :Hydrostatic Sapphire Pressure Without Dynamic Compensation {F13.4}
CP_HYD.PSI                                             :Hydrostatic Sapphire Pressure With Dynamic Compensation {F13.4}
MTEP_QG.DEGC                                           :CQG Manometer Temperature {F13.4}
PTNO_XPT.                                              :XPT Pretest Number {I11}
ETIM_XPT.S                                             :Elapsed Logging Time {F13.4}
PCO_SAP.PSI                                            :Sapphire Dynamic Compensation {F13.4}
PND_SAP.PSI                                            :Sapphire Pressure Without Dynamic Compensation {F13.4}
CP_SAP.PSI                                             :Sapphire Pressure With Dynamic Compensation {F13.4}
QNDP .PSI                                              :CQG Pressure Without Dynamic Compensation {F13.4}
QCP  .PSI                                              :CQG Pressure With Dynamic Compensation {F13.4}
QPCO .PSI                                              :CQG Dynamic Compensation {F13.4}
#-----------------------------------------------------------------------------
# 
#     TIME      TENS_SL      DEPT_SL      PDEP_XPT     MTEP_SAP     MTEP_HYD     PCO_HYD      PND_HYD       CP_HYD      MTEP_QG       PTNO_XPT       ETIM_XPT     PCO_SAP      PND_SAP       CP_SAP        QNDP         QCP          QPCO
#
~A  
# ...
    7974.0    5066.7820 1534486.0000    3895.9854     128.8542     129.4041       0.0066    6334.4979    6334.5046     129.5734         20      69.5435      -0.0422    6237.4334    6237.3913    6235.5011    6235.2656      -0.2354
    7975.0    5058.8915 1534486.0000    3895.9854     128.8534     129.4052       0.0073    6334.4102    6334.4175     129.5725         20      70.5435      -0.0645    6224.9754    6224.9109    6223.0709    6222.8041      -0.2668
    7976.0    5049.4125 1534486.0000    3895.9854     128.8518     129.4048       0.0076    6334.4329    6334.4405     129.5715         20      71.5435      -0.0665    6211.1841    6211.1176    6209.3723    6209.1002      -0.2720
    7977.0    4985.8240 1534486.0000    3895.9854     128.8484     129.4054       0.0072    6334.3797    6334.3870     129.5706         20      72.5435      -0.0273    6198.0967    6198.0693    6196.4377    6196.2197      -0.2180
    7978.0    4955.5875 1534486.0000    3895.9854     128.8468     129.4046       0.0064    6334.4679    6334.4743     129.5697         20      73.5435       0.0572    6185.0680    6185.1252    6183.4333    6183.3362      -0.0969
    7979.0    4934.9335 1534486.0000    3895.9854     128.8461     129.4052       0.0058    6334.5524    6334.5582     129.5682         20      74.5435       0.1582    6171.1538    6171.3121    6169.6609    6169.7124       0.0514
    7980.0    4892.2385 1534486.0000    3895.9854     128.8448     129.4047       0.0056    6334.5972    6334.6026     129.5674         20      75.5435       0.2381    6162.4862    6162.7242    6160.9157    6161.0975       0.1818
    7981.0    4886.6090 1534486.0000    3895.9854     128.8499     129.4053       0.0060    6334.5968    6334.6028     129.5684         20      76.5435       0.2799    6205.0900    6205.3701    6202.3549    6202.6389       0.2838
    7982.0    4942.4585 1534486.0000    3895.9854     128.8755     129.4056       0.0069    6334.5311    6334.5381     129.5740         20      77.5435       0.2826    6332.6665    6332.9491    6328.8766    6329.2324       0.3558
    7983.0    5036.1760 1534486.0000    3895.9854     128.8794     129.4059       0.0077    6334.5339    6334.5417     129.5742         20      78.5435       0.2435    6333.3077    6333.5512    6329.6089    6329.9902       0.3814
    7984.0    5101.7400 1534486.0000    3895.9854     128.8795     129.4056       0.0084    6334.5313    6334.5396     129.5745         20      79.5435       0.1628    6332.7465    6332.9093    6329.2035    6329.5522       0.3487
    7985.0    5112.9345 1534486.0000    3895.9854     128.8794     129.4056       0.0091    6334.4702    6334.4792     129.5753         20      80.5435       0.0680    6332.3263    6332.3942    6329.0097    6329.2988       0.2894
    7986.0    5087.9775 1534486.0000    3895.9854     128.8774     129.4067       0.0098    6334.3894    6334.3991     129.5761         20      81.5435      -0.0054    6333.1014    6333.0959    6330.0649    6330.3099       0.2451
    7987.0    5056.2385 1534486.0000    3895.9854     128.8775     129.4060       0.0101    6334.3882    6334.3984     129.5770         20      82.5435      -0.0435    6332.7022    6332.6588    6329.8569    6330.0823       0.2253
    7988.0    5014.1945 1534486.0000    3895.9854     128.8758     129.4067       0.0104    6334.4666    6334.4771     129.5777         20      83.5435      -0.0582    6332.5210    6332.4627    6329.9010    6330.1108       0.2098
    7989.0    4972.0645 1534486.0000    3895.9854     128.8749     129.4067       0.0116    6334.5430    6334.5546     129.5783         20      84.5435      -0.0644    6331.6852    6331.6210    6329.0930    6329.2773       0.1843
    7990.0    4948.8475 1534486.0000    3895.9854     128.8736     129.4066       0.0132    6334.5071    6334.5204     129.5792         20      85.5435      -0.0662    6331.2655    6331.1991    6328.7085    6328.8604       0.1519
    7991.0    4940.9130 1534486.0000    3895.9854     128.8718     129.4067       0.0136    6334.5639    6334.5775     129.5794         20      86.5435      -0.0649    6327.4795    6327.4146    6325.1300    6325.2469       0.1168
    7992.0    4960.6530 1534486.0000    3895.9854     128.8708     129.4080       0.0120    6334.6656    6334.6775     129.5799         20      87.5435      -0.0613    6324.2189    6324.1575    6322.0007    6322.0823       0.0816
    7993.0    4999.7400 1534486.0000    3895.9854     128.8699     129.4083       0.0085    6334.6196    6334.6282     129.5801         20      88.5435      -0.0560    6320.8896    6320.8337    6318.6299    6318.6784       0.0486
    7994.0    5031.5875 1534486.0000    3895.9854     128.8673     129.4081       0.0039    6334.6077    6334.6114     129.5799         20      89.5435      -0.0502    6317.4753    6317.4250    6315.4317    6315.4514       0.0196
    7995.0    5044.0870 1534486.0000    3895.9854     128.8673     129.4083      -0.0001    6334.6082    6334.6083     129.5800         20      90.5435      -0.0447    6314.7735    6314.7288    6312.7224    6312.7177      -0.0047
    7996.0    5017.2815 1534486.0000    3895.9854     128.8673     129.4081      -0.0013    6334.5529    6334.5515     129.5801         20      91.5435      -0.0396    6311.8994    6311.8595    6309.7534    6309.7288      -0.0245
    7997.0    4970.6295 1534486.0000    3895.9854     128.8665     129.4072       0.0004    6334.5874    6334.5879     129.5799         20      92.5435      -0.0354    6309.2412    6309.2058    6307.2715    6307.2325      -0.0392
    7998.0    4938.4995 1534486.0000    3895.9854     128.8645     129.4075       0.0034    6334.5456    6334.5489     129.5796         20      93.5435      -0.0323    6306.4596    6306.4272    6304.4953    6304.4451      -0.0500
    7999.0    4924.7390 1534486.0000    3895.9854     128.8659     129.4061       0.0062    6334.5926    6334.5986     129.5793         20      94.5435      -0.0295    6304.6239    6304.5944    6302.5946    6302.5367      -0.0576
    8000.0    4930.6960 1534486.0000    3895.9854     128.8655     129.4084       0.0090    6334.5899    6334.5989     129.5791         20      95.5435      -0.0246    6304.5152    6304.4905    6302.4690    6302.4060      -0.0629
    8001.0    4968.4360 1534486.0000    3895.9854     128.8643     129.4090       0.0115    6334.5788    6334.5904     129.5791         20      96.5435      -0.0172    6304.2755    6304.2584    6302.2984    6302.2326      -0.0659
    8002.0    5013.5660 1534486.0000    3895.9854     128.8638     129.4090       0.0111    6334.6229    6334.6340     129.5788         20      97.5435      -0.0088    6304.0837    6304.0748    6302.1209    6302.0535      -0.0672
    8003.0    5040.3265 1534486.0000    3895.9854     128.8633     129.4077       0.0074    6334.5387    6334.5460     129.5786         20      98.5435      -0.0011    6303.9764    6303.9754    6301.9456    6301.8780      -0.0676
    8004.0    5053.3480 1534486.0000    3895.9854     128.8639     129.4082       0.0037    6334.4990    6334.5026     129.5785         20      99.5435       0.0004    6303.8041    6303.8046    6301.7994    6301.7208      -0.0787
    8005.0    5060.2610 1534486.0000    3895.9854     128.8637     129.4093       0.0037    6334.5710    6334.5746     129.5781         20     100.5435      -0.0448    6303.6570    6303.6123    6301.6621    6301.4847      -0.1774
    8006.0    5073.3265 1534486.0000    3895.9854     128.8652     129.4082       0.0061    6334.5274    6334.5335     129.5780         20     101.5435      -0.2129    6303.6561    6303.4431    6301.5498    6301.0639      -0.4859
    8007.0    5085.8045 1534486.0000    3895.9854     128.8651     129.4082       0.0071    6334.4990    6334.5063     129.5779         20     102.5435      -0.5081    6303.4605    6302.9525    6301.4517    6300.4651      -0.9868
    8008.0    5068.3470 1534486.0000    3895.9854     128.8637     129.4091       0.0061    6334.4567    6334.4630     129.5775         20     103.5435      -0.7669    6303.4034    6302.6366    6301.3451    6299.9294      -1.4155
