~VERSION INFORMATION
VERS.           2.0   :CWLS Log ASCII Standard - VERSION 2.0
WRAP.           NO    :One Line per depth step
PROD.  Schlumberger   :LAS Producer
PROG.  DLIS to ASCII 2.2                               :LAS Program name and version
CREA.        2020/10/30 12:18                          :LAS Creation date {YYYY/MM/DD hh:mm}
SOURCE.     XPT_HRLA_TLD_MCFL_037LTP.DLIS              :DLIS File Name
FILE-ID.     XPT_HRLA_TLD_MCFL_037LTP                  :File Identification Number
#--------------------------------------------------
~WELL INFORMATION
#MNEM.UNIT      DATA             DESCRIPTION
#---- ------ --------------   -----------------------------
STRT .S        35745.0       :START TIME      
STOP .S        36558.0       :STOP TIME      
STEP .S            1.0       :STEP     
NULL .          -999.25      :NULL VALUE
COMP .        Nexus Energy                             :COMPANY
WELL .        Crux-3                                   :WELL
FLD  .        Crux                                     :FIELD
LOC  .        Easting: 656981.7mE                      :LOCATION
CNTY .        Sedco-703                                :COUNTY
STAT .        Northern Territory                       :STATE
CTRY .        Australia                                :COUNTRY
API  .                                                 :API NUMBER
UWI  .                                                 :UNIQUE WELL ID
DATE .        31-Dec-2007                              :LOG DATE {DD-MMM-YYYY}
SRVC .        Schlumberger                             :SERVICE COMPANY
LATI .DEG     12*57'32.63" S                           :LATITUDE
LONG .DEG     124*26'50.07" E                          :LONGITUDE
GDAT .                                                 :GeoDetic Datum
#-----------------------------------------------------------------------------
~PARAMETER INFORMATION
#MNEM.UNIT    VALUE                      DESCRIPTION
#---- -----   --------------------       ------------------------
RUN  .          1                        :RUN NUMBER
PDAT .        LAT                        :Permanent Datum
EPD  .M           0.000000               :Elevation of Permanent Datum above Mean Sea Level
EPD  .M           0.000000               :Elevation of tool zero above Mean Sea Level
LMF  .          DF                       :Logging Measured From (Name of Logging Elevation Reference)
APD  .M          26.400000               :Elevation of Depth Reference (LMF) above Permanent Datum
#-----------------------------------------------------------------------------
~CURVE INFORMATION
#MNEM.UNIT   API CODE                                  DESCRIPTION
#---- -----  --------                                  -----------------------
TIME .S                                                :TIME {F10.1}
TENS_SL.LBF                                            :Cable Tension {F13.4}
DEPT_SL..1IN                                           :Station logging depth {F13.4}
PDEP_XPT.M                                             :XPT Probe Depth {F13.4}
MTEP_SAP.DEGC                                          :Sapphire Gauge Manometer Temperature {F13.4}
MTEP_HYD.DEGC                                          :Hydrostatic Sapphire Gauge Manometer Temperature {F13.4}
PCO_HYD.PSI                                            :Hydrostatic Sapphire Dynamic Compensation {F13.4}
PND_HYD.PSI                                            :Hydrostatic Sapphire Pressure Without Dynamic Compensation {F13.4}
CP_HYD.PSI                                             :Hydrostatic Sapphire Pressure With Dynamic Compensation {F13.4}
MTEP_QG.DEGC                                           :CQG Manometer Temperature {F13.4}
PTNO_XPT.                                              :XPT Pretest Number {I11}
ETIM_XPT.S                                             :Elapsed Logging Time {F13.4}
PCO_SAP.PSI                                            :Sapphire Dynamic Compensation {F13.4}
PND_SAP.PSI                                            :Sapphire Pressure Without Dynamic Compensation {F13.4}
CP_SAP.PSI                                             :Sapphire Pressure With Dynamic Compensation {F13.4}
QNDP .PSI                                              :CQG Pressure Without Dynamic Compensation {F13.4}
QCP  .PSI                                              :CQG Pressure With Dynamic Compensation {F13.4}
QPCO .PSI                                              :CQG Dynamic Compensation {F13.4}
#-----------------------------------------------------------------------------
# 
#     TIME      TENS_SL      DEPT_SL      PDEP_XPT     MTEP_SAP     MTEP_HYD     PCO_HYD      PND_HYD       CP_HYD      MTEP_QG       PTNO_XPT       ETIM_XPT     PCO_SAP      PND_SAP       CP_SAP        QNDP         QCP          QPCO
#
~A  
# ...
   36095.0    4713.2760 1417595.0000    3599.0823     118.7097     119.2749       0.0067    5862.4121    5862.4188     118.9528          1     349.7480       0.2316    5440.0503    5440.2819    5436.9657    5437.4565       0.4907
   36096.0    4687.5600 1417595.0000    3599.0823     118.7202     119.2763       0.0068    5862.6543    5862.6611     118.9561          1     350.7480       0.3170    5504.2112    5504.5284    5500.4548    5501.1225       0.6677
   36097.0    4608.1920 1417595.0000    3599.0823     118.7249     119.2750       0.0046    5862.6411    5862.6455     118.9570          1     351.7480       0.3722    5504.5200    5504.8923    5500.7157    5501.5263       0.8106
   36098.0    4591.4800 1417595.0000    3599.0823     118.7237     119.2763       0.0012    5862.7035    5862.7047     118.9580          1     352.7480       0.3637    5505.2804    5505.6440    5501.5755    5502.4575       0.8818
   36099.0    4616.4400 1417595.0000    3599.0823     118.7572     119.2777      -0.0011    5862.8421    5862.8411     118.9680          1     353.7480       0.2995    5692.3387    5692.6383    5686.3615    5687.2569       0.8955
   36100.0    4623.2520 1417595.0000    3599.0823     118.7577     119.2763      -0.0021    5862.9707    5862.9687     118.9694          1     354.7480       0.2009    5680.4820    5680.6829    5675.0903    5675.9581       0.8679
   36101.0    4597.5680 1417595.0000    3599.0823     118.7555     119.2748      -0.0012    5862.7088    5862.7076     118.9711          1     355.7480       0.0808    5669.8176    5669.8983    5664.9128    5665.7112       0.7984
   36102.0    4642.1080 1417595.0000    3599.0823     118.7528     119.2755       0.0019    5862.6465    5862.6486     118.9734          1     356.7480      -0.0350    5661.3702    5661.3352    5656.8651    5657.5723       0.7074
   36103.0    4669.7240 1417595.0000    3599.0823     118.7484     119.2758       0.0060    5862.6490    5862.6548     118.9759          1     357.7480      -0.1136    5655.0211    5654.9075    5650.9881    5651.6186       0.6307
   36104.0    4694.6920 1417595.0000    3599.0823     118.7474     119.2762       0.0086    5862.6529    5862.6616     118.9776          1     358.7480      -0.1426    5650.6794    5650.5369    5646.9007    5647.4829       0.5822
   36105.0    4717.7080 1417595.0000    3599.0823     118.7405     119.2756       0.0088    5862.5238    5862.5326     118.9798          1     359.7480      -0.1382    5647.0252    5646.8871    5643.5528    5644.0973       0.5446
   36106.0    4728.2360 1417595.0000    3599.0823     118.7397     119.2772       0.0078    5862.5449    5862.5527     118.9818          1     360.7480      -0.1230    5644.0988    5643.9757    5640.6714    5641.1736       0.5023
   36107.0    4692.6000 1417595.0000    3599.0823     118.7403     119.2778       0.0060    5862.6104    5862.6164     118.9831          1     361.7480      -0.1065    5641.5839    5641.4776    5638.2412    5638.6977       0.4567
   36108.0    4638.8600 1417595.0000    3599.0823     118.7363     119.2762       0.0031    5862.5935    5862.5967     118.9845          1     362.7480      -0.0912    5639.1478    5639.0567    5636.0458    5636.4573       0.4114
   36109.0    4616.7720 1417595.0000    3599.0823     118.7354     119.2770       0.0008    5862.6915    5862.6922     118.9857          1     363.7480      -0.0767    5637.3541    5637.2774    5634.1561    5634.5251       0.3690
   36110.0    4616.2440 1417595.0000    3599.0823     118.7352     119.2763       0.0011    5862.7139    5862.7148     118.9871          1     364.7480      -0.0634    5635.7208    5635.6572    5632.5548    5632.8867       0.3317
   36111.0    4594.5600 1417595.0000    3599.0823     118.7317     119.2769       0.0024    5862.7109    5862.7133     118.9878          1     365.7480      -0.0525    5634.1499    5634.0976    5631.0450    5631.3444       0.2993
   36112.0    4629.6360 1417595.0000    3599.0823     118.7309     119.2767       0.0022    5862.7167    5862.7189     118.9888          1     366.7480      -0.0440    5632.6535    5632.6093    5629.7007    5629.9717       0.2709
   36113.0    4686.6360 1417595.0000    3599.0823     118.7329     119.2769      -0.0000    5862.6706    5862.6706     118.9897          1     367.7480      -0.0363    5631.6675    5631.6314    5628.5014    5628.7478       0.2463
   36114.0    4701.7480 1417595.0000    3599.0823     118.7310     119.2775      -0.0016    5862.6666    5862.6651     118.9905          1     368.7480      -0.0282    5630.2293    5630.2013    5627.2870    5627.5121       0.2252
   36115.0    4702.0000 1417595.0000    3599.0823     118.7307     119.2767      -0.0016    5862.5400    5862.5383     118.9912          1     369.7480      -0.0232    5629.2296    5629.2064    5626.2218    5626.4286       0.2069
   36116.0    4710.2280 1417595.0000    3599.0823     118.7308     119.2767      -0.0010    5862.5049    5862.5039     118.9919          1     370.7480      -0.0233    5628.1506    5628.1272    5625.1837    5625.3740       0.1903
   36117.0    4713.7480 1417595.0000    3599.0823     118.7289     119.2763      -0.0013    5862.5352    5862.5337     118.9926          1     371.7480      -0.0270    5627.0922    5627.0652    5624.0198    5624.1944       0.1747
   36118.0    4670.6160 1417595.0000    3599.0823     118.7301     119.2763      -0.0016    5862.5747    5862.5732     118.9929          1     372.7480      -0.0293    5625.9522    5625.9229    5622.8757    5623.0364       0.1608
   36119.0    4652.2600 1417595.0000    3599.0823     118.7288     119.2770      -0.0002    5862.6518    5862.6516     118.9932          1     373.7480      -0.0280    5624.7112    5624.6832    5621.6740    5621.8235       0.1492
   36120.0    4620.3320 1417595.0000    3599.0823     118.7286     119.2778       0.0023    5862.6354    5862.6375     118.9940          1     374.7480      -0.0248    5620.8410    5620.8162    5617.9010    5618.0418       0.1406
   36121.0    4601.0240 1417595.0000    3599.0823     118.7281     119.2766       0.0034    5862.7174    5862.7208     118.9942          1     375.7480      -0.0211    5618.0540    5618.0330    5614.9979    5615.1330       0.1348
   36122.0    4610.7160 1417595.0000    3599.0823     118.7279     119.2768       0.0026    5862.7086    5862.7112     118.9945          1     376.7480      -0.0164    5616.4112    5616.3948    5613.3876    5613.5191       0.1316
   36123.0    4591.0640 1417595.0000    3599.0823     118.7286     119.2763       0.0023    5862.5947    5862.5972     118.9949          1     377.7480      -0.0101    5615.2566    5615.2465    5612.2367    5612.3671       0.1306
   36124.0    4647.3280 1417595.0000    3599.0823     118.7272     119.2778       0.0042    5862.6850    5862.6892     118.9956          1     378.7480      -0.0046    5614.4111    5614.4064    5611.3380    5611.4688       0.1310
   36125.0    4688.4480 1417595.0000    3599.0823     118.7287     119.2777       0.0061    5862.6090    5862.6153     118.9960          1     379.7480      -0.0022    5613.5642    5613.5621    5610.5003    5610.6320       0.1316
   36126.0    4720.4320 1417595.0000    3599.0823     118.7268     119.2763       0.0057    5862.6448    5862.6505     118.9964          1     380.7480      -0.0025    5612.8213    5612.8188    5609.7166    5609.8485       0.1319
   36127.0    4728.2520 1417595.0000    3599.0823     118.7277     119.2768       0.0047    5862.4525    5862.4574     118.9968          1     381.7480      -0.0029    5612.0560    5612.0530    5609.0840    5609.2166       0.1326
   36128.0    4707.8040 1417595.0000    3599.0823     118.7277     119.2778       0.0056    5862.5559    5862.5617     118.9972          1     382.7480      -0.0013    5611.3938    5611.3922    5608.4422    5608.5760       0.1336
   36129.0    4653.1280 1417595.0000    3599.0823     118.7272     119.2771       0.0081    5862.5484    5862.5563     118.9975          1     383.7480       0.0014    5610.8360    5610.8376    5607.7902    5607.9246       0.1345
