~VERSION INFORMATION
VERS.           2.0   :CWLS Log ASCII Standard - VERSION 2.0
WRAP.           NO    :One Line per depth step
PROD.  Schlumberger   :LAS Producer
PROG.  DLIS to ASCII 2.2                               :LAS Program name and version
CREA.        2020/10/30 12:18                          :LAS Creation date {YYYY/MM/DD hh:mm}
SOURCE.     XPT_HRLA_TLD_MCFL_058LTP.DLIS              :DLIS File Name
FILE-ID.     XPT_HRLA_TLD_MCFL_058LTP                  :File Identification Number
#--------------------------------------------------
~WELL INFORMATION
#MNEM.UNIT      DATA             DESCRIPTION
#---- ------ --------------   -----------------------------
STRT .S         7904.0       :START TIME      
STOP .S         8100.0       :STOP TIME      
STEP .S            1.0       :STEP     
NULL .          -999.25      :NULL VALUE
COMP .        Nexus Energy                             :COMPANY
WELL .        Crux-3                                   :WELL
FLD  .        Crux                                     :FIELD
LOC  .        Easting: 656981.7mE                      :LOCATION
CNTY .        Sedco-703                                :COUNTY
STAT .        Northern Territory                       :STATE
CTRY .        Australia                                :COUNTRY
API  .                                                 :API NUMBER
UWI  .                                                 :UNIQUE WELL ID
DATE .        31-Dec-2007                              :LOG DATE {DD-MMM-YYYY}
SRVC .        Schlumberger                             :SERVICE COMPANY
LATI .DEG     12*57'32.63" S                           :LATITUDE
LONG .DEG     124*26'50.07" E                          :LONGITUDE
GDAT .                                                 :GeoDetic Datum
#-----------------------------------------------------------------------------
~PARAMETER INFORMATION
#MNEM.UNIT    VALUE                      DESCRIPTION
#---- -----   --------------------       ------------------------
RUN  .          1                        :RUN NUMBER
PDAT .        LAT                        :Permanent Datum
EPD  .M           0.000000               :Elevation of Permanent Datum above Mean Sea Level
EPD  .M           0.000000               :Elevation of tool zero above Mean Sea Level
LMF  .          DF                       :Logging Measured From (Name of Logging Elevation Reference)
APD  .M          26.400000               :Elevation of Depth Reference (LMF) above Permanent Datum
#-----------------------------------------------------------------------------
~CURVE INFORMATION
#MNEM.UNIT   API CODE                                  DESCRIPTION
#---- -----  --------                                  -----------------------
TIME .S                                                :TIME {F10.1}
TENS_SL.LBF                                            :Cable Tension {F13.4}
DEPT_SL..1IN                                           :Station logging depth {F13.4}
PDEP_XPT.M                                             :XPT Probe Depth {F13.4}
MTEP_SAP.DEGC                                          :Sapphire Gauge Manometer Temperature {F13.4}
MTEP_HYD.DEGC                                          :Hydrostatic Sapphire Gauge Manometer Temperature {F13.4}
PCO_HYD.PSI                                            :Hydrostatic Sapphire Dynamic Compensation {F13.4}
PND_HYD.PSI                                            :Hydrostatic Sapphire Pressure Without Dynamic Compensation {F13.4}
CP_HYD.PSI                                             :Hydrostatic Sapphire Pressure With Dynamic Compensation {F13.4}
MTEP_QG.DEGC                                           :CQG Manometer Temperature {F13.4}
PTNO_XPT.                                              :XPT Pretest Number {I11}
ETIM_XPT.S                                             :Elapsed Logging Time {F13.4}
PCO_SAP.PSI                                            :Sapphire Dynamic Compensation {F13.4}
PND_SAP.PSI                                            :Sapphire Pressure Without Dynamic Compensation {F13.4}
CP_SAP.PSI                                             :Sapphire Pressure With Dynamic Compensation {F13.4}
QNDP .PSI                                              :CQG Pressure Without Dynamic Compensation {F13.4}
QCP  .PSI                                              :CQG Pressure With Dynamic Compensation {F13.4}
QPCO .PSI                                              :CQG Dynamic Compensation {F13.4}
#-----------------------------------------------------------------------------
# 
#     TIME      TENS_SL      DEPT_SL      PDEP_XPT     MTEP_SAP     MTEP_HYD     PCO_HYD      PND_HYD       CP_HYD      MTEP_QG       PTNO_XPT       ETIM_XPT     PCO_SAP      PND_SAP       CP_SAP        QNDP         QCP          QPCO
#
~A  
# ...
    8009.0    5010.2375 1534486.0000    3895.9854     128.8663     129.4086       0.0056    6334.4708    6334.4764     129.5774         20     104.5435      -0.7693    6303.3516    6302.5822    6301.2397    6299.7607      -1.4790
    8010.0    4938.4985 1534486.0000    3895.9854     128.8243     129.4098       0.0067    6334.4793    6334.4860     129.5646         21     105.5435      -0.4921    6020.2669    6019.7747    6023.4030    6022.1948      -1.2081
    8011.0    4888.5210 1534486.0000    3895.9854     128.7433     129.4098       0.0078    6334.5498    6334.5576     129.5413         21     106.5435      -0.0820    5556.8274    5556.7451    5564.7526    5563.9429      -0.8097
    8012.0    4882.7830 1534486.0000    3895.9854     128.7080     129.4094       0.0075    6334.5088    6334.5164     129.5308         21     107.5435       0.3350    5421.4812    5421.8162    5429.3421    5428.9726      -0.3695
    8013.0    4952.4155 1534486.0000    3895.9854     128.8434     129.4092       0.0077    6334.6299    6334.6377     129.5669         21     108.5435       0.7339    6314.6074    6315.3413    6307.0685    6307.2297       0.1613
    8014.0    5054.0020 1534486.0000    3895.9854     128.8692     129.4093       0.0097    6334.5365    6334.5465     129.5627         21     109.5435       1.0149    6289.0332    6290.0480    6281.6165    6282.2572       0.6408
    8015.0    5068.2815 1534486.0000    3895.9854     128.8874     129.4109       0.0123    6334.5564    6334.5686     129.5632         21     110.5435       1.0097    6335.2719    6336.2816    6327.5878    6328.3838       0.7959
    8016.0    5054.7830 1534486.0000    3895.9854     128.8916     129.4096       0.0121    6334.4308    6334.4430     129.5630         21     111.5435       0.7177    6335.1585    6335.8763    6328.4247    6329.0511       0.6266
    8017.0    5055.9345 1534486.0000    3895.9854     128.8931     129.4110       0.0091    6334.3727    6334.3818     129.5635         21     112.5435       0.3350    6331.5326    6331.8677    6325.8932    6326.2811       0.3878
    8018.0    4997.2805 1534486.0000    3895.9854     128.8929     129.4109       0.0060    6334.4645    6334.4706     129.5646         21     113.5435       0.0659    6324.9622    6325.0281    6320.1968    6320.4909       0.2939
    8019.0    4927.9990 1534486.0000    3895.9854     128.8900     129.4108       0.0041    6334.5266    6334.5306     129.5660         21     114.5435      -0.0603    6318.4474    6318.3872    6314.3445    6314.6568       0.3121
    8020.0    4911.3480 1534486.0000    3895.9854     128.8866     129.4113       0.0034    6334.5923    6334.5957     129.5674         21     115.5435      -0.1061    6312.6687    6312.5627    6309.1856    6309.5237       0.3382
    8021.0    4906.8475 1534486.0000    3895.9854     128.8840     129.4098       0.0035    6334.6207    6334.6243     129.5685         21     116.5435      -0.1196    6308.3559    6308.2363    6305.2214    6305.5562       0.3348
    8022.0    4896.1955 1534486.0000    3895.9854     128.8803     129.4118       0.0056    6334.6689    6334.6746     129.5692         21     117.5435      -0.1174    6304.3269    6304.2094    6301.5235    6301.8352       0.3117
    8023.0    4937.0235 1534486.0000    3895.9854     128.8803     129.4106       0.0084    6334.5290    6334.5374     129.5704         21     118.5435      -0.1093    6300.9845    6300.8750    6298.2650    6298.5421       0.2769
    8024.0    5050.0900 1534486.0000    3895.9854     128.8770     129.4109       0.0095    6334.6331    6334.6423     129.5713         21     119.5435      -0.0999    6298.2234    6298.1237    6295.7046    6295.9417       0.2370
    8025.0    5104.2170 1534486.0000    3895.9854     128.8755     129.4113       0.0088    6334.4338    6334.4427     129.5719         21     120.5435      -0.0897    6295.5746    6295.4851    6293.2540    6293.4506       0.1967
    8026.0    5086.7605 1534486.0000    3895.9854     128.8733     129.4127       0.0073    6334.4173    6334.4246     129.5725         21     121.5435      -0.0782    6293.1712    6293.0931    6290.9707    6291.1287       0.1579
    8027.0    5069.2170 1534486.0000    3895.9854     128.8746     129.4113       0.0064    6334.2108    6334.2172     129.5727         21     122.5435      -0.0649    6291.3483    6291.2834    6289.1261    6289.2433       0.1172
    8028.0    5025.6725 1534486.0000    3895.9854     128.8709     129.4140       0.0068    6334.4786    6334.4854     129.5731         21     123.5435      -0.0565    6289.4776    6289.4209    6287.3521    6287.4431       0.0909
    8029.0    4955.7810 1534486.0000    3895.9854     128.8722     129.4114       0.0094    6334.5279    6334.5373     129.5734         21     124.5435      -0.0478    6287.7997    6287.7518    6285.6762    6285.7400       0.0638
    8030.0    4956.2405 1534486.0000    3895.9854     128.8708     129.4135       0.0138    6334.5457    6334.5593     129.5735         21     125.5435      -0.0383    6286.4154    6286.3773    6284.2858    6284.3224       0.0365
    8031.0    4935.5415 1534486.0000    3895.9854     128.8696     129.4105       0.0155    6334.5234    6334.5390     129.5738         21     126.5435      -0.0317    6284.9907    6284.9589    6282.9116    6282.9302       0.0187
    8032.0    4884.7605 1534486.0000    3895.9854     128.8698     129.4116       0.0145    6334.7165    6334.7311     129.5735         21     127.5435      -0.0253    6283.7337    6283.7086    6281.6013    6281.6016       0.0003
    8033.0    4899.2835 1534486.0000    3895.9854     128.8687     129.4133       0.0121    6334.6332    6334.6451     129.5734         21     128.5435      -0.0213    6282.4987    6282.4775    6280.4854    6280.4704      -0.0149
    8034.0    4970.1760 1534486.0000    3895.9854     128.8708     129.4144       0.0091    6334.7456    6334.7546     129.5735         21     129.5435      -0.0189    6281.4798    6281.4611    6279.3552    6279.3285      -0.0267
    8035.0    5051.5015 1534486.0000    3895.9854     128.8694     129.4129       0.0056    6334.5495    6334.5552     129.5733         21     130.5435      -0.0164    6280.2802    6280.2637    6278.2422    6278.2067      -0.0357
    8036.0    5078.6520 1534486.0000    3895.9854     128.8691     129.4131       0.0017    6334.4904    6334.4918     129.5733         21     131.5435      -0.0135    6279.3434    6279.3300    6277.2946    6277.2522      -0.0424
    8037.0    5087.5005 1534486.0000    3895.9854     128.8683     129.4130      -0.0008    6334.4539    6334.4530     129.5730         21     132.5435      -0.0110    6278.4695    6278.4587    6276.4150    6276.3671      -0.0478
    8038.0    5104.5220 1534486.0000    3895.9854     128.8677     129.4127      -0.0006    6334.3141    6334.3137     129.5729         21     133.5435      -0.0093    6277.6610    6277.6517    6275.7035    6275.6510      -0.0526
    8039.0    5070.3245 1534486.0000    3895.9854     128.8680     129.4130       0.0018    6334.3230    6334.3249     129.5727         21     134.5435      -0.0069    6276.9451    6276.9382    6274.9291    6274.8722      -0.0567
    8040.0    4999.4985 1534486.0000    3895.9854     128.8668     129.4136       0.0057    6334.5207    6334.5263     129.5725         21     135.5435      -0.0068    6276.0660    6276.0590    6274.0746    6274.0047      -0.0699
    8041.0    4946.2600 1534486.0000    3895.9854     128.8686     129.4132       0.0099    6334.4924    6334.5024     129.5724         21     136.5435      -0.0348    6275.3036    6275.2689    6273.3000    6273.1641      -0.1358
    8042.0    4957.3490 1534486.0000    3895.9854     128.8669     129.4128       0.0135    6334.5164    6334.5300     129.5721         21     137.5435      -0.1256    6274.6295    6274.5038    6272.5779    6272.2755      -0.3023
    8043.0    4947.2160 1534486.0000    3895.9854     128.8667     129.4136       0.0156    6334.6054    6334.6209     129.5718         21     138.5435      -0.2573    6273.8882    6273.6308    6271.8255    6271.2993      -0.5261
