~VERSION INFORMATION
VERS.           2.0   :CWLS Log ASCII Standard - VERSION 2.0
WRAP.           NO    :One Line per depth step
PROD.  Schlumberger   :LAS Producer
PROG.  DLIS to ASCII 2.2                               :LAS Program name and version
CREA.        2020/10/30 12:18                          :LAS Creation date {YYYY/MM/DD hh:mm}
SOURCE.     XPT_HRLA_TLD_MCFL_049LTP.DLIS              :DLIS File Name
FILE-ID.     XPT_HRLA_TLD_MCFL_049LTP                  :File Identification Number
#--------------------------------------------------
~WELL INFORMATION
#MNEM.UNIT      DATA             DESCRIPTION
#---- ------ --------------   -----------------------------
STRT .S          815.0       :START TIME      
STOP .S         1341.0       :STOP TIME      
STEP .S            1.0       :STEP     
NULL .          -999.25      :NULL VALUE
COMP .        Nexus Energy                             :COMPANY
WELL .        Crux-3                                   :WELL
FLD  .        Crux                                     :FIELD
LOC  .        Easting: 656981.7mE                      :LOCATION
CNTY .        Sedco-703                                :COUNTY
STAT .        Northern Territory                       :STATE
CTRY .        Australia                                :COUNTRY
API  .                                                 :API NUMBER
UWI  .                                                 :UNIQUE WELL ID
DATE .        31-Dec-2007                              :LOG DATE {DD-MMM-YYYY}
SRVC .        Schlumberger                             :SERVICE COMPANY
LATI .DEG     12*57'32.63" S                           :LATITUDE
LONG .DEG     124*26'50.07" E                          :LONGITUDE
GDAT .                                                 :GeoDetic Datum
#-----------------------------------------------------------------------------
~PARAMETER INFORMATION
#MNEM.UNIT    VALUE                      DESCRIPTION
#---- -----   --------------------       ------------------------
RUN  .          1                        :RUN NUMBER
PDAT .        LAT                        :Permanent Datum
EPD  .M           0.000000               :Elevation of Permanent Datum above Mean Sea Level
EPD  .M           0.000000               :Elevation of tool zero above Mean Sea Level
LMF  .          DF                       :Logging Measured From (Name of Logging Elevation Reference)
APD  .M          26.400000               :Elevation of Depth Reference (LMF) above Permanent Datum
#-----------------------------------------------------------------------------
~CURVE INFORMATION
#MNEM.UNIT   API CODE                                  DESCRIPTION
#---- -----  --------                                  -----------------------
TIME .S                                                :TIME {F10.1}
TENS_SL.LBF                                            :Cable Tension {F13.4}
DEPT_SL..1IN                                           :Station logging depth {F13.4}
PDEP_XPT.M                                             :XPT Probe Depth {F13.4}
MTEP_SAP.DEGC                                          :Sapphire Gauge Manometer Temperature {F13.4}
MTEP_HYD.DEGC                                          :Hydrostatic Sapphire Gauge Manometer Temperature {F13.4}
PCO_HYD.PSI                                            :Hydrostatic Sapphire Dynamic Compensation {F13.4}
PND_HYD.PSI                                            :Hydrostatic Sapphire Pressure Without Dynamic Compensation {F13.4}
CP_HYD.PSI                                             :Hydrostatic Sapphire Pressure With Dynamic Compensation {F13.4}
MTEP_QG.DEGC                                           :CQG Manometer Temperature {F13.4}
PTNO_XPT.                                              :XPT Pretest Number {I11}
ETIM_XPT.S                                             :Elapsed Logging Time {F13.4}
PCO_SAP.PSI                                            :Sapphire Dynamic Compensation {F13.4}
PND_SAP.PSI                                            :Sapphire Pressure Without Dynamic Compensation {F13.4}
CP_SAP.PSI                                             :Sapphire Pressure With Dynamic Compensation {F13.4}
QNDP .PSI                                              :CQG Pressure Without Dynamic Compensation {F13.4}
QCP  .PSI                                              :CQG Pressure With Dynamic Compensation {F13.4}
QPCO .PSI                                              :CQG Dynamic Compensation {F13.4}
#-----------------------------------------------------------------------------
# 
#     TIME      TENS_SL      DEPT_SL      PDEP_XPT     MTEP_SAP     MTEP_HYD     PCO_HYD      PND_HYD       CP_HYD      MTEP_QG       PTNO_XPT       ETIM_XPT     PCO_SAP      PND_SAP       CP_SAP        QNDP         QCP          QPCO
#
~A  
# ...
    1060.0    4762.1919 1451040.0000    3684.0325     122.3105     122.8753       0.0197    5998.3634    5998.3830     122.8401         14     245.4819       0.0135    5533.9041    5533.9177    5531.1245    5531.2604       0.1361
    1061.0    4773.4094 1451040.0000    3684.0325     122.3122     122.8742       0.0179    5998.3104    5998.3284     122.8404         14     246.4819       0.0173    5533.9875    5534.0047    5531.1324    5531.2656       0.1332
    1062.0    4760.0981 1451040.0000    3684.0325     122.3121     122.8744       0.0136    5998.2570    5998.2708     122.8407         14     247.4819       0.0191    5534.0421    5534.0612    5531.1478    5531.2777       0.1301
    1063.0    4728.5437 1451040.0000    3684.0325     122.3109     122.8767       0.0113    5998.4217    5998.4330     122.8412         14     248.4819       0.0176    5533.9993    5534.0167    5531.1546    5531.2824       0.1277
    1064.0    4687.9425 1451040.0000    3684.0325     122.3129     122.8752       0.0117    5998.3623    5998.3740     122.8417         14     249.4819       0.0152    5533.9888    5534.0041    5531.1613    5531.2874       0.1261
    1065.0    4640.2794 1451040.0000    3684.0325     122.3127     122.8754       0.0116    5998.3238    5998.3356     122.8421         14     250.4819       0.0134    5534.0622    5534.0755    5531.1658    5531.2908       0.1250
    1066.0    4620.4094 1451040.0000    3684.0325     122.3116     122.8759       0.0106    5998.4735    5998.4841     122.8425         14     251.4819       0.0112    5533.9565    5533.9676    5531.1654    5531.2890       0.1237
    1067.0    4647.0938 1451040.0000    3684.0325     122.3138     122.8764       0.0104    5998.4349    5998.4452     122.8428         14     252.4819       0.0088    5534.0027    5534.0115    5531.1691    5531.2907       0.1218
    1068.0    4663.3625 1451040.0000    3684.0325     122.3121     122.8762       0.0113    5998.4930    5998.5042     122.8432         14     253.4819       0.0087    5533.9265    5533.9353    5531.1737    5531.2948       0.1209
    1069.0    4660.7100 1451040.0000    3684.0325     122.3134     122.8765       0.0132    5998.4359    5998.4492     122.8434         14     254.4819       0.0107    5534.0492    5534.0601    5531.1751    5531.2957       0.1205
    1070.0    4690.2025 1451040.0000    3684.0325     122.3136     122.8767       0.0158    5998.3655    5998.3811     122.8440         14     255.4819       0.0134    5534.0443    5534.0575    5531.1807    5531.3013       0.1204
    1071.0    4743.3581 1451040.0000    3684.0325     122.3101     122.8774       0.0184    5998.4173    5998.4358     122.8445         14     256.4819       0.0145    5533.9306    5533.9452    5531.1882    5531.3083       0.1203
    1072.0    4777.4456 1451040.0000    3684.0325     122.3149     122.8767       0.0210    5998.3564    5998.3775     122.8448         14     257.4819       0.0166    5534.0489    5534.0656    5531.1984    5531.3185       0.1200
    1073.0    4769.3625 1451040.0000    3684.0325     122.3146     122.8785       0.0231    5998.3979    5998.4211     122.8451         14     258.4819       0.0191    5534.0215    5534.0407    5531.2005    5531.3201       0.1197
    1074.0    4753.6994 1451040.0000    3684.0325     122.3152     122.8785       0.0244    5998.2781    5998.3025     122.8455         14     259.4819       0.0190    5534.1107    5534.1298    5531.2076    5531.3268       0.1191
    1075.0    4747.0363 1451040.0000    3684.0325     122.3128     122.8778       0.0235    5998.3517    5998.3750     122.8460         14     260.4819       0.0147    5534.0407    5534.0555    5531.2179    5531.3359       0.1181
    1076.0    4704.5588 1451040.0000    3684.0325     122.3155     122.8792       0.0208    5998.3887    5998.4096     122.8462         14     261.4819       0.0099    5534.0654    5534.0752    5531.2268    5531.3435       0.1167
    1077.0    4661.9275 1451040.0000    3684.0325     122.3172     122.8798       0.0181    5998.3542    5998.3723     122.8467         14     262.4819       0.0085    5534.1903    5534.1986    5531.2362    5531.3515       0.1151
    1078.0    4663.5181 1451040.0000    3684.0325     122.3136     122.8800       0.0166    5998.4942    5998.5107     122.8469         14     263.4819       0.0094    5533.9691    5533.9785    5531.2440    5531.3583       0.1144
    1079.0    4652.8806 1451040.0000    3684.0325     122.3152     122.8807       0.0150    5998.5233    5998.5383     122.8475         14     264.4819       0.0100    5534.0294    5534.0391    5531.2571    5531.3714       0.1144
    1080.0    4631.3988 1451040.0000    3684.0325     122.3126     122.8798       0.0121    5998.5899    5998.6021     122.8476         14     265.4819       0.0098    5534.0371    5534.0469    5531.2605    5531.3753       0.1148
    1081.0    4622.4094 1451040.0000    3684.0325     122.3144     122.8805       0.0103    5998.4780    5998.4883     122.8480         14     266.4819       0.0109    5533.9414    5533.9522    5531.2674    5531.3822       0.1148
    1082.0    4680.4156 1451040.0000    3684.0325     122.3171     122.8817       0.0122    5998.4827    5998.4950     122.8487         14     267.4819       0.0131    5534.0977    5534.1107    5531.2746    5531.3893       0.1147
    1083.0    4750.6012 1451040.0000    3684.0325     122.3162     122.8820       0.0159    5998.4864    5998.5025     122.8489         14     268.4819       0.0138    5534.0689    5534.0826    5531.2622    5531.3770       0.1148
    1084.0    4764.4094 1451040.0000    3684.0325     122.3164     122.8798       0.0170    5998.3349    5998.3519     122.8493         14     269.4819       0.0128    5534.0108    5534.0233    5531.2599    5531.3746       0.1148
    1085.0    4765.5544 1451040.0000    3684.0325     122.3164     122.8811       0.0153    5998.2456    5998.2609     122.8498         14     270.4819       0.0121    5534.0557    5534.0679    5531.2555    5531.3700       0.1144
    1086.0    4776.5288 1451040.0000    3684.0325     122.3165     122.8827       0.0139    5998.2588    5998.2730     122.8500         14     271.4819       0.0140    5534.0992    5534.1134    5531.2625    5531.3763       0.1137
    1087.0    4775.5437 1451040.0000    3684.0325     122.3171     122.8837       0.0137    5998.3405    5998.3541     122.8505         14     272.4819       0.0167    5534.0222    5534.0390    5531.2665    5531.3797       0.1133
    1088.0    4726.2688 1451040.0000    3684.0325     122.3180     122.8813       0.0126    5998.2653    5998.2780     122.8507         14     273.4819       0.0185    5534.0955    5534.1141    5531.2739    5531.3872       0.1131
    1089.0    4652.4137 1451040.0000    3684.0325     122.3173     122.8827       0.0110    5998.4396    5998.4509     122.8511         14     274.4819       0.0194    5533.9690    5533.9885    5531.2840    5531.3964       0.1126
    1090.0    4643.3219 1451040.0000    3684.0325     122.3191     122.8817       0.0117    5998.4305    5998.4424     122.8515         14     275.4819       0.0199    5534.0910    5534.1110    5531.2881    5531.3998       0.1116
    1091.0    4680.3731 1451040.0000    3684.0325     122.3187     122.8828       0.0151    5998.4846    5998.4997     122.8518         14     276.4819       0.0200    5534.1091    5534.1291    5531.2951    5531.4059       0.1111
    1092.0    4674.3625 1451040.0000    3684.0325     122.3191     122.8828       0.0185    5998.5615    5998.5800     122.8523         14     277.4819       0.0194    5534.1243    5534.1438    5531.3022    5531.4130       0.1109
    1093.0    4660.6269 1451040.0000    3684.0325     122.3184     122.8837       0.0192    5998.5552    5998.5743     122.8526         14     278.4819       0.0182    5534.0576    5534.0761    5531.3022    5531.4131       0.1108
    1094.0    4671.9381 1451040.0000    3684.0325     122.3196     122.8846       0.0176    5998.5566    5998.5741     122.8530         14     279.4819       0.0165    5534.1244    5534.1409    5531.3108    5531.4213       0.1105
