~VERSION INFORMATION
VERS.           2.0   :CWLS Log ASCII Standard - VERSION 2.0
WRAP.           NO    :One Line per depth step
PROD.  Schlumberger   :LAS Producer
PROG.  DLIS to ASCII 2.2                               :LAS Program name and version
CREA.        2020/10/30 12:18                          :LAS Creation date {YYYY/MM/DD hh:mm}
SOURCE.     XPT_HRLA_TLD_MCFL_048LTP.DLIS              :DLIS File Name
FILE-ID.     XPT_HRLA_TLD_MCFL_048LTP                  :File Identification Number
#--------------------------------------------------
~WELL INFORMATION
#MNEM.UNIT      DATA             DESCRIPTION
#---- ------ --------------   -----------------------------
STRT .S           91.0       :START TIME      
STOP .S          545.0       :STOP TIME      
STEP .S            1.0       :STEP     
NULL .          -999.25      :NULL VALUE
COMP .        Nexus Energy                             :COMPANY
WELL .        Crux-3                                   :WELL
FLD  .        Crux                                     :FIELD
LOC  .        Easting: 656981.7mE                      :LOCATION
CNTY .        Sedco-703                                :COUNTY
STAT .        Northern Territory                       :STATE
CTRY .        Australia                                :COUNTRY
API  .                                                 :API NUMBER
UWI  .                                                 :UNIQUE WELL ID
DATE .        31-Dec-2007                              :LOG DATE {DD-MMM-YYYY}
SRVC .        Schlumberger                             :SERVICE COMPANY
LATI .DEG     12*57'32.63" S                           :LATITUDE
LONG .DEG     124*26'50.07" E                          :LONGITUDE
GDAT .                                                 :GeoDetic Datum
#-----------------------------------------------------------------------------
~PARAMETER INFORMATION
#MNEM.UNIT    VALUE                      DESCRIPTION
#---- -----   --------------------       ------------------------
RUN  .          1                        :RUN NUMBER
PDAT .        LAT                        :Permanent Datum
EPD  .M           0.000000               :Elevation of Permanent Datum above Mean Sea Level
EPD  .M           0.000000               :Elevation of tool zero above Mean Sea Level
LMF  .          DF                       :Logging Measured From (Name of Logging Elevation Reference)
APD  .M          26.400000               :Elevation of Depth Reference (LMF) above Permanent Datum
#-----------------------------------------------------------------------------
~CURVE INFORMATION
#MNEM.UNIT   API CODE                                  DESCRIPTION
#---- -----  --------                                  -----------------------
TIME .S                                                :TIME {F10.1}
TENS_SL.LBF                                            :Cable Tension {F13.4}
DEPT_SL..1IN                                           :Station logging depth {F13.4}
PDEP_XPT.M                                             :XPT Probe Depth {F13.4}
MTEP_SAP.DEGC                                          :Sapphire Gauge Manometer Temperature {F13.4}
MTEP_HYD.DEGC                                          :Hydrostatic Sapphire Gauge Manometer Temperature {F13.4}
PCO_HYD.PSI                                            :Hydrostatic Sapphire Dynamic Compensation {F13.4}
PND_HYD.PSI                                            :Hydrostatic Sapphire Pressure Without Dynamic Compensation {F13.4}
CP_HYD.PSI                                             :Hydrostatic Sapphire Pressure With Dynamic Compensation {F13.4}
MTEP_QG.DEGC                                           :CQG Manometer Temperature {F13.4}
PTNO_XPT.                                              :XPT Pretest Number {I11}
ETIM_XPT.S                                             :Elapsed Logging Time {F13.4}
PCO_SAP.PSI                                            :Sapphire Dynamic Compensation {F13.4}
PND_SAP.PSI                                            :Sapphire Pressure Without Dynamic Compensation {F13.4}
CP_SAP.PSI                                             :Sapphire Pressure With Dynamic Compensation {F13.4}
QNDP .PSI                                              :CQG Pressure Without Dynamic Compensation {F13.4}
QCP  .PSI                                              :CQG Pressure With Dynamic Compensation {F13.4}
QPCO .PSI                                              :CQG Dynamic Compensation {F13.4}
#-----------------------------------------------------------------------------
# 
#     TIME      TENS_SL      DEPT_SL      PDEP_XPT     MTEP_SAP     MTEP_HYD     PCO_HYD      PND_HYD       CP_HYD      MTEP_QG       PTNO_XPT       ETIM_XPT     PCO_SAP      PND_SAP       CP_SAP        QNDP         QCP          QPCO
#
~A  
# ...
     511.0    4686.1569 1445909.0000    3671.0000     122.1764     122.7115       0.0161    5977.8884    5977.9045     122.7687         12     419.8206      -0.0854    5976.2784    5976.1929    5973.4717    5973.5932       0.1214
     512.0    4666.3813 1445909.0000    3671.0000     122.1750     122.7107       0.0170    5977.8702    5977.8873     122.7690         12     420.8206      -0.0749    5976.2532    5976.1782    5973.4514    5973.5348       0.0835
     513.0    4669.2063 1445909.0000    3671.0000     122.1751     122.7107       0.0159    5977.8325    5977.8486     122.7691         12     421.8206      -0.0653    5976.1526    5976.0873    5973.4118    5973.4629       0.0509
     514.0    4719.4169 1445909.0000    3671.0000     122.1738     122.7109       0.0135    5977.8099    5977.8234     122.7693         12     422.8206      -0.0573    5976.1232    5976.0658    5973.3937    5973.4171       0.0235
     515.0    4784.9819 1445909.0000    3671.0000     122.1716     122.7117       0.0116    5977.8047    5977.8165     122.7694         12     423.8206      -0.0515    5976.0224    5975.9708    5973.3419    5973.3426       0.0007
     516.0    4793.7175 1445909.0000    3671.0000     122.1707     122.7118       0.0115    5977.7562    5977.7679     122.7695         12     424.8206      -0.0464    5976.0178    5975.9715    5973.3141    5973.2962      -0.0180
     517.0    4783.1525 1445909.0000    3671.0000     122.1705     122.7119       0.0126    5977.7614    5977.7738     122.7692         12     425.8206      -0.0413    5975.9601    5975.9189    5973.2875    5973.2542      -0.0333
     518.0    4781.8206 1445909.0000    3671.0000     122.1696     122.7122       0.0137    5977.6689    5977.6826     122.7690         12     426.8206      -0.0362    5975.8741    5975.8381    5973.2842    5973.2382      -0.0459
     519.0    4787.7444 1445909.0000    3671.0000     122.1691     122.7118       0.0139    5977.6684    5977.6821     122.7686         12     427.8206      -0.0321    5975.9488    5975.9167    5973.3145    5973.2586      -0.0561
     520.0    4804.5919 1445909.0000    3671.0000     122.1684     122.7119       0.0142    5977.7253    5977.7395     122.7687         12     428.8206      -0.0286    5975.9399    5975.9112    5973.3385    5973.2743      -0.0641
     521.0    4807.1794 1445909.0000    3671.0000     122.1692     122.7137       0.0151    5977.7446    5977.7596     122.7685         12     429.8206      -0.0242    5975.9533    5975.9290    5973.3226    5973.2527      -0.0701
     522.0    4724.1169 1445909.0000    3671.0000     122.1673     122.7137       0.0155    5977.7446    5977.7602     122.7683         12     430.8206      -0.0196    5975.9412    5975.9217    5973.3696    5973.2948      -0.0746
     523.0    4706.0000 1445909.0000    3671.0000     122.1680     122.7122       0.0134    5977.7763    5977.7896     122.7679         12     431.8206      -0.0157    5976.0198    5976.0041    5973.4143    5973.3363      -0.0781
     524.0    4687.9463 1445909.0000    3671.0000     122.1666     122.7139       0.0099    5977.8942    5977.9043     122.7676         12     432.8206      -0.0136    5976.0625    5976.0487    5973.4436    5973.3628      -0.0807
     525.0    4674.9731 1445909.0000    3671.0000     122.1669     122.7145       0.0084    5977.9316    5977.9399     122.7672         12     433.8206      -0.0129    5976.0513    5976.0386    5973.4612    5973.3787      -0.0823
     526.0    4680.3856 1445909.0000    3671.0000     122.1669     122.7145       0.0089    5977.8357    5977.8446     122.7671         12     434.8206      -0.0128    5975.9975    5975.9848    5973.4478    5973.3648      -0.0829
     527.0    4698.4125 1445909.0000    3671.0000     122.1670     122.7137       0.0098    5977.8643    5977.8740     122.7669         12     435.8206      -0.0130    5975.9266    5975.9134    5973.3923    5973.3093      -0.0829
     528.0    4771.7531 1445909.0000    3671.0000     122.1669     122.7130       0.0109    5977.7369    5977.7477     122.7667         12     436.8206      -0.0128    5976.0189    5976.0062    5973.3346    5973.2516      -0.0829
     529.0    4777.1525 1445909.0000    3671.0000     122.1666     122.7140       0.0136    5977.7596    5977.7732     122.7664         12     437.8206      -0.0116    5975.9112    5975.8997    5973.3255    5973.2430      -0.0825
     530.0    4770.0763 1445909.0000    3671.0000     122.1645     122.7165       0.0173    5977.7811    5977.7985     122.7660         12     438.8206      -0.0094    5975.7677    5975.7583    5973.2466    5973.1654      -0.0813
     531.0    4799.3631 1445909.0000    3671.0000     122.1655     122.7137       0.0196    5977.6253    5977.6448     122.7661         12     439.8206      -0.0061    5975.8288    5975.8226    5973.2269    5973.1474      -0.0796
     532.0    4818.3094 1445909.0000    3671.0000     122.1650     122.7167       0.0193    5977.8269    5977.8462     122.7655         12     440.8206      -0.0024    5975.7584    5975.7559    5973.2557    5973.1776      -0.0781
     533.0    4783.2513 1445909.0000    3671.0000     122.1660     122.7160       0.0168    5977.8281    5977.8450     122.7653         12     441.8206       0.0005    5975.8860    5975.8863    5973.3267    5973.2499      -0.0767
     534.0    4691.2963 1445909.0000    3671.0000     122.1658     122.7167       0.0131    5977.8354    5977.8485     122.7652         12     442.8206       0.0021    5975.9453    5975.9473    5973.3804    5973.3057      -0.0749
     535.0    4670.5381 1445909.0000    3671.0000     122.1660     122.7168       0.0096    5977.8198    5977.8294     122.7647         12     443.8206       0.0029    5975.9594    5975.9623    5973.3517    5973.2789      -0.0728
     536.0    4690.5156 1445909.0000    3671.0000     122.1658     122.7175       0.0074    5977.8438    5977.8512     122.7645         12     444.8206       0.0037    5976.0738    5976.0776    5973.4720    5973.4006      -0.0712
     537.0    4661.3544 1445909.0000    3671.0000     122.1653     122.7167       0.0075    5978.0105    5978.0179     122.7644         12     445.8206       0.0045    5976.0390    5976.0434    5973.4776    5973.4083      -0.0693
     538.0    4688.4663 1445909.0000    3671.0000     122.1660     122.7166       0.0092    5977.9534    5977.9626     122.7641         12     446.8206       0.0047    5976.0210    5976.0257    5973.4356    5973.3686      -0.0671
     539.0    4761.6500 1445909.0000    3671.0000     122.1663     122.7168       0.0118    5977.8737    5977.8857     122.7638         12     447.8206       0.0038    5975.9693    5975.9733    5973.3586    5973.2935      -0.0650
     540.0    4778.4619 1445909.0000    3671.0000     122.1674     122.7172       0.0127    5977.9002    5977.8486     122.7636         12     448.8206       0.0034    5975.9642    5975.9214    5973.3427    5973.2788      -0.0644
     541.0    4787.2063 1445909.0000    3671.0000     122.1666     122.7175       0.0127    5977.8117    5977.8486     122.7636         12     449.8206       0.0034    5975.8894    5975.9214    5973.2832    5973.2788      -0.0644
     542.0    4773.4081 1445909.0000    3671.0000     122.1656     122.7181       0.0127    5977.7745    5977.8486     122.7633         12     450.8206       0.0034    5975.8086    5975.9214    5973.2638    5973.2788      -0.0644
     543.0    4732.2513 1445909.0000    3671.0000     122.1658     122.7179       0.0127    5977.7565    5977.8486     122.7632         12     451.8206       0.0034    5975.8279    5975.9214    5973.2877    5973.2788      -0.0644
     544.0    4696.0988 1445909.0000    3671.0000     122.1649     122.7178       0.0127    5977.7634    5977.8486     122.7630         12     452.8206       0.0034    5975.8335    5975.9214    5973.2854    5973.2788      -0.0644
     545.0    4690.8206 1445909.0000    3671.0000     122.1676     122.7181       0.0127    5977.8343    5977.8486     122.7628         12     453.8206       0.0034    5976.0630    5975.9214    5973.3333    5973.2788      -0.0644
