~VERSION INFORMATION
VERS.           2.0   :CWLS Log ASCII Standard - VERSION 2.0
WRAP.           NO    :One Line per depth step
PROD.  Schlumberger   :LAS Producer
PROG.  DLIS to ASCII 2.2                               :LAS Program name and version
CREA.        2020/10/30 12:18                          :LAS Creation date {YYYY/MM/DD hh:mm}
SOURCE.     XPT_HRLA_TLD_MCFL_051LTP.DLIS              :DLIS File Name
FILE-ID.     XPT_HRLA_TLD_MCFL_051LTP                  :File Identification Number
#--------------------------------------------------
~WELL INFORMATION
#MNEM.UNIT      DATA             DESCRIPTION
#---- ------ --------------   -----------------------------
STRT .S         3209.0       :START TIME      
STOP .S         3664.0       :STOP TIME      
STEP .S            1.0       :STEP     
NULL .          -999.25      :NULL VALUE
COMP .        Nexus Energy                             :COMPANY
WELL .        Crux-3                                   :WELL
FLD  .        Crux                                     :FIELD
LOC  .        Easting: 656981.7mE                      :LOCATION
CNTY .        Sedco-703                                :COUNTY
STAT .        Northern Territory                       :STATE
CTRY .        Australia                                :COUNTRY
API  .                                                 :API NUMBER
UWI  .                                                 :UNIQUE WELL ID
DATE .        31-Dec-2007                              :LOG DATE {DD-MMM-YYYY}
SRVC .        Schlumberger                             :SERVICE COMPANY
LATI .DEG     12*57'32.63" S                           :LATITUDE
LONG .DEG     124*26'50.07" E                          :LONGITUDE
GDAT .                                                 :GeoDetic Datum
#-----------------------------------------------------------------------------
~PARAMETER INFORMATION
#MNEM.UNIT    VALUE                      DESCRIPTION
#---- -----   --------------------       ------------------------
RUN  .          1                        :RUN NUMBER
PDAT .        LAT                        :Permanent Datum
EPD  .M           0.000000               :Elevation of Permanent Datum above Mean Sea Level
EPD  .M           0.000000               :Elevation of tool zero above Mean Sea Level
LMF  .          DF                       :Logging Measured From (Name of Logging Elevation Reference)
APD  .M          26.400000               :Elevation of Depth Reference (LMF) above Permanent Datum
#-----------------------------------------------------------------------------
~CURVE INFORMATION
#MNEM.UNIT   API CODE                                  DESCRIPTION
#---- -----  --------                                  -----------------------
TIME .S                                                :TIME {F10.1}
TENS_SL.LBF                                            :Cable Tension {F13.4}
DEPT_SL..1IN                                           :Station logging depth {F13.4}
PDEP_XPT.M                                             :XPT Probe Depth {F13.4}
MTEP_SAP.DEGC                                          :Sapphire Gauge Manometer Temperature {F13.4}
MTEP_HYD.DEGC                                          :Hydrostatic Sapphire Gauge Manometer Temperature {F13.4}
PCO_HYD.PSI                                            :Hydrostatic Sapphire Dynamic Compensation {F13.4}
PND_HYD.PSI                                            :Hydrostatic Sapphire Pressure Without Dynamic Compensation {F13.4}
CP_HYD.PSI                                             :Hydrostatic Sapphire Pressure With Dynamic Compensation {F13.4}
MTEP_QG.DEGC                                           :CQG Manometer Temperature {F13.4}
PTNO_XPT.                                              :XPT Pretest Number {I11}
ETIM_XPT.S                                             :Elapsed Logging Time {F13.4}
PCO_SAP.PSI                                            :Sapphire Dynamic Compensation {F13.4}
PND_SAP.PSI                                            :Sapphire Pressure Without Dynamic Compensation {F13.4}
CP_SAP.PSI                                             :Sapphire Pressure With Dynamic Compensation {F13.4}
QNDP .PSI                                              :CQG Pressure Without Dynamic Compensation {F13.4}
QCP  .PSI                                              :CQG Pressure With Dynamic Compensation {F13.4}
QPCO .PSI                                              :CQG Dynamic Compensation {F13.4}
#-----------------------------------------------------------------------------
# 
#     TIME      TENS_SL      DEPT_SL      PDEP_XPT     MTEP_SAP     MTEP_HYD     PCO_HYD      PND_HYD       CP_HYD      MTEP_QG       PTNO_XPT       ETIM_XPT     PCO_SAP      PND_SAP       CP_SAP        QNDP         QCP          QPCO
#
~A  
# ...
    3279.0    5019.9320 1496497.0000    3799.4934     125.0806     125.7080       0.0385    6181.6869    6181.7255     125.2957         14      70.0840       0.0050    6098.1408    6098.1459    6094.8624    6095.0984       0.2361
    3280.0    5042.8480 1496497.0000    3799.4934     125.0794     125.7070       0.0387    6181.5603    6181.5989     125.2963         14      71.0840      -0.0169    6084.5942    6084.5774    6081.5842    6081.7874       0.2033
    3281.0    5063.8400 1496497.0000    3799.4934     125.0781     125.7076       0.0372    6181.5340    6181.5713     125.2965         14      72.0840      -0.0323    6069.5121    6069.4800    6066.6571    6066.8310       0.1739
    3282.0    5072.6640 1496497.0000    3799.4934     125.0795     125.7099       0.0356    6181.5878    6181.6235     125.2973         14      73.0840      -0.0241    6059.0485    6059.0245    6056.2685    6056.4461       0.1776
    3283.0    5066.6480 1496497.0000    3799.4934     125.0751     125.7101       0.0348    6181.5894    6181.6240     125.2975         14      74.0840       0.0259    6044.7019    6044.7276    6042.0635    6042.3081       0.2447
    3284.0    5039.4040 1496497.0000    3799.4934     125.0749     125.7109       0.0338    6181.5220    6181.5560     125.2979         14      75.0840       0.1150    6033.1712    6033.2861    6030.5113    6030.8827       0.3714
    3285.0    5019.1440 1496497.0000    3799.4934     125.0750     125.7107       0.0322    6181.5476    6181.5800     125.2982         14      76.0840       0.2119    6020.8129    6021.0247    6018.1983    6018.7130       0.5146
    3286.0    4984.2200 1496497.0000    3799.4934     125.0756     125.7115       0.0316    6181.6028    6181.6345     125.2984         14      77.0840       0.2848    6011.2664    6011.5511    6008.6393    6009.2767       0.6372
    3287.0    4942.4960 1496497.0000    3799.4934     125.0931     125.7125       0.0331    6181.6755    6181.7085     125.3052         14      78.0840       0.3219    6151.2399    6151.5619    6145.3170    6146.0511       0.7343
    3288.0    4939.5200 1496497.0000    3799.4934     125.1063     125.7123       0.0351    6181.6138    6181.6487     125.3080         14      79.0840       0.3197    6181.0765    6181.3963    6176.0747    6176.8732       0.7985
    3289.0    4964.9840 1496497.0000    3799.4934     125.1093     125.7131       0.0361    6181.7371    6181.7733     125.3098         14      80.0840       0.2731    6182.4361    6182.7091    6177.5775    6178.3891       0.8115
    3290.0    4943.8400 1496497.0000    3799.4934     125.1122     125.7145       0.0363    6181.6855    6181.7217     125.3121         14      81.0840       0.1880    6185.8121    6185.9999    6181.0108    6181.7830       0.7722
    3291.0    4954.2600 1496497.0000    3799.4934     125.1132     125.7146       0.0359    6181.6382    6181.6740     125.3142         14      82.0840       0.0970    6186.0640    6186.1611    6181.5744    6182.2928       0.7183
    3292.0    4971.3600 1496497.0000    3799.4934     125.1124     125.7146       0.0351    6181.5793    6181.6145     125.3165         14      83.0840       0.0320    6184.6230    6184.6550    6180.3767    6181.0621       0.6852
    3293.0    5011.6120 1496497.0000    3799.4934     125.1119     125.7157       0.0349    6181.6003    6181.6351     125.3183         14      84.0840       0.0011    6181.8204    6181.8215    6177.7653    6178.4386       0.6732
    3294.0    5053.7720 1496497.0000    3799.4934     125.1106     125.7166       0.0365    6181.5758    6181.6122     125.3209         14      85.0840      -0.0086    6184.5043    6184.4956    6180.6456    6181.3087       0.6631
    3295.0    5082.4040 1496497.0000    3799.4934     125.1104     125.7173       0.0389    6181.6381    6181.6771     125.3228         14      86.0840      -0.0107    6187.5933    6187.5826    6183.8336    6184.4766       0.6427
    3296.0    5064.9160 1496497.0000    3799.4934     125.1109     125.7172       0.0397    6181.5568    6181.5964     125.3250         14      87.0840      -0.0104    6189.1090    6189.0988    6185.4359    6186.0499       0.6138
    3297.0    5062.9080 1496497.0000    3799.4934     125.1115     125.7179       0.0386    6181.5945    6181.6332     125.3270         14      88.0840      -0.0110    6190.4555    6190.4445    6186.8143    6187.3937       0.5792
    3298.0    5050.0760 1496497.0000    3799.4934     125.1124     125.7203       0.0367    6181.6107    6181.6474     125.3291         14      89.0840      -0.0127    6187.3212    6187.3086    6183.7945    6184.3356       0.5414
    3299.0    5039.2440 1496497.0000    3799.4934     125.1101     125.7202       0.0340    6181.6371    6181.6710     125.3303         14      90.0840      -0.0147    6183.9412    6183.9264    6180.4445    6180.9484       0.5039
    3300.0    5028.8160 1496497.0000    3799.4934     125.1111     125.7210       0.0302    6181.6093    6181.6394     125.3318         14      91.0840      -0.0149    6180.2455    6180.2307    6176.8511    6177.3210       0.4699
    3301.0    5003.0680 1496497.0000    3799.4934     125.1093     125.7207       0.0267    6181.6148    6181.6417     125.3335         14      92.0840      -0.0123    6176.8188    6176.8066    6173.4252    6173.8675       0.4421
    3302.0    4980.4040 1496497.0000    3799.4934     125.1098     125.7222       0.0259    6181.5990    6181.6250     125.3346         14      93.0840      -0.0072    6173.9024    6173.8951    6170.6333    6171.0535       0.4202
    3303.0    4961.0680 1496497.0000    3799.4934     125.1089     125.7210       0.0285    6181.5860    6181.6145     125.3359         14      94.0840      -0.0007    6170.9085    6170.9078    6167.6532    6168.0558       0.4026
    3304.0    4943.5280 1496497.0000    3799.4934     125.1099     125.7223       0.0330    6181.6000    6181.6331     125.3373         14      95.0840       0.0060    6167.9340    6167.9402    6164.6681    6165.0565       0.3885
    3305.0    4980.9080 1496497.0000    3799.4934     125.1097     125.7237       0.0370    6181.6697    6181.7066     125.3384         14      96.0840       0.0139    6167.2174    6167.2312    6163.9216    6164.2998       0.3782
    3306.0    4969.0840 1496497.0000    3799.4934     125.1098     125.7234       0.0391    6181.6490    6181.6881     125.3396         14      97.0840       0.0225    6166.9390    6166.9615    6163.7107    6164.0819       0.3713
    3307.0    4971.6800 1496497.0000    3799.4934     125.1099     125.7252       0.0397    6181.6689    6181.7084     125.3409         14      98.0840       0.0303    6166.8458    6166.8760    6163.5483    6163.9151       0.3669
    3308.0    4994.2840 1496497.0000    3799.4934     125.1102     125.7260       0.0393    6181.6396    6181.6791     125.3420         14      99.0840       0.0361    6166.6696    6166.7057    6163.3822    6163.7457       0.3635
    3309.0    5040.4120 1496497.0000    3799.4934     125.1101     125.7259       0.0371    6181.5896    6181.6266     125.3430         14     100.0840       0.0407    6166.3956    6166.4365    6163.2259    6163.5869       0.3611
    3310.0    5031.5640 1496497.0000    3799.4934     125.1134     125.7268       0.0332    6181.5879    6181.6211     125.3444         14     101.0840       0.0432    6166.3530    6166.3965    6163.0802    6163.4368       0.3568
    3311.0    5007.6880 1496497.0000    3799.4934     125.1142     125.7270       0.0299    6181.5300    6181.5602     125.3454         14     102.0840       0.0137    6166.2645    6166.2781    6162.9428    6163.2412       0.2985
    3312.0    5039.4360 1496497.0000    3799.4934     125.1136     125.7291       0.0295    6181.5886    6181.6182     125.3465         14     103.0840      -0.1116    6166.1191    6166.0077    6162.8076    6162.8910       0.0834
    3313.0    5062.8920 1496497.0000    3799.4934     125.1161     125.7283       0.0312    6181.5403    6181.5715     125.3475         14     104.0840      -0.3759    6166.0094    6165.6335    6162.6897    6162.3343      -0.3552
