~VERSION INFORMATION
VERS.           2.0   :CWLS Log ASCII Standard - VERSION 2.0
WRAP.           NO    :One Line per depth step
PROD.  Schlumberger   :LAS Producer
PROG.  DLIS to ASCII 2.2                               :LAS Program name and version
CREA.        2020/10/30 12:18                          :LAS Creation date {YYYY/MM/DD hh:mm}
SOURCE.     XPT_HRLA_TLD_MCFL_045LTP.DLIS              :DLIS File Name
FILE-ID.     XPT_HRLA_TLD_MCFL_045LTP                  :File Identification Number
#--------------------------------------------------
~WELL INFORMATION
#MNEM.UNIT      DATA             DESCRIPTION
#---- ------ --------------   -----------------------------
STRT .S         3688.0       :START TIME      
STOP .S         4251.0       :STOP TIME      
STEP .S            1.0       :STEP     
NULL .          -999.25      :NULL VALUE
COMP .        Nexus Energy                             :COMPANY
WELL .        Crux-3                                   :WELL
FLD  .        Crux                                     :FIELD
LOC  .        Easting: 656981.7mE                      :LOCATION
CNTY .        Sedco-703                                :COUNTY
STAT .        Northern Territory                       :STATE
CTRY .        Australia                                :COUNTRY
API  .                                                 :API NUMBER
UWI  .                                                 :UNIQUE WELL ID
DATE .        31-Dec-2007                              :LOG DATE {DD-MMM-YYYY}
SRVC .        Schlumberger                             :SERVICE COMPANY
LATI .DEG     12*57'32.63" S                           :LATITUDE
LONG .DEG     124*26'50.07" E                          :LONGITUDE
GDAT .                                                 :GeoDetic Datum
#-----------------------------------------------------------------------------
~PARAMETER INFORMATION
#MNEM.UNIT    VALUE                      DESCRIPTION
#---- -----   --------------------       ------------------------
RUN  .          1                        :RUN NUMBER
PDAT .        LAT                        :Permanent Datum
EPD  .M           0.000000               :Elevation of Permanent Datum above Mean Sea Level
EPD  .M           0.000000               :Elevation of tool zero above Mean Sea Level
LMF  .          DF                       :Logging Measured From (Name of Logging Elevation Reference)
APD  .M          26.400000               :Elevation of Depth Reference (LMF) above Permanent Datum
#-----------------------------------------------------------------------------
~CURVE INFORMATION
#MNEM.UNIT   API CODE                                  DESCRIPTION
#---- -----  --------                                  -----------------------
TIME .S                                                :TIME {F10.1}
TENS_SL.LBF                                            :Cable Tension {F13.4}
DEPT_SL..1IN                                           :Station logging depth {F13.4}
PDEP_XPT.M                                             :XPT Probe Depth {F13.4}
MTEP_SAP.DEGC                                          :Sapphire Gauge Manometer Temperature {F13.4}
MTEP_HYD.DEGC                                          :Hydrostatic Sapphire Gauge Manometer Temperature {F13.4}
PCO_HYD.PSI                                            :Hydrostatic Sapphire Dynamic Compensation {F13.4}
PND_HYD.PSI                                            :Hydrostatic Sapphire Pressure Without Dynamic Compensation {F13.4}
CP_HYD.PSI                                             :Hydrostatic Sapphire Pressure With Dynamic Compensation {F13.4}
MTEP_QG.DEGC                                           :CQG Manometer Temperature {F13.4}
PTNO_XPT.                                              :XPT Pretest Number {I11}
ETIM_XPT.S                                             :Elapsed Logging Time {F13.4}
PCO_SAP.PSI                                            :Sapphire Dynamic Compensation {F13.4}
PND_SAP.PSI                                            :Sapphire Pressure Without Dynamic Compensation {F13.4}
CP_SAP.PSI                                             :Sapphire Pressure With Dynamic Compensation {F13.4}
QNDP .PSI                                              :CQG Pressure Without Dynamic Compensation {F13.4}
QCP  .PSI                                              :CQG Pressure With Dynamic Compensation {F13.4}
QPCO .PSI                                              :CQG Dynamic Compensation {F13.4}
#-----------------------------------------------------------------------------
# 
#     TIME      TENS_SL      DEPT_SL      PDEP_XPT     MTEP_SAP     MTEP_HYD     PCO_HYD      PND_HYD       CP_HYD      MTEP_QG       PTNO_XPT       ETIM_XPT     PCO_SAP      PND_SAP       CP_SAP        QNDP         QCP          QPCO
#
~A  
# ...
    3723.0    4703.6650 1440603.0000    3657.5227     121.9656     122.4729      -0.0202    5955.2714    5955.2513     122.5217          6      35.0725      -0.0205    5953.8179    5953.7973    5951.2336    5951.2190      -0.0146
    3724.0    4659.4775 1440603.0000    3657.5227     121.9662     122.4716      -0.0220    5955.3621    5955.3400     122.5217          6      36.0725      -0.0188    5953.8845    5953.8656    5951.3278    5951.3130      -0.0149
    3725.0    4640.7975 1440603.0000    3657.5227     121.9657     122.4712      -0.0250    5955.5353    5955.5103     122.5216          6      37.0725      -0.0181    5953.9162    5953.8982    5951.3816    5951.3660      -0.0156
    3726.0    4657.8875 1440603.0000    3657.5227     121.9647     122.4717      -0.0274    5955.5035    5955.4762     122.5215          6      38.0725      -0.0186    5953.9664    5953.9479    5951.4157    5951.4001      -0.0156
    3727.0    4752.5975 1440603.0000    3657.5227     121.9644     122.4717      -0.0280    5955.4980    5955.4702     122.5216          6      39.0725      -0.0200    5953.8963    5953.8761    5951.3789    5951.3634      -0.0154
    3728.0    4842.2925 1440603.0000    3657.5227     121.9643     122.4693      -0.0272    5955.4718    5955.4448     122.5215          6      40.0725      -0.0227    5953.8174    5953.7949    5951.2994    5951.2839      -0.0156
    3729.0    4912.6100 1440603.0000    3657.5227     121.9646     122.4708      -0.0249    5955.3739    5955.3489     122.5212          6      41.0725      -0.0268    5953.8415    5953.8148    5951.2143    5951.1977      -0.0164
    3730.0    4946.5800 1440603.0000    3657.5227     121.9639     122.4687      -0.0214    5955.2871    5955.2659     122.5213          6      42.0725      -0.0302    5953.6608    5953.6304    5951.1300    5951.1129      -0.0171
    3731.0    4952.7675 1440603.0000    3657.5227     121.9633     122.4681      -0.0191    5955.2203    5955.2012     122.5211          6      43.0725      -0.0304    5953.5536    5953.5232    5951.0626    5951.0455      -0.0172
    3732.0    4931.5625 1440603.0000    3657.5227     121.9601     122.4673      -0.0196    5955.0929    5955.0734     122.5211          6      44.0725      -0.0284    5953.5147    5953.4863    5951.0644    5951.0474      -0.0173
    3733.0    4857.1425 1440603.0000    3657.5227     121.9596     122.4681      -0.0222    5955.1689    5955.1467     122.5213          6      45.0725      -0.0270    5953.5216    5953.4947    5951.1032    5951.0861      -0.0171
    3734.0    4790.2150 1440603.0000    3657.5227     121.9604     122.4686      -0.0246    5955.2947    5955.2700     122.5210          6      46.0725      -0.0273    5953.6883    5953.6610    5951.1713    5951.1542      -0.0170
    3735.0    4725.2300 1440603.0000    3657.5227     121.9608     122.4665      -0.0264    5955.3240    5955.2976     122.5211          6      47.0725      -0.0278    5953.7824    5953.7546    5951.2459    5951.2293      -0.0167
    3736.0    4675.3325 1440603.0000    3657.5227     121.9618     122.4671      -0.0272    5955.3445    5955.3172     122.5213          6      48.0725      -0.0282    5953.8948    5953.8665    5951.3001    5951.2834      -0.0168
    3737.0    4657.1900 1440603.0000    3657.5227     121.9594     122.4651      -0.0262    5955.5057    5955.4796     122.5209          6      49.0725      -0.0301    5953.8823    5953.8522    5951.3486    5951.3315      -0.0171
    3738.0    4706.4825 1440603.0000    3657.5227     121.9583     122.4657      -0.0233    5955.3832    5955.3597     122.5208          6      50.0725      -0.0328    5953.8680    5953.8353    5951.3582    5951.3406      -0.0176
    3739.0    4822.6125 1440603.0000    3657.5227     121.9575     122.4657      -0.0200    5955.4491    5955.4292     122.5209          6      51.0725      -0.0332    5953.7338    5953.7007    5951.3375    5951.3193      -0.0182
    3740.0    4924.5675 1440603.0000    3657.5227     121.9587     122.4644      -0.0185    5955.4212    5955.4026     122.5207          6      52.0725      -0.0300    5953.7136    5953.6836    5951.2391    5951.2200      -0.0191
    3741.0    4983.5800 1440603.0000    3657.5227     121.9564     122.4657      -0.0195    5955.3750    5955.3555     122.5211          6      53.0725      -0.0256    5953.6303    5953.6048    5951.1332    5951.1133      -0.0198
    3742.0    4987.9550 1440603.0000    3657.5227     121.9569     122.4641      -0.0218    5955.2252    5955.2035     122.5209          6      54.0725      -0.0234    5953.5800    5953.5566    5951.0417    5951.0218      -0.0198
    3743.0    4941.2425 1440603.0000    3657.5227     121.9563     122.4640      -0.0236    5955.1099    5955.0862     122.5205          6      55.0725      -0.0231    5953.4951    5953.4721    5951.0017    5950.9819      -0.0198
    3744.0    4834.8225 1440603.0000    3657.5227     121.9565     122.4642      -0.0232    5955.2405    5955.2170     122.5204          6      56.0725      -0.0219    5953.6045    5953.5825    5951.0541    5951.0345      -0.0197
    3745.0    4738.2875 1440603.0000    3657.5227     121.9560     122.4622      -0.0215    5955.2341    5955.2127     122.5206          6      57.0725      -0.0192    5953.6447    5953.6254    5951.1688    5951.1494      -0.0193
    3746.0    4676.0425 1440603.0000    3657.5227     121.9542     122.4623      -0.0198    5955.3629    5955.3432     122.5205          6      58.0725      -0.0187    5953.7833    5953.7647    5951.2967    5951.2781      -0.0187
    3747.0    4651.1450 1440603.0000    3657.5227     121.9538     122.4619      -0.0194    5955.4280    5955.4085     122.5202          6      59.0725      -0.0212    5953.8649    5953.8436    5951.3728    5951.3538      -0.0189
    3748.0    4658.6550 1440603.0000    3657.5227     121.9539     122.4622      -0.0198    5955.6287    5955.6087     122.5201          6      60.0725      -0.0256    5953.9528    5953.9272    5951.4543    5951.4347      -0.0197
    3749.0    4738.1050 1440603.0000    3657.5227     121.9552     122.4619      -0.0212    5955.5742    5955.5531     122.5202          6      61.0725      -0.0284    5953.9364    5953.9080    5951.3956    5951.3751      -0.0205
    3750.0    4834.8000 1440603.0000    3657.5227     121.9531     122.4617      -0.0232    5955.5180    5955.4947     122.5200          6      62.0725      -0.0293    5953.7775    5953.7482    5951.3382    5951.3172      -0.0209
    3751.0    4913.4225 1440603.0000    3657.5227     121.9527     122.4604      -0.0261    5955.4246    5955.3985     122.5200          6      63.0725      -0.0303    5953.7034    5953.6730    5951.2421    5951.2206      -0.0214
    3752.0    4970.5075 1440603.0000    3657.5227     121.9508     122.4598      -0.0280    5955.2451    5955.2170     122.5201          6      64.0725      -0.0302    5953.5870    5953.5568    5951.1466    5951.1247      -0.0219
    3753.0    4973.4475 1440603.0000    3657.5227     121.9531     122.4590      -0.0272    5955.1322    5955.1048     122.5199          6      65.0725      -0.0270    5953.5344    5953.5074    5951.0493    5951.0274      -0.0221
    3754.0    4920.2425 1440603.0000    3657.5227     121.9517     122.4596      -0.0239    5955.1323    5955.1086     122.5198          6      66.0725      -0.0219    5953.6205    5953.5988    5951.0313    5951.0098      -0.0217
    3755.0    4816.0700 1440603.0000    3657.5227     121.9513     122.4584      -0.0200    5955.1456    5955.1257     122.5197          6      67.0725      -0.0185    5953.5963    5953.5780    5951.1012    5951.0800      -0.0212
    3756.0    4751.0425 1440603.0000    3657.5227     121.9511     122.4588      -0.0171    5955.2920    5955.2749     122.5198          6      68.0725      -0.0183    5953.6882    5953.6701    5951.2088    5951.1878      -0.0210
    3757.0    4725.3475 1440603.0000    3657.5227     121.9494     122.4581      -0.0156    5955.4155    5955.4000     122.5196          6      69.0725      -0.0203    5953.6648    5953.6446    5951.2356    5951.2144      -0.0212
