~VERSION INFORMATION
VERS.           2.0   :CWLS Log ASCII Standard - VERSION 2.0
WRAP.           NO    :One Line per depth step
PROD.  Schlumberger   :LAS Producer
PROG.  DLIS to ASCII 2.2                               :LAS Program name and version
CREA.        2020/10/30 12:18                          :LAS Creation date {YYYY/MM/DD hh:mm}
SOURCE.     XPT_HRLA_TLD_MCFL_048LTP.DLIS              :DLIS File Name
FILE-ID.     XPT_HRLA_TLD_MCFL_048LTP                  :File Identification Number
#--------------------------------------------------
~WELL INFORMATION
#MNEM.UNIT      DATA             DESCRIPTION
#---- ------ --------------   -----------------------------
STRT .S           91.0       :START TIME      
STOP .S          545.0       :STOP TIME      
STEP .S            1.0       :STEP     
NULL .          -999.25      :NULL VALUE
COMP .        Nexus Energy                             :COMPANY
WELL .        Crux-3                                   :WELL
FLD  .        Crux                                     :FIELD
LOC  .        Easting: 656981.7mE                      :LOCATION
CNTY .        Sedco-703                                :COUNTY
STAT .        Northern Territory                       :STATE
CTRY .        Australia                                :COUNTRY
API  .                                                 :API NUMBER
UWI  .                                                 :UNIQUE WELL ID
DATE .        31-Dec-2007                              :LOG DATE {DD-MMM-YYYY}
SRVC .        Schlumberger                             :SERVICE COMPANY
LATI .DEG     12*57'32.63" S                           :LATITUDE
LONG .DEG     124*26'50.07" E                          :LONGITUDE
GDAT .                                                 :GeoDetic Datum
#-----------------------------------------------------------------------------
~PARAMETER INFORMATION
#MNEM.UNIT    VALUE                      DESCRIPTION
#---- -----   --------------------       ------------------------
RUN  .          1                        :RUN NUMBER
PDAT .        LAT                        :Permanent Datum
EPD  .M           0.000000               :Elevation of Permanent Datum above Mean Sea Level
EPD  .M           0.000000               :Elevation of tool zero above Mean Sea Level
LMF  .          DF                       :Logging Measured From (Name of Logging Elevation Reference)
APD  .M          26.400000               :Elevation of Depth Reference (LMF) above Permanent Datum
#-----------------------------------------------------------------------------
~CURVE INFORMATION
#MNEM.UNIT   API CODE                                  DESCRIPTION
#---- -----  --------                                  -----------------------
TIME .S                                                :TIME {F10.1}
TENS_SL.LBF                                            :Cable Tension {F13.4}
DEPT_SL..1IN                                           :Station logging depth {F13.4}
PDEP_XPT.M                                             :XPT Probe Depth {F13.4}
MTEP_SAP.DEGC                                          :Sapphire Gauge Manometer Temperature {F13.4}
MTEP_HYD.DEGC                                          :Hydrostatic Sapphire Gauge Manometer Temperature {F13.4}
PCO_HYD.PSI                                            :Hydrostatic Sapphire Dynamic Compensation {F13.4}
PND_HYD.PSI                                            :Hydrostatic Sapphire Pressure Without Dynamic Compensation {F13.4}
CP_HYD.PSI                                             :Hydrostatic Sapphire Pressure With Dynamic Compensation {F13.4}
MTEP_QG.DEGC                                           :CQG Manometer Temperature {F13.4}
PTNO_XPT.                                              :XPT Pretest Number {I11}
ETIM_XPT.S                                             :Elapsed Logging Time {F13.4}
PCO_SAP.PSI                                            :Sapphire Dynamic Compensation {F13.4}
PND_SAP.PSI                                            :Sapphire Pressure Without Dynamic Compensation {F13.4}
CP_SAP.PSI                                             :Sapphire Pressure With Dynamic Compensation {F13.4}
QNDP .PSI                                              :CQG Pressure Without Dynamic Compensation {F13.4}
QCP  .PSI                                              :CQG Pressure With Dynamic Compensation {F13.4}
QPCO .PSI                                              :CQG Dynamic Compensation {F13.4}
#-----------------------------------------------------------------------------
# 
#     TIME      TENS_SL      DEPT_SL      PDEP_XPT     MTEP_SAP     MTEP_HYD     PCO_HYD      PND_HYD       CP_HYD      MTEP_QG       PTNO_XPT       ETIM_XPT     PCO_SAP      PND_SAP       CP_SAP        QNDP         QCP          QPCO
#
~A  
# ...
     231.0    4704.6681 1445909.0000    3671.0000     122.1150     122.6606       0.0085    5977.6665    5977.6752     122.6827         10     139.8206      -0.1077    5963.9139    5963.8061    5961.1307    5960.9726      -0.1580
     232.0    4689.7669 1445909.0000    3671.0000     122.1160     122.6612       0.0076    5977.6969    5977.7045     122.6831         10     140.8206      -0.2755    5963.7607    5963.4850    5961.0297    5960.5955      -0.4341
     233.0    4699.1300 1445909.0000    3671.0000     122.1154     122.6608       0.0064    5977.7438    5977.7503     122.6829         10     141.8206      -0.4806    5963.6678    5963.1871    5960.9253    5960.1476      -0.7775
     234.0    4752.0581 1445909.0000    3671.0000     122.1184     122.6625       0.0057    5977.7728    5977.7786     122.6832         10     142.8206      -0.6470    5963.7055    5963.0587    5960.8376    5959.7446      -1.0931
     235.0    4796.6456 1445909.0000    3671.0000     122.0953     122.6612       0.0053    5977.6730    5977.6783     122.6766         11     143.8206      -0.7235    5810.7938    5810.0701    5810.9032    5809.5754      -1.3278
     236.0    4799.8969 1445909.0000    3671.0000     122.0504     122.6615       0.0051    5977.6165    5977.6218     122.6646         11     144.8206      -0.7014    5555.3020    5554.6004    5558.5130    5557.0448      -1.4684
     237.0    4808.8475 1445909.0000    3671.0000     122.0319     122.6629       0.0052    5977.6308    5977.6362     122.6596         11     145.8206      -0.5725    5490.3074    5489.7348    5493.1141    5491.6298      -1.4842
     238.0    4804.4350 1445909.0000    3671.0000     122.0312     122.6606       0.0052    5977.5474    5977.5527     122.6571         11     146.8206      -0.3410    5490.1752    5489.8341    5492.3188    5490.9615      -1.3572
     239.0    4748.8387 1445909.0000    3671.0000     122.0350     122.6614       0.0063    5977.6046    5977.6109     122.6533         11     147.8206      -0.0675    5486.7622    5486.6946    5488.1118    5486.9628      -1.1489
     240.0    4686.9419 1445909.0000    3671.0000     122.0381     122.6629       0.0092    5977.6902    5977.6996     122.6501         11     148.8206       0.1591    5485.4921    5485.6513    5486.2602    5485.3039      -0.9563
     241.0    4684.2063 1445909.0000    3671.0000     122.0495     122.6622       0.0131    5977.6831    5977.6962     122.6480         11     149.8206       0.2850    5524.8239    5525.1091    5524.0559    5523.2302      -0.8258
     242.0    4668.7669 1445909.0000    3671.0000     122.0566     122.6628       0.0160    5977.7987    5977.8146     122.6451         11     150.8206       0.3235    5529.7828    5530.1062    5528.5943    5527.8600      -0.7342
     243.0    4677.3094 1445909.0000    3671.0000     122.0608     122.6629       0.0176    5977.7478    5977.7654     122.6429         11     151.8206       0.3107    5529.7985    5530.1094    5528.3382    5527.6881      -0.6500
     244.0    4704.6187 1445909.0000    3671.0000     122.0683     122.6629       0.0182    5977.7385    5977.7566     122.6405         11     152.8206       0.2745    5530.0783    5530.3526    5528.2447    5527.6804      -0.5643
     245.0    4746.9281 1445909.0000    3671.0000     122.0738     122.6642       0.0179    5977.7261    5977.7438     122.6388         11     153.8206       0.2335    5530.6373    5530.8708    5528.5337    5528.0569      -0.4769
     246.0    4782.0806 1445909.0000    3671.0000     122.0730     122.6637       0.0158    5977.6988    5977.7144     122.6376         11     154.8206       0.1988    5530.7059    5530.9045    5528.5214    5528.1346      -0.3870
     247.0    4799.4888 1445909.0000    3671.0000     122.0789     122.6644       0.0126    5977.5874    5977.6002     122.6364         11     155.8206       0.1739    5530.8388    5531.0127    5528.4464    5528.1470      -0.2995
     248.0    4802.8206 1445909.0000    3671.0000     122.0805     122.6644       0.0098    5977.6470    5977.6569     122.6359         11     156.8206       0.1562    5530.7757    5530.9318    5528.3918    5528.1715      -0.2204
     249.0    4790.6906 1445909.0000    3671.0000     122.0841     122.6651       0.0077    5977.6024    5977.6101     122.6353         11     157.8206       0.1422    5530.8652    5531.0075    5528.2874    5528.1354      -0.1523
     250.0    4782.2556 1445909.0000    3671.0000     122.0872     122.6644       0.0062    5977.5874    5977.5936     122.6347         11     158.8206       0.1288    5530.7402    5530.8690    5528.1044    5528.0108      -0.0936
     251.0    4776.0763 1445909.0000    3671.0000     122.0891     122.6652       0.0055    5977.6548    5977.6602     122.6350         11     159.8206       0.1143    5530.8049    5530.9194    5528.1466    5528.1033      -0.0432
     252.0    4779.9237 1445909.0000    3671.0000     122.0911     122.6645       0.0059    5977.7076    5977.7135     122.6346         11     160.8206       0.0998    5530.8354    5530.9353    5528.1331    5528.1334       0.0002
     253.0    4805.6187 1445909.0000    3671.0000     122.0935     122.6652       0.0071    5977.6548    5977.6618     122.6349         11     161.8206       0.0872    5530.8552    5530.9425    5528.0530    5528.0903       0.0374
     254.0    4813.4619 1445909.0000    3671.0000     122.0935     122.6646       0.0084    5977.6331    5977.6414     122.6351         11     162.8206       0.0773    5531.0540    5531.1313    5528.2282    5528.2972       0.0689
     255.0    4804.9731 1445909.0000    3671.0000     122.0949     122.6652       0.0093    5977.5957    5977.6050     122.6353         11     163.8206       0.0700    5531.0755    5531.1457    5528.2112    5528.3064       0.0951
     256.0    4794.7937 1445909.0000    3671.0000     122.0965     122.6654       0.0099    5977.5851    5977.5950     122.6358         11     164.8206       0.0654    5530.9478    5531.0134    5528.1059    5528.2225       0.1167
     257.0    4782.3319 1445909.0000    3671.0000     122.0980     122.6656       0.0105    5977.6286    5977.6392     122.6361         11     165.8206       0.0632    5530.8281    5530.8912    5528.0117    5528.1461       0.1342
     258.0    4777.5381 1445909.0000    3671.0000     122.0990     122.6660       0.0108    5977.6908    5977.7016     122.6365         11     166.8206       0.0631    5530.8660    5530.9290    5527.9561    5528.1043       0.1483
     259.0    4748.2781 1445909.0000    3671.0000     122.0979     122.6660       0.0105    5977.6386    5977.6492     122.6373         11     167.8206       0.0635    5530.8469    5530.9104    5527.9380    5528.0972       0.1592
     260.0    4718.2019 1445909.0000    3671.0000     122.1029     122.6667       0.0101    5977.7026    5977.7128     122.6378         11     168.8206       0.0621    5530.8927    5530.9550    5527.9625    5528.1303       0.1678
     261.0    4718.7444 1445909.0000    3671.0000     122.1008     122.6656       0.0105    5977.6872    5977.6975     122.6383         11     169.8206       0.0577    5530.7255    5530.7830    5527.8372    5528.0121       0.1748
     262.0    4706.0494 1445909.0000    3671.0000     122.1027     122.6670       0.0120    5977.7581    5977.7700     122.6388         11     170.8206       0.0514    5530.6217    5530.6732    5527.8211    5528.0019       0.1807
     263.0    4703.0000 1445909.0000    3671.0000     122.1052     122.6675       0.0132    5977.6787    5977.6919     122.6395         11     171.8206       0.0442    5530.6911    5530.7352    5527.7697    5527.9549       0.1852
     264.0    4687.4081 1445909.0000    3671.0000     122.1035     122.6675       0.0127    5977.6787    5977.6914     122.6400         11     172.8206       0.0356    5530.7719    5530.8073    5527.7753    5527.9639       0.1884
     265.0    4697.1300 1445909.0000    3671.0000     122.1052     122.6675       0.0113    5977.7388    5977.7500     122.6407         11     173.8206       0.0267    5530.7804    5530.8073    5527.7607    5527.9514       0.1905
