~VERSION INFORMATION
VERS.           2.0   :CWLS Log ASCII Standard - VERSION 2.0
WRAP.           NO    :One Line per depth step
PROD.  Schlumberger   :LAS Producer
PROG.  DLIS to ASCII 2.2                               :LAS Program name and version
CREA.        2020/10/30 12:18                          :LAS Creation date {YYYY/MM/DD hh:mm}
SOURCE.     XPT_HRLA_TLD_MCFL_040LTP.DLIS              :DLIS File Name
FILE-ID.     XPT_HRLA_TLD_MCFL_040LTP                  :File Identification Number
#--------------------------------------------------
~WELL INFORMATION
#MNEM.UNIT      DATA             DESCRIPTION
#---- ------ --------------   -----------------------------
STRT .S          916.0       :START TIME      
STOP .S         1395.0       :STOP TIME      
STEP .S            1.0       :STEP     
NULL .          -999.25      :NULL VALUE
COMP .        Nexus Energy                             :COMPANY
WELL .        Crux-3                                   :WELL
FLD  .        Crux                                     :FIELD
LOC  .        Easting: 656981.7mE                      :LOCATION
CNTY .        Sedco-703                                :COUNTY
STAT .        Northern Territory                       :STATE
CTRY .        Australia                                :COUNTRY
API  .                                                 :API NUMBER
UWI  .                                                 :UNIQUE WELL ID
DATE .        31-Dec-2007                              :LOG DATE {DD-MMM-YYYY}
SRVC .        Schlumberger                             :SERVICE COMPANY
LATI .DEG     12*57'32.63" S                           :LATITUDE
LONG .DEG     124*26'50.07" E                          :LONGITUDE
GDAT .                                                 :GeoDetic Datum
#-----------------------------------------------------------------------------
~PARAMETER INFORMATION
#MNEM.UNIT    VALUE                      DESCRIPTION
#---- -----   --------------------       ------------------------
RUN  .          1                        :RUN NUMBER
PDAT .        LAT                        :Permanent Datum
EPD  .M           0.000000               :Elevation of Permanent Datum above Mean Sea Level
EPD  .M           0.000000               :Elevation of tool zero above Mean Sea Level
LMF  .          DF                       :Logging Measured From (Name of Logging Elevation Reference)
APD  .M          26.400000               :Elevation of Depth Reference (LMF) above Permanent Datum
#-----------------------------------------------------------------------------
~CURVE INFORMATION
#MNEM.UNIT   API CODE                                  DESCRIPTION
#---- -----  --------                                  -----------------------
TIME .S                                                :TIME {F10.1}
TENS_SL.LBF                                            :Cable Tension {F13.4}
DEPT_SL..1IN                                           :Station logging depth {F13.4}
PDEP_XPT.M                                             :XPT Probe Depth {F13.4}
MTEP_SAP.DEGC                                          :Sapphire Gauge Manometer Temperature {F13.4}
MTEP_HYD.DEGC                                          :Hydrostatic Sapphire Gauge Manometer Temperature {F13.4}
PCO_HYD.PSI                                            :Hydrostatic Sapphire Dynamic Compensation {F13.4}
PND_HYD.PSI                                            :Hydrostatic Sapphire Pressure Without Dynamic Compensation {F13.4}
CP_HYD.PSI                                             :Hydrostatic Sapphire Pressure With Dynamic Compensation {F13.4}
MTEP_QG.DEGC                                           :CQG Manometer Temperature {F13.4}
PTNO_XPT.                                              :XPT Pretest Number {I11}
ETIM_XPT.S                                             :Elapsed Logging Time {F13.4}
PCO_SAP.PSI                                            :Sapphire Dynamic Compensation {F13.4}
PND_SAP.PSI                                            :Sapphire Pressure Without Dynamic Compensation {F13.4}
CP_SAP.PSI                                             :Sapphire Pressure With Dynamic Compensation {F13.4}
QNDP .PSI                                              :CQG Pressure Without Dynamic Compensation {F13.4}
QCP  .PSI                                              :CQG Pressure With Dynamic Compensation {F13.4}
QPCO .PSI                                              :CQG Dynamic Compensation {F13.4}
#-----------------------------------------------------------------------------
# 
#     TIME      TENS_SL      DEPT_SL      PDEP_XPT     MTEP_SAP     MTEP_HYD     PCO_HYD      PND_HYD       CP_HYD      MTEP_QG       PTNO_XPT       ETIM_XPT     PCO_SAP      PND_SAP       CP_SAP        QNDP         QCP          QPCO
#
~A  
# ...
    1231.0    4775.0832 1419728.0000    3604.5000     119.1519     119.7091       0.0054    5871.5506    5871.5559     119.7137          6     314.8453       0.0043    5506.3360    5506.3402    5503.4051    5503.4661       0.0610
    1232.0    4717.3683 1419728.0000    3604.5000     119.1504     119.7091       0.0055    5871.4551    5871.4604     119.7138          6     315.8453      -0.0012    5506.3207    5506.3195    5503.4090    5503.4704       0.0613
    1233.0    4679.1067 1419728.0000    3604.5000     119.1490     119.7099       0.0075    5871.5742    5871.5816     119.7138          6     316.8453      -0.0056    5506.1671    5506.1616    5503.4124    5503.4740       0.0618
    1234.0    4666.3928 1419728.0000    3604.5000     119.1493     119.7100       0.0094    5871.5315    5871.5411     119.7143          6     317.8453      -0.0070    5506.0659    5506.0588    5503.4119    5503.4744       0.0626
    1235.0    4654.8570 1419728.0000    3604.5000     119.1511     119.7098       0.0088    5871.5738    5871.5827     119.7143          6     318.8453      -0.0047    5506.2110    5506.2063    5503.4152    5503.4786       0.0632
    1236.0    4669.9050 1419728.0000    3604.5000     119.1513     119.7099       0.0066    5871.6335    5871.6402     119.7147          6     319.8453       0.0006    5506.3073    5506.3081    5503.4164    5503.4798       0.0635
    1237.0    4741.4653 1419728.0000    3604.5000     119.1483     119.7106       0.0051    5871.6411    5871.6462     119.7148          6     320.8453       0.0067    5506.1250    5506.1318    5503.4170    5503.4800       0.0630
    1238.0    4762.4525 1419728.0000    3604.5000     119.1496     119.7107       0.0048    5871.5861    5871.5910     119.7153          6     321.8453       0.0110    5506.0026    5506.0136    5503.4160    5503.4785       0.0623
    1239.0    4769.0715 1419728.0000    3604.5000     119.1536     119.7099       0.0049    5871.4553    5871.4602     119.7153          6     322.8453       0.0119    5506.1632    5506.1753    5503.4169    5503.4789       0.0619
    1240.0    4753.0950 1419728.0000    3604.5000     119.1525     119.7110       0.0052    5871.5260    5871.5314     119.7153          6     323.8453       0.0099    5506.3879    5506.3976    5503.4193    5503.4806       0.0613
    1241.0    4724.6425 1419728.0000    3604.5000     119.1538     119.7105       0.0061    5871.5774    5871.5837     119.7154          6     324.8453       0.0065    5506.4174    5506.4239    5503.4262    5503.4872       0.0610
    1242.0    4676.0470 1419728.0000    3604.5000     119.1494     119.7099       0.0071    5871.5150    5871.5223     119.7158          6     325.8453       0.0029    5506.0537    5506.0565    5503.4267    5503.4877       0.0612
    1243.0    4665.4643 1419728.0000    3604.5000     119.1510     119.7115       0.0077    5871.5912    5871.5991     119.7161          6     326.8453       0.0006    5506.0950    5506.0955    5503.4237    5503.4855       0.0617
    1244.0    4654.8570 1419728.0000    3604.5000     119.1512     119.7110       0.0075    5871.5541    5871.5615     119.7161          6     327.8453       0.0013    5506.1976    5506.1989    5503.4231    5503.4851       0.0619
    1245.0    4647.9285 1419728.0000    3604.5000     119.1503     119.7101       0.0070    5871.6858    5871.6927     119.7166          6     328.8453       0.0057    5506.3293    5506.3349    5503.4260    5503.4875       0.0615
    1246.0    4705.3223 1419728.0000    3604.5000     119.1520     119.7113       0.0069    5871.6489    5871.6558     119.7168          6     329.8453       0.0119    5506.2752    5506.2871    5503.4277    5503.4887       0.0610
    1247.0    4709.2380 1419728.0000    3604.5000     119.1490     119.7113       0.0075    5871.5894    5871.5968     119.7169          6     330.8453       0.0155    5506.1108    5506.1263    5503.4310    5503.4915       0.0606
    1248.0    4731.6670 1419728.0000    3604.5000     119.1534     119.7112       0.0078    5871.5377    5871.5455     119.7170          6     331.8453       0.0141    5506.2460    5506.2600    5503.4308    5503.4909       0.0602
    1249.0    4746.1430 1419728.0000    3604.5000     119.1538     119.7121       0.0069    5871.5376    5871.5447     119.7172          6     332.8453       0.0097    5506.4137    5506.4233    5503.4326    5503.4922       0.0596
    1250.0    4692.2135 1419728.0000    3604.5000     119.1525     119.7120       0.0055    5871.5739    5871.5794     119.7174          6     333.8453       0.0057    5506.2966    5506.3022    5503.4377    5503.4968       0.0590
    1251.0    4675.2380 1419728.0000    3604.5000     119.1537     119.7120       0.0045    5871.5960    5871.6004     119.7174          6     334.8453       0.0033    5506.0907    5506.0940    5503.4385    5503.4976       0.0590
    1252.0    4646.1067 1419728.0000    3604.5000     119.1516     119.7125       0.0043    5871.6014    5871.6058     119.7180          6     335.8453       0.0009    5506.0854    5506.0864    5503.4400    5503.4994       0.0593
    1253.0    4642.6905 1419728.0000    3604.5000     119.1538     119.7113       0.0044    5871.5621    5871.5665     119.7182          6     336.8453      -0.0014    5506.3875    5506.3862    5503.4430    5503.5026       0.0597
    1254.0    4681.0363 1419728.0000    3604.5000     119.1538     119.7121       0.0047    5871.5719    5871.5768     119.7182          6     337.8453      -0.0021    5506.3890    5506.3870    5503.4423    5503.5024       0.0601
    1255.0    4743.7865 1419728.0000    3604.5000     119.1528     119.7121       0.0059    5871.5088    5871.5146     119.7185          6     338.8453      -0.0009    5506.1788    5506.1781    5503.4444    5503.5049       0.0606
    1256.0    4733.7140 1419728.0000    3604.5000     119.1519     119.7125       0.0078    5871.5688    5871.5766     119.7186          6     339.8453       0.0002    5506.0851    5506.0855    5503.4436    5503.5042       0.0607
    1257.0    4730.0000 1419728.0000    3604.5000     119.1531     119.7134       0.0098    5871.4916    5871.5014     119.7189          6     340.8453      -0.0002    5506.2803    5506.2802    5503.4465    5503.5064       0.0598
    1258.0    4727.4643 1419728.0000    3604.5000     119.1526     119.7125       0.0102    5871.5107    5871.5209     119.7192          6     341.8453      -0.0010    5506.3588    5506.3579    5503.4461    5503.5049       0.0588
    1259.0    4712.6308 1419728.0000    3604.5000     119.1521     119.7138       0.0092    5871.5445    5871.5537     119.7192          6     342.8453      -0.0001    5506.1568    5506.1566    5503.4499    5503.5085       0.0584
    1260.0    4671.1185 1419728.0000    3604.5000     119.1510     119.7128       0.0085    5871.5454    5871.5537     119.7194          6     343.8453       0.0033    5505.9808    5505.9841    5503.4526    5503.5112       0.0587
    1261.0    4673.2977 1419728.0000    3604.5000     119.1527     119.7132       0.0091    5871.5648    5871.5738     119.7196          6     344.8453       0.0084    5506.2005    5506.2090    5503.4490    5503.5080       0.0590
    1262.0    4685.1430 1419728.0000    3604.5000     119.1535     119.7144       0.0107    5871.5719    5871.5826     119.7198          6     345.8453       0.0130    5506.3196    5506.3326    5503.4514    5503.5105       0.0591
    1263.0    4659.1067 1419728.0000    3604.5000     119.1527     119.7128       0.0121    5871.6050    5871.6172     119.7198          6     346.8453       0.0152    5506.2120    5506.2271    5503.4525    5503.5121       0.0595
    1264.0    4636.2497 1419728.0000    3604.5000     119.1524     119.7136       0.0129    5871.6724    5871.6853     119.7201          6     347.8453       0.0151    5506.0884    5506.1036    5503.4540    5503.5141       0.0600
    1265.0    4683.7150 1419728.0000    3604.5000     119.1546     119.7144       0.0125    5871.5665    5871.5792     119.7203          6     348.8453       0.0146    5506.2120    5506.2267    5503.4503    5503.5104       0.0600
