~VERSION INFORMATION
VERS.           2.0   :CWLS Log ASCII Standard - VERSION 2.0
WRAP.           NO    :One Line per depth step
PROD.  Schlumberger   :LAS Producer
PROG.  DLIS to ASCII 2.2                               :LAS Program name and version
CREA.        2020/10/30 12:18                          :LAS Creation date {YYYY/MM/DD hh:mm}
SOURCE.     XPT_HRLA_TLD_MCFL_064LTP.DLIS              :DLIS File Name
FILE-ID.     XPT_HRLA_TLD_MCFL_064LTP                  :File Identification Number
#--------------------------------------------------
~WELL INFORMATION
#MNEM.UNIT      DATA             DESCRIPTION
#---- ------ --------------   -----------------------------
STRT .S         1332.0       :START TIME      
STOP .S         1827.0       :STOP TIME      
STEP .S            1.0       :STEP     
NULL .          -999.25      :NULL VALUE
COMP .        Nexus Energy                             :COMPANY
WELL .        Crux-3                                   :WELL
FLD  .        Crux                                     :FIELD
LOC  .        Easting: 656981.7mE                      :LOCATION
CNTY .        Sedco-703                                :COUNTY
STAT .        Northern Territory                       :STATE
CTRY .        Australia                                :COUNTRY
API  .                                                 :API NUMBER
UWI  .                                                 :UNIQUE WELL ID
DATE .        31-Dec-2007                              :LOG DATE {DD-MMM-YYYY}
SRVC .        Schlumberger                             :SERVICE COMPANY
LATI .DEG     12*57'32.63" S                           :LATITUDE
LONG .DEG     124*26'50.07" E                          :LONGITUDE
GDAT .                                                 :GeoDetic Datum
#-----------------------------------------------------------------------------
~PARAMETER INFORMATION
#MNEM.UNIT    VALUE                      DESCRIPTION
#---- -----   --------------------       ------------------------
RUN  .          1                        :RUN NUMBER
PDAT .        LAT                        :Permanent Datum
EPD  .M           0.000000               :Elevation of Permanent Datum above Mean Sea Level
EPD  .M           0.000000               :Elevation of tool zero above Mean Sea Level
LMF  .          DF                       :Logging Measured From (Name of Logging Elevation Reference)
APD  .M          26.400000               :Elevation of Depth Reference (LMF) above Permanent Datum
#-----------------------------------------------------------------------------
~CURVE INFORMATION
#MNEM.UNIT   API CODE                                  DESCRIPTION
#---- -----  --------                                  -----------------------
TIME .S                                                :TIME {F10.1}
TENS_SL.LBF                                            :Cable Tension {F13.4}
DEPT_SL..1IN                                           :Station logging depth {F13.4}
PDEP_XPT.M                                             :XPT Probe Depth {F13.4}
MTEP_SAP.DEGC                                          :Sapphire Gauge Manometer Temperature {F13.4}
MTEP_HYD.DEGC                                          :Hydrostatic Sapphire Gauge Manometer Temperature {F13.4}
PCO_HYD.PSI                                            :Hydrostatic Sapphire Dynamic Compensation {F13.4}
PND_HYD.PSI                                            :Hydrostatic Sapphire Pressure Without Dynamic Compensation {F13.4}
CP_HYD.PSI                                             :Hydrostatic Sapphire Pressure With Dynamic Compensation {F13.4}
MTEP_QG.DEGC                                           :CQG Manometer Temperature {F13.4}
PTNO_XPT.                                              :XPT Pretest Number {I11}
ETIM_XPT.S                                             :Elapsed Logging Time {F13.4}
PCO_SAP.PSI                                            :Sapphire Dynamic Compensation {F13.4}
PND_SAP.PSI                                            :Sapphire Pressure Without Dynamic Compensation {F13.4}
CP_SAP.PSI                                             :Sapphire Pressure With Dynamic Compensation {F13.4}
QNDP .PSI                                              :CQG Pressure Without Dynamic Compensation {F13.4}
QCP  .PSI                                              :CQG Pressure With Dynamic Compensation {F13.4}
QPCO .PSI                                              :CQG Dynamic Compensation {F13.4}
#-----------------------------------------------------------------------------
# 
#     TIME      TENS_SL      DEPT_SL      PDEP_XPT     MTEP_SAP     MTEP_HYD     PCO_HYD      PND_HYD       CP_HYD      MTEP_QG       PTNO_XPT       ETIM_XPT     PCO_SAP      PND_SAP       CP_SAP        QNDP         QCP          QPCO
#
~A  
# ...
    1402.0    4850.9701 1496483.0000    3799.4575     128.7144     129.1224      -0.1157    6182.0384    6181.9227     129.6186         27      70.1646      -0.1352    6179.6770    6179.5417    6178.1408    6177.6978      -0.4432
    1403.0    4789.5674 1496483.0000    3799.4575     128.7128     129.1202      -0.1145    6182.1321    6182.0175     129.6171         27      71.1646      -0.1615    6179.7341    6179.5727    6178.1740    6177.6782      -0.4958
    1404.0    4764.3048 1496483.0000    3799.4575     128.7115     129.1181      -0.1135    6182.1204    6182.0069     129.6163         27      72.1646      -0.1847    6180.0967    6179.9119    6178.5484    6178.0090      -0.5394
    1405.0    4782.4204 1496483.0000    3799.4575     128.7095     129.1167      -0.1131    6182.0718    6181.9586     129.6139         27      73.1646      -0.1974    6168.4053    6168.2078    6159.2158    6158.6454      -0.5705
    1406.0    4816.1524 1496483.0000    3799.4575     128.7022     129.1136      -0.1130    6182.2207    6182.1078     129.6108         27      74.1646      -0.1964    6146.5078    6146.3115    6121.8389    6121.2471      -0.5919
    1407.0    4828.4204 1496483.0000    3799.4575     128.6958     129.1121      -0.1129    6182.2646    6182.1519     129.6094         27      75.1646      -0.1834    6116.2622    6116.0786    6115.8407    6115.2399      -0.6007
    1408.0    4859.3538 1496483.0000    3799.4575     128.6914     129.1098      -0.1123    6182.1201    6182.0078     129.6079         27      76.1646      -0.1622    6116.9409    6116.7789    6116.2329    6115.6387      -0.5943
    1409.0    4851.0000 1496483.0000    3799.4575     128.6920     129.1076      -0.1124    6182.2168    6182.1044     129.6064         27      77.1646      -0.1386    6114.9028    6114.7642    6114.0278    6113.4469      -0.5807
    1410.0    4849.5184 1496483.0000    3799.4575     128.6896     129.1053      -0.1139    6182.1323    6182.0183     129.6044         27      78.1646      -0.1207    6111.8130    6111.6924    6110.8315    6110.2556      -0.5758
    1411.0    4833.1102 1496483.0000    3799.4575     128.6889     129.1021      -0.1159    6181.9295    6181.8137     129.6023         27      79.1646      -0.1132    6107.7764    6107.6630    6106.5300    6105.9464      -0.5834
    1412.0    4787.1769 1496483.0000    3799.4575     128.6872     129.1017      -0.1162    6182.0835    6181.9674     129.6009         27      80.1646      -0.1140    6102.0835    6101.9695    6101.0333    6100.4413      -0.5919
    1413.0    4785.1401 1496483.0000    3799.4575     128.6835     129.1005      -0.1149    6182.0489    6181.9340     129.5989         27      81.1646      -0.1152    6090.0458    6089.9305    6089.1656    6088.5744      -0.5914
    1414.0    4790.0735 1496483.0000    3799.4575     128.6820     129.0964      -0.1141    6181.9668    6181.8525     129.5971         27      82.1646      -0.1105    6086.4529    6086.3423    6085.4795    6084.8976      -0.5821
    1415.0    4761.3170 1496483.0000    3799.4575     128.6796     129.0954      -0.1148    6182.0303    6181.9154     129.5949         27      83.1646      -0.0992    6076.0621    6075.9629    6075.1199    6074.5510      -0.5690
    1416.0    4784.7918 1496483.0000    3799.4575     128.6769     129.0932      -0.1155    6181.9941    6181.8786     129.5932         27      84.1646      -0.0849    6077.8450    6077.7600    6076.8170    6076.2648      -0.5523
    1417.0    4863.9089 1496483.0000    3799.4575     128.6749     129.0918      -0.1155    6181.9785    6181.8632     129.5916         27      85.1646      -0.0716    6079.1509    6079.0792    6078.0113    6077.4802      -0.5312
    1418.0    4832.1769 1496483.0000    3799.4575     128.6756     129.0893      -0.1149    6181.9528    6181.8381     129.5901         27      86.1646      -0.0622    6078.8372    6078.7750    6077.6631    6077.1537      -0.5094
    1419.0    4826.8476 1496483.0000    3799.4575     128.6752     129.0865      -0.1135    6181.8018    6181.6883     129.5884         27      87.1646      -0.0600    6078.8515    6078.7916    6077.5924    6077.0976      -0.4947
    1420.0    4826.2680 1496483.0000    3799.4575     128.6754     129.0850      -0.1111    6181.8400    6181.7290     129.5870         27      88.1646      -0.0683    6078.4800    6078.4116    6077.1774    6076.6839      -0.4933
    1421.0    4836.8668 1496483.0000    3799.4575     128.6727     129.0827      -0.1086    6181.8823    6181.7736     129.5854         27      89.1646      -0.0874    6080.1214    6080.0340    6078.7344    6078.2287      -0.5058
    1422.0    4761.2558 1496483.0000    3799.4575     128.6719     129.0804      -0.1074    6181.9407    6181.8333     129.5842         27      90.1646      -0.1125    6080.3969    6080.2842    6078.9767    6078.4477      -0.5288
    1423.0    4792.6708 1496483.0000    3799.4575     128.6708     129.0792      -0.1073    6181.9997    6181.8923     129.5824         27      91.1646      -0.1386    6077.7397    6077.6009    6076.4475    6075.8886      -0.5588
    1424.0    4791.6585 1496483.0000    3799.4575     128.6667     129.0775      -0.1082    6182.0215    6181.9135     129.5805         27      92.1646      -0.1625    6062.3216    6062.1593    6061.1965    6060.6062      -0.5904
    1425.0    4789.0735 1496483.0000    3799.4575     128.6617     129.0746      -0.1104    6182.1644    6182.0540     129.5787         27      93.1646      -0.1691    6048.1663    6047.9972    6047.1331    6046.5369      -0.5960
    1426.0    4769.5360 1496483.0000    3799.4575     128.6579     129.0730      -0.1138    6182.0896    6181.9759     129.5765         27      94.1646      -0.1347    6033.7981    6033.6633    6032.9731    6032.4343      -0.5389
    1427.0    4824.1524 1496483.0000    3799.4575     128.6541     129.0714      -0.1164    6182.0648    6181.9485     129.5746         27      95.1646      -0.0500    6020.0130    6019.9631    6019.2446    6018.8347      -0.4099
    1428.0    4836.4204 1496483.0000    3799.4575     128.6509     129.0690      -0.1162    6181.9185    6181.8020     129.5725         27      96.1646       0.0566    6007.8317    6007.8884    6007.1228    6006.8722      -0.2507
    1429.0    4869.6585 1496483.0000    3799.4575     128.6467     129.0668      -0.1131    6181.8883    6181.7753     129.5701         27      97.1646       0.1440    5999.6660    5999.8099    5998.9334    5998.8230      -0.1103
    1430.0    4870.3660 1496483.0000    3799.4575     128.6537     129.0636      -0.1089    6181.7412    6181.6322     129.5712         27      98.1646       0.1921    6062.4821    6062.6741    6059.9930    6059.9906      -0.0026
    1431.0    4860.9510 1496483.0000    3799.4575     128.6762     129.0623      -0.1050    6181.7874    6181.6825     129.5756         27      99.1646       0.1993    6180.6734    6180.8729    6177.4286    6177.5009       0.0725
    1432.0    4862.8912 1496483.0000    3799.4575     128.6782     129.0607      -0.1022    6181.8381    6181.7360     129.5748         27     100.1646       0.1621    6180.8450    6181.0072    6177.7275    6177.8280       0.1002
    1433.0    4769.5184 1496483.0000    3799.4575     128.6778     129.0605      -0.1007    6181.9652    6181.8646     129.5743         27     101.1646       0.0796    6180.6708    6180.7504    6177.6526    6177.7201       0.0675
    1434.0    4764.3048 1496483.0000    3799.4575     128.6749     129.0568      -0.1012    6181.9573    6181.8559     129.5741         27     102.1646      -0.0208    6180.6113    6180.5906    6177.8272    6177.8319       0.0048
    1435.0    4774.3538 1496483.0000    3799.4575     128.6710     129.0562      -0.1043    6182.0778    6181.9734     129.5740         27     103.1646      -0.1025    6181.1571    6181.0546    6178.6020    6178.5561      -0.0461
    1436.0    4764.5184 1496483.0000    3799.4575     128.6708     129.0536      -0.1086    6182.2255    6182.1168     129.5741         27     104.1646      -0.1484    6184.2950    6184.1466    6181.8200    6181.7474      -0.0728
