~VERSION INFORMATION
VERS.           2.0   :CWLS Log ASCII Standard - VERSION 2.0
WRAP.           NO    :One Line per depth step
PROD.  Schlumberger   :LAS Producer
PROG.  DLIS to ASCII 2.2                               :LAS Program name and version
CREA.        2020/10/30 12:18                          :LAS Creation date {YYYY/MM/DD hh:mm}
SOURCE.     XPT_HRLA_TLD_MCFL_056LTP.DLIS              :DLIS File Name
FILE-ID.     XPT_HRLA_TLD_MCFL_056LTP                  :File Identification Number
#--------------------------------------------------
~WELL INFORMATION
#MNEM.UNIT      DATA             DESCRIPTION
#---- ------ --------------   -----------------------------
STRT .S         6532.0       :START TIME      
STOP .S         6757.0       :STOP TIME      
STEP .S            1.0       :STEP     
NULL .          -999.25      :NULL VALUE
COMP .        Nexus Energy                             :COMPANY
WELL .        Crux-3                                   :WELL
FLD  .        Crux                                     :FIELD
LOC  .        Easting: 656981.7mE                      :LOCATION
CNTY .        Sedco-703                                :COUNTY
STAT .        Northern Territory                       :STATE
CTRY .        Australia                                :COUNTRY
API  .                                                 :API NUMBER
UWI  .                                                 :UNIQUE WELL ID
DATE .        31-Dec-2007                              :LOG DATE {DD-MMM-YYYY}
SRVC .        Schlumberger                             :SERVICE COMPANY
LATI .DEG     12*57'32.63" S                           :LATITUDE
LONG .DEG     124*26'50.07" E                          :LONGITUDE
GDAT .                                                 :GeoDetic Datum
#-----------------------------------------------------------------------------
~PARAMETER INFORMATION
#MNEM.UNIT    VALUE                      DESCRIPTION
#---- -----   --------------------       ------------------------
RUN  .          1                        :RUN NUMBER
PDAT .        LAT                        :Permanent Datum
EPD  .M           0.000000               :Elevation of Permanent Datum above Mean Sea Level
EPD  .M           0.000000               :Elevation of tool zero above Mean Sea Level
LMF  .          DF                       :Logging Measured From (Name of Logging Elevation Reference)
APD  .M          26.400000               :Elevation of Depth Reference (LMF) above Permanent Datum
#-----------------------------------------------------------------------------
~CURVE INFORMATION
#MNEM.UNIT   API CODE                                  DESCRIPTION
#---- -----  --------                                  -----------------------
TIME .S                                                :TIME {F10.1}
TENS_SL.LBF                                            :Cable Tension {F13.4}
DEPT_SL..1IN                                           :Station logging depth {F13.4}
PDEP_XPT.M                                             :XPT Probe Depth {F13.4}
MTEP_SAP.DEGC                                          :Sapphire Gauge Manometer Temperature {F13.4}
MTEP_HYD.DEGC                                          :Hydrostatic Sapphire Gauge Manometer Temperature {F13.4}
PCO_HYD.PSI                                            :Hydrostatic Sapphire Dynamic Compensation {F13.4}
PND_HYD.PSI                                            :Hydrostatic Sapphire Pressure Without Dynamic Compensation {F13.4}
CP_HYD.PSI                                             :Hydrostatic Sapphire Pressure With Dynamic Compensation {F13.4}
MTEP_QG.DEGC                                           :CQG Manometer Temperature {F13.4}
PTNO_XPT.                                              :XPT Pretest Number {I11}
ETIM_XPT.S                                             :Elapsed Logging Time {F13.4}
PCO_SAP.PSI                                            :Sapphire Dynamic Compensation {F13.4}
PND_SAP.PSI                                            :Sapphire Pressure Without Dynamic Compensation {F13.4}
CP_SAP.PSI                                             :Sapphire Pressure With Dynamic Compensation {F13.4}
QNDP .PSI                                              :CQG Pressure Without Dynamic Compensation {F13.4}
QCP  .PSI                                              :CQG Pressure With Dynamic Compensation {F13.4}
QPCO .PSI                                              :CQG Dynamic Compensation {F13.4}
#-----------------------------------------------------------------------------
# 
#     TIME      TENS_SL      DEPT_SL      PDEP_XPT     MTEP_SAP     MTEP_HYD     PCO_HYD      PND_HYD       CP_HYD      MTEP_QG       PTNO_XPT       ETIM_XPT     PCO_SAP      PND_SAP       CP_SAP        QNDP         QCP          QPCO
#
~A  
# ...
    6567.0    5003.7200 1525238.0000    3872.4954     129.8405     130.3605      -0.0710    6296.6943    6296.6235     130.2588         16      34.9950      -0.0556    6294.3292    6294.2737    6292.1744    6292.2341       0.0597
    6568.0    5011.9600 1525238.0000    3872.4954     129.8395     130.3602      -0.0712    6296.6920    6296.6207     130.2591         16      35.9950      -0.0523    6294.2511    6294.1988    6292.1626    6292.2207       0.0580
    6569.0    5013.9900 1525238.0000    3872.4954     129.8391     130.3578      -0.0711    6296.7059    6296.6347     130.2590         16      36.9950      -0.0479    6294.1987    6294.1509    6292.1309    6292.1869       0.0562
    6570.0    5016.9850 1525238.0000    3872.4954     129.8366     130.3573      -0.0691    6296.7206    6296.6514     130.2591         16      37.9950      -0.0445    6294.1524    6294.1078    6292.1199    6292.1742       0.0546
    6571.0    4994.1150 1525238.0000    3872.4954     129.8372     130.3557      -0.0660    6296.7616    6296.6956     130.2591         16      38.9950      -0.0432    6294.2560    6294.2130    6292.1205    6292.1737       0.0534
    6572.0    4933.3050 1525238.0000    3872.4954     129.8375     130.3549      -0.0644    6296.7012    6296.6367     130.2595         16      39.9950      -0.0447    6294.2848    6294.2400    6292.1896    6292.2417       0.0522
    6573.0    4876.2850 1525238.0000    3872.4954     129.8360     130.3519      -0.0658    6296.7227    6296.6569     130.2597         16      40.9950      -0.0481    6294.2857    6294.2377    6292.1489    6292.1998       0.0509
    6574.0    4934.7050 1525238.0000    3872.4954     129.8342     130.3541      -0.0690    6296.7468    6296.6780     130.2599         16      41.9950      -0.0520    6294.2603    6294.2085    6292.2528    6292.3022       0.0495
    6575.0    4915.1000 1525238.0000    3872.4954     129.8327     130.3505      -0.0715    6296.7815    6296.7100     130.2600         16      42.9950      -0.0550    6294.3993    6294.3445    6292.3360    6292.3842       0.0482
    6576.0    4949.8250 1525238.0000    3872.4954     129.8318     130.3488      -0.0727    6296.8716    6296.7988     130.2602         16      43.9950      -0.0566    6294.2392    6294.1827    6292.2346    6292.2816       0.0471
    6577.0    5039.5500 1525238.0000    3872.4954     129.8320     130.3481      -0.0733    6296.6833    6296.6101     130.2604         16      44.9950      -0.0567    6294.2957    6294.2391    6292.1793    6292.2252       0.0458
    6578.0    4991.2450 1525238.0000    3872.4954     129.8301     130.3462      -0.0738    6296.6621    6296.5884     130.2605         16      45.9950      -0.0555    6294.4010    6294.3455    6292.2223    6292.2661       0.0438
    6579.0    4994.9800 1525238.0000    3872.4954     129.8283     130.3455      -0.0741    6296.5734    6296.4992     130.2607         16      46.9950      -0.0548    6294.2036    6294.1488    6292.1334    6292.1756       0.0420
    6580.0    5013.9050 1525238.0000    3872.4954     129.8275     130.3450      -0.0739    6296.5885    6296.5148     130.2608         16      47.9950      -0.0552    6294.0727    6294.0175    6292.0590    6292.1001       0.0408
    6581.0    5012.0100 1525238.0000    3872.4954     129.8266     130.3415      -0.0735    6296.6251    6296.5515     130.2608         16      48.9950      -0.0563    6294.2440    6294.1877    6292.1802    6292.2203       0.0401
    6582.0    4942.3500 1525238.0000    3872.4954     129.8262     130.3420      -0.0735    6296.7181    6296.6449     130.2609         16      49.9950      -0.0563    6294.3288    6294.2725    6292.2630    6292.3021       0.0390
    6583.0    4946.9750 1525238.0000    3872.4954     129.8259     130.3405      -0.0736    6296.7622    6296.6885     130.2612         16      50.9950      -0.0551    6294.3349    6294.2797    6292.2966    6292.3342       0.0378
    6584.0    4903.2200 1525238.0000    3872.4954     129.8250     130.3382      -0.0731    6296.7957    6296.7226     130.2613         16      51.9950      -0.0537    6294.4088    6294.3551    6292.3528    6292.3899       0.0370
    6585.0    4899.0200 1525238.0000    3872.4954     129.8239     130.3371      -0.0710    6296.9067    6296.8356     130.2615         16      52.9950      -0.0532    6294.4776    6294.4243    6292.4042    6292.4405       0.0362
    6586.0    4874.1250 1525238.0000    3872.4954     129.8223     130.3369      -0.0677    6296.8850    6296.8171     130.2615         16      53.9950      -0.0541    6294.4425    6294.3883    6292.3494    6292.3822       0.0328
    6587.0    4875.9900 1525238.0000    3872.4954     129.8228     130.3349      -0.0660    6296.8019    6296.7359     130.2617         16      54.9950      -0.0591    6294.4585    6294.3995    6292.3245    6292.3456       0.0211
    6588.0    4945.6500 1525238.0000    3872.4954     129.8194     130.3333      -0.0670    6296.7239    6296.6569     130.2617         16      55.9950      -0.0710    6294.2934    6294.2223    6292.3222    6292.3181      -0.0040
    6589.0    5023.6100 1525238.0000    3872.4954     129.8199     130.3331      -0.0690    6296.8243    6296.7555     130.2618         16      56.9950      -0.0900    6294.3382    6294.2484    6292.2942    6292.2539      -0.0406
    6590.0    4990.1700 1525238.0000    3872.4954     129.8172     130.3318      -0.0703    6296.7898    6296.7194     130.2619         16      57.9950      -0.1124    6294.1628    6294.0505    6292.1627    6292.0812      -0.0814
    6591.0    5011.8900 1525238.0000    3872.4954     129.8151     130.3298      -0.0718    6296.6468    6296.5749     130.2619         16      58.9950      -0.1265    6290.6856    6290.5590    6288.7625    6288.6531      -0.1094
    6592.0    5003.0450 1525238.0000    3872.4954     129.8166     130.3298      -0.0753    6296.6680    6296.5928     130.2606         16      59.9950      -0.1330    6282.1011    6281.9683    6264.0763    6263.9430      -0.1332
    6593.0    4965.1900 1525238.0000    3872.4954     129.8087     130.3267      -0.0790    6296.7563    6296.6773     130.2598         16      60.9950      -0.1268    6250.4053    6250.2784    6247.4893    6247.3391      -0.1501
    6594.0    4922.2150 1525238.0000    3872.4954     129.8062     130.3267      -0.0804    6296.7563    6296.6760     130.2595         16      61.9950      -0.1126    6247.0688    6246.9563    6245.3610    6245.2051      -0.1559
    6595.0    4921.0050 1525238.0000    3872.4954     129.8039     130.3244      -0.0804    6296.7920    6296.7114     130.2594         16      62.9950      -0.0907    6246.1431    6246.0522    6244.5249    6244.3716      -0.1535
    6596.0    4937.9150 1525238.0000    3872.4954     129.8029     130.3222      -0.0816    6296.7070    6296.6253     130.2588         16      63.9950      -0.0719    6242.8213    6242.7494    6240.6735    6240.5226      -0.1509
    6597.0    4996.7050 1525238.0000    3872.4954     129.8035     130.3206      -0.0834    6296.7515    6296.6681     130.2584         16      64.9950      -0.0616    6239.5747    6239.5130    6237.7554    6237.6011      -0.1542
    6598.0    5035.8050 1525238.0000    3872.4954     129.8033     130.3197      -0.0831    6296.8437    6296.7606     130.2580         16      65.9950      -0.0588    6236.1244    6236.0658    6234.2727    6234.1131      -0.1597
    6599.0    5034.0100 1525238.0000    3872.4954     129.8031     130.3189      -0.0794    6296.7158    6296.6362     130.2572         16      66.9950      -0.0593    6232.9903    6232.9310    6231.1475    6230.9860      -0.1615
    6600.0    5023.0550 1525238.0000    3872.4954     129.8008     130.3161      -0.0752    6296.7874    6296.7122     130.2566         16      67.9950      -0.0616    6222.5002    6222.4386    6220.6884    6220.5289      -0.1594
    6601.0    5031.9550 1525238.0000    3872.4954     129.7980     130.3151      -0.0725    6296.6147    6296.5425     130.2560         16      68.9950      -0.0651    6216.9232    6216.8583    6215.0992    6214.9439      -0.1553
