~VERSION INFORMATION
VERS.           2.0   :CWLS Log ASCII Standard - VERSION 2.0
WRAP.           NO    :One Line per depth step
PROD.  Schlumberger   :LAS Producer
PROG.  DLIS to ASCII 2.2                               :LAS Program name and version
CREA.        2020/10/30 12:18                          :LAS Creation date {YYYY/MM/DD hh:mm}
SOURCE.     XPT_HRLA_TLD_MCFL_051LTP.DLIS              :DLIS File Name
FILE-ID.     XPT_HRLA_TLD_MCFL_051LTP                  :File Identification Number
#--------------------------------------------------
~WELL INFORMATION
#MNEM.UNIT      DATA             DESCRIPTION
#---- ------ --------------   -----------------------------
STRT .S         3209.0       :START TIME      
STOP .S         3664.0       :STOP TIME      
STEP .S            1.0       :STEP     
NULL .          -999.25      :NULL VALUE
COMP .        Nexus Energy                             :COMPANY
WELL .        Crux-3                                   :WELL
FLD  .        Crux                                     :FIELD
LOC  .        Easting: 656981.7mE                      :LOCATION
CNTY .        Sedco-703                                :COUNTY
STAT .        Northern Territory                       :STATE
CTRY .        Australia                                :COUNTRY
API  .                                                 :API NUMBER
UWI  .                                                 :UNIQUE WELL ID
DATE .        31-Dec-2007                              :LOG DATE {DD-MMM-YYYY}
SRVC .        Schlumberger                             :SERVICE COMPANY
LATI .DEG     12*57'32.63" S                           :LATITUDE
LONG .DEG     124*26'50.07" E                          :LONGITUDE
GDAT .                                                 :GeoDetic Datum
#-----------------------------------------------------------------------------
~PARAMETER INFORMATION
#MNEM.UNIT    VALUE                      DESCRIPTION
#---- -----   --------------------       ------------------------
RUN  .          1                        :RUN NUMBER
PDAT .        LAT                        :Permanent Datum
EPD  .M           0.000000               :Elevation of Permanent Datum above Mean Sea Level
EPD  .M           0.000000               :Elevation of tool zero above Mean Sea Level
LMF  .          DF                       :Logging Measured From (Name of Logging Elevation Reference)
APD  .M          26.400000               :Elevation of Depth Reference (LMF) above Permanent Datum
#-----------------------------------------------------------------------------
~CURVE INFORMATION
#MNEM.UNIT   API CODE                                  DESCRIPTION
#---- -----  --------                                  -----------------------
TIME .S                                                :TIME {F10.1}
TENS_SL.LBF                                            :Cable Tension {F13.4}
DEPT_SL..1IN                                           :Station logging depth {F13.4}
PDEP_XPT.M                                             :XPT Probe Depth {F13.4}
MTEP_SAP.DEGC                                          :Sapphire Gauge Manometer Temperature {F13.4}
MTEP_HYD.DEGC                                          :Hydrostatic Sapphire Gauge Manometer Temperature {F13.4}
PCO_HYD.PSI                                            :Hydrostatic Sapphire Dynamic Compensation {F13.4}
PND_HYD.PSI                                            :Hydrostatic Sapphire Pressure Without Dynamic Compensation {F13.4}
CP_HYD.PSI                                             :Hydrostatic Sapphire Pressure With Dynamic Compensation {F13.4}
MTEP_QG.DEGC                                           :CQG Manometer Temperature {F13.4}
PTNO_XPT.                                              :XPT Pretest Number {I11}
ETIM_XPT.S                                             :Elapsed Logging Time {F13.4}
PCO_SAP.PSI                                            :Sapphire Dynamic Compensation {F13.4}
PND_SAP.PSI                                            :Sapphire Pressure Without Dynamic Compensation {F13.4}
CP_SAP.PSI                                             :Sapphire Pressure With Dynamic Compensation {F13.4}
QNDP .PSI                                              :CQG Pressure Without Dynamic Compensation {F13.4}
QCP  .PSI                                              :CQG Pressure With Dynamic Compensation {F13.4}
QPCO .PSI                                              :CQG Dynamic Compensation {F13.4}
#-----------------------------------------------------------------------------
# 
#     TIME      TENS_SL      DEPT_SL      PDEP_XPT     MTEP_SAP     MTEP_HYD     PCO_HYD      PND_HYD       CP_HYD      MTEP_QG       PTNO_XPT       ETIM_XPT     PCO_SAP      PND_SAP       CP_SAP        QNDP         QCP          QPCO
#
~A  
    3209.0    4998.1000 1496497.0000    3799.4934     125.0201     125.6547       0.0000    6180.9863    6180.9863     125.2115         14       0.0840       0.0000    6179.3940    6179.3940    6176.0119    6176.0119       0.0000
    3210.0    5026.4600 1496497.0000    3799.4934     125.0200     125.6561       0.0000    6181.0837    6181.0837     125.2131         14       1.0840       0.0000    6179.4489    6179.4489    6176.0468    6176.0468       0.0000
    3211.0    5086.5880 1496497.0000    3799.4934     125.0252     125.6570       0.0000    6181.1303    6181.1303     125.2148         14       2.0840       0.0000    6179.5715    6179.5715    6176.0984    6176.0984       0.0000
    3212.0    5094.3440 1496497.0000    3799.4934     125.0247     125.6575       0.0000    6181.1951    6181.1951     125.2160         14       3.0840       0.0000    6179.6004    6179.6004    6176.1435    6176.1435       0.0000
    3213.0    5108.5800 1496497.0000    3799.4934     125.0237     125.6575       0.0000    6181.1218    6181.1218     125.2172         14       4.0840       0.0000    6179.4876    6179.4876    6176.1270    6176.1270       0.0000
    3214.0    5099.4640 1496497.0000    3799.4934     125.0246     125.6583       0.0000    6181.0683    6181.0683     125.2186         14       5.0840       0.0000    6179.4387    6179.4387    6176.1132    6176.1132       0.0000
    3215.0    5044.7920 1496497.0000    3799.4934     125.0272     125.6596       0.0375    6181.1362    6181.1737     125.2200         14       6.0840       0.0507    6179.6216    6179.6723    6176.1445    6176.5791       0.4346
    3216.0    4986.0680 1496497.0000    3799.4934     125.0285     125.6593       0.0389    6181.1548    6181.1938     125.2214         14       7.0840       0.0517    6179.5481    6179.5999    6176.1859    6176.6200       0.4343
    3217.0    4963.2360 1496497.0000    3799.4934     125.0298     125.6608       0.0394    6181.2693    6181.3089     125.2229         14       8.0840       0.0525    6179.7604    6179.8131    6176.2628    6176.6964       0.4337
    3218.0    4945.5960 1496497.0000    3799.4934     125.0298     125.6611       0.0397    6181.2943    6181.3339     125.2242         14       9.0840       0.0538    6179.7520    6179.8058    6176.3383    6176.7714       0.4330
    3219.0    4965.1000 1496497.0000    3799.4934     125.0312     125.6624       0.0399    6181.3191    6181.3592     125.2257         14      10.0840       0.0561    6179.8253    6179.8813    6176.4249    6176.8575       0.4325
    3220.0    4993.5440 1496497.0000    3799.4934     125.0307     125.6638       0.0407    6181.4398    6181.4803     125.2272         14      11.0840       0.0581    6179.7756    6179.8337    6176.4015    6176.8336       0.4319
    3221.0    5057.2760 1496497.0000    3799.4934     125.0314     125.6633       0.0420    6181.4597    6181.5014     125.2281         14      12.0840       0.0581    6179.7559    6179.8139    6176.4171    6176.8488       0.4315
    3222.0    5092.6640 1496497.0000    3799.4934     125.0350     125.6646       0.0434    6181.4038    6181.4471     125.2298         14      13.0840       0.0569    6179.8551    6179.9119    6176.4290    6176.8606       0.4316
    3223.0    5086.9840 1496497.0000    3799.4934     125.0359     125.6660       0.0459    6181.4065    6181.4524     125.2311         14      14.0840       0.0544    6179.9092    6179.9634    6176.4107    6176.8423       0.4317
    3224.0    5064.4960 1496497.0000    3799.4934     125.0363     125.6662       0.0492    6181.4082    6181.4574     125.2325         14      15.0840       0.0506    6179.8121    6179.8629    6176.3722    6176.8032       0.4311
    3225.0    5057.1520 1496497.0000    3799.4934     125.0375     125.6669       0.0512    6181.4160    6181.4671     125.2338         14      16.0840       0.0484    6179.8500    6179.8985    6176.4510    6176.8812       0.4301
    3226.0    5032.6320 1496497.0000    3799.4934     125.0374     125.6669       0.0511    6181.4765    6181.5278     125.2351         14      17.0840       0.0489    6179.9029    6179.9517    6176.4865    6176.9148       0.4283
    3227.0    4981.3040 1496497.0000    3799.4934     125.0368     125.6684       0.0488    6181.4410    6181.4896     125.2366         14      18.0840       0.0517    6179.8220    6179.8735    6176.5100    6176.9366       0.4266
    3228.0    4941.4200 1496497.0000    3799.4934     125.0382     125.6707       0.0461    6181.5166    6181.5627     125.2379         14      19.0840       0.0543    6179.8777    6179.9320    6176.5137    6176.9392       0.4254
    3229.0    4945.1600 1496497.0000    3799.4934     125.0411     125.6707       0.0432    6181.5750    6181.6181     125.2393         14      20.0840       0.0563    6179.9445    6180.0006    6176.5699    6176.9947       0.4250
    3230.0    4936.5040 1496497.0000    3799.4934     125.0417     125.6708       0.0394    6181.5778    6181.6170     125.2405         14      21.0840       0.0583    6180.0670    6180.1252    6176.6167    6177.0415       0.4247
    3231.0    4942.5880 1496497.0000    3799.4934     125.0422     125.6717       0.0354    6181.6291    6181.6647     125.2420         14      22.0840       0.0591    6179.9445    6180.0035    6176.5763    6176.9998       0.4236
    3232.0    4952.3600 1496497.0000    3799.4934     125.0447     125.6727       0.0332    6181.5986    6181.6318     125.2435         14      23.0840       0.0577    6179.9762    6180.0338    6176.6019    6177.0238       0.4220
    3233.0    4993.2840 1496497.0000    3799.4934     125.0430     125.6739       0.0335    6181.5504    6181.5841     125.2448         14      24.0840       0.0550    6179.9457    6180.0007    6176.5615    6176.9823       0.4206
    3234.0    5041.7640 1496497.0000    3799.4934     125.0472     125.6732       0.0343    6181.5019    6181.5364     125.2461         14      25.0840       0.0532    6179.9702    6180.0233    6176.4930    6176.9129       0.4198
    3235.0    5061.1680 1496497.0000    3799.4934     125.0469     125.6738       0.0359    6181.4893    6181.5253     125.2472         14      26.0840       0.0514    6179.7905    6179.8418    6176.4370    6176.8560       0.4191
    3236.0    5064.0080 1496497.0000    3799.4934     125.0478     125.6755       0.0381    6181.4308    6181.4688     125.2489         14      27.0840       0.0495    6179.8178    6179.8673    6176.3354    6176.7542       0.4188
    3237.0    5075.2520 1496497.0000    3799.4934     125.0483     125.6756       0.0424    6181.3516    6181.3940     125.2500         14      28.0840       0.0460    6179.7198    6179.7656    6176.3220    6176.7409       0.4188
    3238.0    5077.3280 1496497.0000    3799.4934     125.0492     125.6753       0.0486    6181.3853    6181.4339     125.2513         14      29.0840       0.0417    6179.8980    6179.9396    6176.4264    6176.8458       0.4194
    3239.0    5068.3200 1496497.0000    3799.4934     125.0497     125.6773       0.0513    6181.4075    6181.4585     125.2527         14      30.0840       0.0411    6179.9007    6179.9417    6176.4558    6176.8752       0.4196
    3240.0    5043.8680 1496497.0000    3799.4934     125.0508     125.6790       0.0535    6181.4847    6181.5382     125.2542         14      31.0840       0.0431    6179.8744    6179.9175    6176.4850    6176.9044       0.4193
    3241.0    4971.7920 1496497.0000    3799.4934     125.0517     125.6787       0.0522    6181.4499    6181.5021     125.2552         14      32.0840       0.0476    6179.8599    6179.9076    6176.5261    6176.9446       0.4186
    3242.0    4920.0400 1496497.0000    3799.4934     125.0513     125.6808       0.0475    6181.5429    6181.5903     125.2568         14      33.0840       0.0523    6179.8908    6179.9429    6176.5468    6176.9648       0.4181
    3243.0    4971.5560 1496497.0000    3799.4934     125.0533     125.6817       0.0423    6181.6938    6181.7362     125.2581         14      34.0840       0.0560    6179.8638    6179.9197    6176.5905    6177.0086       0.4182
