~VERSION INFORMATION
VERS.           2.0   :CWLS Log ASCII Standard - VERSION 2.0
WRAP.           NO    :One Line per depth step
PROD.  Schlumberger   :LAS Producer
PROG.  DLIS to ASCII 2.2                               :LAS Program name and version
CREA.        2020/10/30 12:18                          :LAS Creation date {YYYY/MM/DD hh:mm}
SOURCE.     XPT_HRLA_TLD_MCFL_040LTP.DLIS              :DLIS File Name
FILE-ID.     XPT_HRLA_TLD_MCFL_040LTP                  :File Identification Number
#--------------------------------------------------
~WELL INFORMATION
#MNEM.UNIT      DATA             DESCRIPTION
#---- ------ --------------   -----------------------------
STRT .S          916.0       :START TIME      
STOP .S         1395.0       :STOP TIME      
STEP .S            1.0       :STEP     
NULL .          -999.25      :NULL VALUE
COMP .        Nexus Energy                             :COMPANY
WELL .        Crux-3                                   :WELL
FLD  .        Crux                                     :FIELD
LOC  .        Easting: 656981.7mE                      :LOCATION
CNTY .        Sedco-703                                :COUNTY
STAT .        Northern Territory                       :STATE
CTRY .        Australia                                :COUNTRY
API  .                                                 :API NUMBER
UWI  .                                                 :UNIQUE WELL ID
DATE .        31-Dec-2007                              :LOG DATE {DD-MMM-YYYY}
SRVC .        Schlumberger                             :SERVICE COMPANY
LATI .DEG     12*57'32.63" S                           :LATITUDE
LONG .DEG     124*26'50.07" E                          :LONGITUDE
GDAT .                                                 :GeoDetic Datum
#-----------------------------------------------------------------------------
~PARAMETER INFORMATION
#MNEM.UNIT    VALUE                      DESCRIPTION
#---- -----   --------------------       ------------------------
RUN  .          1                        :RUN NUMBER
PDAT .        LAT                        :Permanent Datum
EPD  .M           0.000000               :Elevation of Permanent Datum above Mean Sea Level
EPD  .M           0.000000               :Elevation of tool zero above Mean Sea Level
LMF  .          DF                       :Logging Measured From (Name of Logging Elevation Reference)
APD  .M          26.400000               :Elevation of Depth Reference (LMF) above Permanent Datum
#-----------------------------------------------------------------------------
~CURVE INFORMATION
#MNEM.UNIT   API CODE                                  DESCRIPTION
#---- -----  --------                                  -----------------------
TIME .S                                                :TIME {F10.1}
TENS_SL.LBF                                            :Cable Tension {F13.4}
DEPT_SL..1IN                                           :Station logging depth {F13.4}
PDEP_XPT.M                                             :XPT Probe Depth {F13.4}
MTEP_SAP.DEGC                                          :Sapphire Gauge Manometer Temperature {F13.4}
MTEP_HYD.DEGC                                          :Hydrostatic Sapphire Gauge Manometer Temperature {F13.4}
PCO_HYD.PSI                                            :Hydrostatic Sapphire Dynamic Compensation {F13.4}
PND_HYD.PSI                                            :Hydrostatic Sapphire Pressure Without Dynamic Compensation {F13.4}
CP_HYD.PSI                                             :Hydrostatic Sapphire Pressure With Dynamic Compensation {F13.4}
MTEP_QG.DEGC                                           :CQG Manometer Temperature {F13.4}
PTNO_XPT.                                              :XPT Pretest Number {I11}
ETIM_XPT.S                                             :Elapsed Logging Time {F13.4}
PCO_SAP.PSI                                            :Sapphire Dynamic Compensation {F13.4}
PND_SAP.PSI                                            :Sapphire Pressure Without Dynamic Compensation {F13.4}
CP_SAP.PSI                                             :Sapphire Pressure With Dynamic Compensation {F13.4}
QNDP .PSI                                              :CQG Pressure Without Dynamic Compensation {F13.4}
QCP  .PSI                                              :CQG Pressure With Dynamic Compensation {F13.4}
QPCO .PSI                                              :CQG Dynamic Compensation {F13.4}
#-----------------------------------------------------------------------------
# 
#     TIME      TENS_SL      DEPT_SL      PDEP_XPT     MTEP_SAP     MTEP_HYD     PCO_HYD      PND_HYD       CP_HYD      MTEP_QG       PTNO_XPT       ETIM_XPT     PCO_SAP      PND_SAP       CP_SAP        QNDP         QCP          QPCO
#
~A  
# ...
    1126.0    4761.7972 1419728.0000    3604.5000     119.1346     119.6981       0.0053    5871.4064    5871.4117     119.6857          5     209.8453       0.0022    5506.1966    5506.1988    5503.5560    5503.6615       0.1054
    1127.0    4687.6895 1419728.0000    3604.5000     119.1386     119.6981       0.0068    5871.5078    5871.5146     119.6862          5     210.8453       0.0052    5506.6252    5506.6303    5503.5573    5503.6623       0.1050
    1128.0    4663.1665 1419728.0000    3604.5000     119.1344     119.6992       0.0072    5871.6301    5871.6374     119.6863          5     211.8453       0.0103    5506.3205    5506.3310    5503.5553    5503.6608       0.1053
    1129.0    4677.0598 1419728.0000    3604.5000     119.1363     119.6979       0.0070    5871.5236    5871.5305     119.6865          5     212.8453       0.0147    5506.6149    5506.6295    5503.5572    5503.6626       0.1053
    1130.0    4695.2145 1419728.0000    3604.5000     119.1369     119.7001       0.0074    5871.7456    5871.7530     119.6868          5     213.8453       0.0175    5506.3735    5506.3910    5503.5566    5503.6611       0.1044
    1131.0    4719.9765 1419728.0000    3604.5000     119.1381     119.6985       0.0088    5871.5836    5871.5925     119.6873          5     214.8453       0.0189    5506.4601    5506.4792    5503.5589    5503.6618       0.1032
    1132.0    4751.8933 1419728.0000    3604.5000     119.1381     119.6992       0.0105    5871.5227    5871.5332     119.6878          5     215.8453       0.0185    5506.3347    5506.3530    5503.5561    5503.6579       0.1017
    1133.0    4761.2262 1419728.0000    3604.5000     119.1409     119.6992       0.0117    5871.4524    5871.4641     119.6882          5     216.8453       0.0155    5506.5914    5506.6069    5503.5530    5503.6520       0.0990
    1134.0    4771.2977 1419728.0000    3604.5000     119.1384     119.6987       0.0119    5871.3568    5871.3685     119.6883          5     217.8453       0.0024    5506.2773    5506.2797    5503.5508    5503.6354       0.0845
    1135.0    4785.6788 1419728.0000    3604.5000     119.1388     119.7004       0.0111    5871.4445    5871.4555     119.6886          5     218.8453      -0.0280    5506.5756    5506.5474    5503.5483    5503.5935       0.0452
    1136.0    4743.2018 1419728.0000    3604.5000     119.1385     119.7006       0.0090    5871.5263    5871.5352     119.6889          5     219.8453      -0.0726    5506.3044    5506.2318    5503.5503    5503.5326      -0.0179
    1137.0    4694.4280 1419728.0000    3604.5000     119.1396     119.7003       0.0055    5871.5936    5871.5993     119.6892          5     220.8453      -0.1147    5506.6479    5506.5332    5503.5500    5503.4637      -0.0864
    1138.0    4676.0117 1419728.0000    3604.5000     119.1372     119.7000       0.0020    5871.5615    5871.5635     119.6894          5     221.8453      -0.1380    5506.1757    5506.0378    5503.5510    5503.4097      -0.1413
    1139.0    4681.6073 1419728.0000    3604.5000     119.1299     119.7007      -0.0002    5871.6622    5871.6618     119.6874          5     222.8453      -0.1400    5449.3654    5449.2254    5447.7965    5447.6170      -0.1795
    1140.0    4680.4643 1419728.0000    3604.5000     119.1214     119.7000      -0.0005    5871.6409    5871.6404     119.6860          6     223.8453      -0.1219    5412.4006    5412.2789    5410.8495    5410.6500      -0.1996
    1141.0    4699.4407 1419728.0000    3604.5000     119.1219     119.7005      -0.0003    5871.6403    5871.6398     119.6856          6     224.8453      -0.0843    5415.4623    5415.3778    5413.5603    5413.3661      -0.1943
    1142.0    4746.1078 1419728.0000    3604.5000     119.1229     119.7005      -0.0002    5871.6436    5871.6436     119.6855          6     225.8453      -0.0321    5417.1448    5417.1125    5415.0962    5414.9335      -0.1627
    1143.0    4753.1547 1419728.0000    3604.5000     119.1254     119.7004      -0.0002    5871.5353    5871.5353     119.6852          6     226.8453       0.0183    5415.2533    5415.2714    5413.1449    5413.0237      -0.1212
    1144.0    4769.9050 1419728.0000    3604.5000     119.1254     119.7015      -0.0001    5871.4558    5871.4558     119.6847          6     227.8453       0.0559    5418.1219    5418.1779    5415.7961    5415.7153      -0.0807
    1145.0    4742.5710 1419728.0000    3604.5000     119.1273     119.7004      -0.0003    5871.4053    5871.4048     119.6844          6     228.8453       0.0866    5420.2181    5420.3047    5417.8220    5417.7905      -0.0313
    1146.0    4705.7257 1419728.0000    3604.5000     119.1268     119.6992      -0.0006    5871.4038    5871.4033     119.6841          6     229.8453       0.1203    5419.4124    5419.5327    5416.8939    5416.9317       0.0380
    1147.0    4646.7492 1419728.0000    3604.5000     119.1289     119.7000       0.0002    5871.4116    5871.4119     119.6840          6     230.8453       0.1542    5420.6871    5420.8413    5418.0578    5418.1761       0.1184
    1148.0    4648.8335 1419728.0000    3604.5000     119.1311     119.7009       0.0018    5871.5996    5871.6014     119.6838          6     231.8453       0.1765    5420.8993    5421.0758    5418.2211    5418.4109       0.1900
    1149.0    4678.0480 1419728.0000    3604.5000     119.1356     119.6999       0.0035    5871.7039    5871.7074     119.6858          6     232.8453       0.1821    5459.8640    5460.0460    5456.2900    5456.5363       0.2465
    1150.0    4688.9168 1419728.0000    3604.5000     119.1454     119.7015       0.0046    5871.6655    5871.6702     119.6876          6     233.8453       0.1705    5504.0185    5504.1890    5500.3768    5500.6630       0.2863
    1151.0    4676.4760 1419728.0000    3604.5000     119.1476     119.7007       0.0055    5871.6512    5871.6565     119.6882          6     234.8453       0.1403    5505.8634    5506.0036    5502.1691    5502.4721       0.3030
    1152.0    4742.4653 1419728.0000    3604.5000     119.1479     119.7015       0.0064    5871.5464    5871.5527     119.6888          6     235.8453       0.0936    5506.2148    5506.3087    5502.5183    5502.8114       0.2932
    1153.0    4754.1547 1419728.0000    3604.5000     119.1475     119.7000       0.0064    5871.5759    5871.5823     119.6899          6     236.8453       0.0446    5505.9420    5505.9866    5502.6350    5502.9056       0.2705
    1154.0    4737.0950 1419728.0000    3604.5000     119.1494     119.7009       0.0059    5871.5017    5871.5075     119.6907          6     237.8453       0.0090    5506.1164    5506.1254    5502.6597    5502.9124       0.2526
    1155.0    4728.0832 1419728.0000    3604.5000     119.1477     119.7007       0.0053    5871.4194    5871.4248     119.6916          6     238.8453      -0.0087    5506.0608    5506.0521    5502.7107    5502.9547       0.2441
    1156.0    4736.2977 1419728.0000    3604.5000     119.1459     119.7013       0.0051    5871.4398    5871.4447     119.6926          6     239.8453      -0.0152    5505.7947    5505.7795    5502.7505    5502.9881       0.2375
    1157.0    4676.2968 1419728.0000    3604.5000     119.1498     119.7009       0.0051    5871.4650    5871.4699     119.6932          6     240.8453      -0.0175    5506.0925    5506.0750    5502.7847    5503.0115       0.2268
    1158.0    4662.4643 1419728.0000    3604.5000     119.1475     119.7014       0.0046    5871.4946    5871.4990     119.6938          6     241.8453      -0.0184    5505.9655    5505.9469    5502.8084    5503.0216       0.2132
    1159.0    4660.3095 1419728.0000    3604.5000     119.1461     119.7015       0.0038    5871.5445    5871.5482     119.6947          6     242.8453      -0.0190    5505.6483    5505.6293    5502.7957    5502.9950       0.1992
    1160.0    4643.9402 1419728.0000    3604.5000     119.1468     119.7007       0.0030    5871.7173    5871.7202     119.6951          6     243.8453      -0.0193    5506.0686    5506.0490    5502.8097    5502.9955       0.1857
