~VERSION INFORMATION
VERS.           2.0   :CWLS Log ASCII Standard - VERSION 2.0
WRAP.           NO    :One Line per depth step
PROD.  Schlumberger   :LAS Producer
PROG.  DLIS to ASCII 2.2                               :LAS Program name and version
CREA.        2020/10/30 12:18                          :LAS Creation date {YYYY/MM/DD hh:mm}
SOURCE.     XPT_HRLA_TLD_MCFL_045LTP.DLIS              :DLIS File Name
FILE-ID.     XPT_HRLA_TLD_MCFL_045LTP                  :File Identification Number
#--------------------------------------------------
~WELL INFORMATION
#MNEM.UNIT      DATA             DESCRIPTION
#---- ------ --------------   -----------------------------
STRT .S         3688.0       :START TIME      
STOP .S         4251.0       :STOP TIME      
STEP .S            1.0       :STEP     
NULL .          -999.25      :NULL VALUE
COMP .        Nexus Energy                             :COMPANY
WELL .        Crux-3                                   :WELL
FLD  .        Crux                                     :FIELD
LOC  .        Easting: 656981.7mE                      :LOCATION
CNTY .        Sedco-703                                :COUNTY
STAT .        Northern Territory                       :STATE
CTRY .        Australia                                :COUNTRY
API  .                                                 :API NUMBER
UWI  .                                                 :UNIQUE WELL ID
DATE .        31-Dec-2007                              :LOG DATE {DD-MMM-YYYY}
SRVC .        Schlumberger                             :SERVICE COMPANY
LATI .DEG     12*57'32.63" S                           :LATITUDE
LONG .DEG     124*26'50.07" E                          :LONGITUDE
GDAT .                                                 :GeoDetic Datum
#-----------------------------------------------------------------------------
~PARAMETER INFORMATION
#MNEM.UNIT    VALUE                      DESCRIPTION
#---- -----   --------------------       ------------------------
RUN  .          1                        :RUN NUMBER
PDAT .        LAT                        :Permanent Datum
EPD  .M           0.000000               :Elevation of Permanent Datum above Mean Sea Level
EPD  .M           0.000000               :Elevation of tool zero above Mean Sea Level
LMF  .          DF                       :Logging Measured From (Name of Logging Elevation Reference)
APD  .M          26.400000               :Elevation of Depth Reference (LMF) above Permanent Datum
#-----------------------------------------------------------------------------
~CURVE INFORMATION
#MNEM.UNIT   API CODE                                  DESCRIPTION
#---- -----  --------                                  -----------------------
TIME .S                                                :TIME {F10.1}
TENS_SL.LBF                                            :Cable Tension {F13.4}
DEPT_SL..1IN                                           :Station logging depth {F13.4}
PDEP_XPT.M                                             :XPT Probe Depth {F13.4}
MTEP_SAP.DEGC                                          :Sapphire Gauge Manometer Temperature {F13.4}
MTEP_HYD.DEGC                                          :Hydrostatic Sapphire Gauge Manometer Temperature {F13.4}
PCO_HYD.PSI                                            :Hydrostatic Sapphire Dynamic Compensation {F13.4}
PND_HYD.PSI                                            :Hydrostatic Sapphire Pressure Without Dynamic Compensation {F13.4}
CP_HYD.PSI                                             :Hydrostatic Sapphire Pressure With Dynamic Compensation {F13.4}
MTEP_QG.DEGC                                           :CQG Manometer Temperature {F13.4}
PTNO_XPT.                                              :XPT Pretest Number {I11}
ETIM_XPT.S                                             :Elapsed Logging Time {F13.4}
PCO_SAP.PSI                                            :Sapphire Dynamic Compensation {F13.4}
PND_SAP.PSI                                            :Sapphire Pressure Without Dynamic Compensation {F13.4}
CP_SAP.PSI                                             :Sapphire Pressure With Dynamic Compensation {F13.4}
QNDP .PSI                                              :CQG Pressure Without Dynamic Compensation {F13.4}
QCP  .PSI                                              :CQG Pressure With Dynamic Compensation {F13.4}
QPCO .PSI                                              :CQG Dynamic Compensation {F13.4}
#-----------------------------------------------------------------------------
# 
#     TIME      TENS_SL      DEPT_SL      PDEP_XPT     MTEP_SAP     MTEP_HYD     PCO_HYD      PND_HYD       CP_HYD      MTEP_QG       PTNO_XPT       ETIM_XPT     PCO_SAP      PND_SAP       CP_SAP        QNDP         QCP          QPCO
#
~A  
# ...
    3828.0    4899.0000 1440603.0000    3657.5227     121.9338     122.4320      -0.0203    5955.4292    5955.4086     122.5086          6     140.0725       0.0742    5968.6560    5968.7302    5964.8337    5965.1408       0.3072
    3829.0    4896.8250 1440603.0000    3657.5227     121.9343     122.4301      -0.0195    5955.3639    5955.3443     122.5099          6     141.0725       0.0160    5977.1402    5977.1564    5973.5814    5973.8666       0.2851
    3830.0    4865.9550 1440603.0000    3657.5227     121.9321     122.4315      -0.0191    5955.4234    5955.4044     122.5106          6     142.0725      -0.0223    5978.1396    5978.1174    5974.7987    5975.0731       0.2745
    3831.0    4825.0425 1440603.0000    3657.5227     121.9332     122.4313      -0.0184    5955.3884    5955.3698     122.5116          6     143.0725      -0.0479    5980.8388    5980.7911    5977.6042    5977.8654       0.2611
    3832.0    4799.1300 1440603.0000    3657.5227     121.9303     122.4303      -0.0186    5955.4256    5955.4070     122.5126          6     144.0725      -0.0660    5982.4219    5982.3561    5979.2761    5979.5134       0.2371
    3833.0    4786.6225 1440603.0000    3657.5227     121.9291     122.4303      -0.0201    5955.4704    5955.4503     122.5132          6     145.0725      -0.0761    5982.5601    5982.4841    5979.4885    5979.6969       0.2084
    3834.0    4766.6800 1440603.0000    3657.5227     121.9275     122.4289      -0.0209    5955.4508    5955.4298     122.5138          6     146.0725      -0.0799    5981.8546    5981.7746    5978.8195    5978.9971       0.1775
    3835.0    4733.8825 1440603.0000    3657.5227     121.9267     122.4294      -0.0190    5955.4915    5955.4727     122.5143          6     147.0725      -0.0799    5980.3385    5980.2585    5977.5113    5977.6559       0.1448
    3836.0    4692.4775 1440603.0000    3657.5227     121.9247     122.4293      -0.0158    5955.4604    5955.4445     122.5150          6     148.0725      -0.0776    5978.8703    5978.7928    5976.0395    5976.1514       0.1119
    3837.0    4673.0000 1440603.0000    3657.5227     121.9246     122.4283      -0.0142    5955.4763    5955.4621     122.5152          6     149.0725      -0.0739    5978.0511    5977.9773    5975.1596    5975.2405       0.0808
    3838.0    4680.1050 1440603.0000    3657.5227     121.9231     122.4283      -0.0141    5955.5688    5955.5547     122.5154          6     150.0725      -0.0705    5975.5174    5975.4469    5972.7906    5972.8435       0.0530
    3839.0    4778.6125 1440603.0000    3657.5227     121.9202     122.4287      -0.0138    5955.6076    5955.5939     122.5154          6     151.0725      -0.0684    5972.7682    5972.6996    5970.2016    5970.2311       0.0294
    3840.0    4882.1625 1440603.0000    3657.5227     121.9201     122.4283      -0.0133    5955.5088    5955.4956     122.5155          6     152.0725      -0.0671    5970.6812    5970.6143    5968.0581    5968.0683       0.0102
    3841.0    4962.9575 1440603.0000    3657.5227     121.9199     122.4273      -0.0133    5955.4095    5955.3963     122.5156          6     153.0725      -0.0653    5967.6831    5967.6179    5965.0441    5965.0391      -0.0051
    3842.0    4985.8250 1440603.0000    3657.5227     121.9172     122.4275      -0.0136    5955.4069    5955.3932     122.5155          6     154.0725      -0.0616    5966.7056    5966.6439    5964.0821    5964.0650      -0.0170
    3843.0    4950.9675 1440603.0000    3657.5227     121.9150     122.4275      -0.0134    5955.1535    5955.1403     122.5154          6     155.0725      -0.0561    5966.1930    5966.1371    5963.6676    5963.6410      -0.0265
    3844.0    4853.4600 1440603.0000    3657.5227     121.9160     122.4263      -0.0130    5955.1754    5955.1622     122.5150          6     156.0725      -0.0504    5965.7803    5965.7299    5963.3044    5963.2682      -0.0361
    3845.0    4751.9250 1440603.0000    3657.5227     121.9139     122.4267      -0.0136    5955.2539    5955.2402     122.5150          6     157.0725      -0.0698    5965.5859    5965.5160    5963.0419    5962.9544      -0.0876
    3846.0    4685.1150 1440603.0000    3657.5227     121.9133     122.4275      -0.0151    5955.3810    5955.3659     122.5148          6     158.0725      -0.1623    5965.4409    5965.2785    5962.8176    5962.5622      -0.2556
    3847.0    4660.7825 1440603.0000    3657.5227     121.9136     122.4255      -0.0165    5955.4942    5955.4776     122.5146          6     159.0725      -0.3551    5965.2145    5964.8595    5962.6401    5962.0599      -0.5802
    3848.0    4664.5250 1440603.0000    3657.5227     121.9137     122.4272      -0.0173    5955.6173    5955.5999     122.5145          6     160.0725      -0.5955    5965.0409    5964.4453    5962.4748    5961.4876      -0.9871
    3849.0    4754.6700 1440603.0000    3657.5227     121.9121     122.4246      -0.0177    5955.5862    5955.5686     122.5143          6     161.0725      -0.7894    5964.8265    5964.0373    5962.2995    5960.9425      -1.3569
    3850.0    4845.5825 1440603.0000    3657.5227     121.8996     122.4264      -0.0178    5955.4901    5955.4724     122.5103          6     162.0725      -0.8748    5870.8866    5870.0116    5870.5157    5868.8870      -1.6285
    3851.0    4920.8425 1440603.0000    3657.5227     121.8300     122.4252      -0.0176    5955.5967    5955.5791     122.4914          7     163.0725      -0.8454    5465.4373    5464.5918    5469.8349    5468.0368      -1.7980
    3852.0    4969.7825 1440603.0000    3657.5227     121.8139     122.4258      -0.0178    5955.4275    5955.4099     122.4866          7     164.0725      -0.7017    5422.8169    5422.1154    5426.7928    5424.9543      -1.8383
    3853.0    4961.1275 1440603.0000    3657.5227     121.8103     122.4250      -0.0192    5955.2357    5955.2164     122.4829          7     165.0725      -0.4456    5416.5305    5416.0849    5419.7067    5417.9933      -1.7133
    3854.0    4877.6625 1440603.0000    3657.5227     121.8157     122.4237      -0.0214    5955.2822    5955.2609     122.4787          7     166.0725      -0.1419    5420.7779    5420.6361    5422.8122    5421.3257      -1.4865
    3855.0    4764.5475 1440603.0000    3657.5227     121.8232     122.4237      -0.0215    5955.2260    5955.2045     122.4740          7     167.0725       0.1153    5425.3894    5425.5049    5426.5891    5425.3253      -1.2641
    3856.0    4678.6650 1440603.0000    3657.5227     121.8269     122.4242      -0.0185    5955.4264    5955.4081     122.4705          7     168.0725       0.2721    5431.3366    5431.6088    5431.6931    5430.5981      -1.0949
    3857.0    4635.7825 1440603.0000    3657.5227     121.8344     122.4220      -0.0149    5955.5031    5955.4881     122.4668          7     169.0725       0.3481    5434.8283    5435.1763    5434.5720    5433.6264      -0.9456
    3858.0    4638.8725 1440603.0000    3657.5227     121.8394     122.4214      -0.0129    5955.6125    5955.5998     122.4632          7     170.0725       0.3821    5436.9339    5437.3161    5436.1475    5435.3626      -0.7849
    3859.0    4721.9025 1440603.0000    3657.5227     121.8440     122.4222      -0.0119    5955.6750    5955.6629     122.4605          7     171.0725       0.3888    5441.5814    5441.9701    5440.4658    5439.8435      -0.6225
    3860.0    4828.8000 1440603.0000    3657.5227     121.8551     122.4235      -0.0109    5955.5617    5955.5509     122.4595          7     172.0725       0.3737    5481.5252    5481.8989    5479.1679    5478.6970      -0.4708
    3861.0    4905.9725 1440603.0000    3657.5227     121.8664     122.4223      -0.0114    5955.5115    5955.5004     122.4597          7     173.0725       0.3399    5521.0689    5521.4089    5518.2032    5517.8658      -0.3375
    3862.0    4943.7825 1440603.0000    3657.5227     121.8718     122.4216      -0.0146    5955.3798    5955.3653     122.4583          7     174.0725       0.2879    5523.0386    5523.3266    5520.1302    5519.8975      -0.2327
