~VERSION INFORMATION
VERS.           2.0   :CWLS Log ASCII Standard - VERSION 2.0
WRAP.           NO    :One Line per depth step
PROD.  Schlumberger   :LAS Producer
PROG.  DLIS to ASCII 2.2                               :LAS Program name and version
CREA.        2020/10/30 12:18                          :LAS Creation date {YYYY/MM/DD hh:mm}
SOURCE.     XPT_HRLA_TLD_MCFL_057LTP.DLIS              :DLIS File Name
FILE-ID.     XPT_HRLA_TLD_MCFL_057LTP                  :File Identification Number
#--------------------------------------------------
~WELL INFORMATION
#MNEM.UNIT      DATA             DESCRIPTION
#---- ------ --------------   -----------------------------
STRT .S         6912.0       :START TIME      
STOP .S         7441.0       :STOP TIME      
STEP .S            1.0       :STEP     
NULL .          -999.25      :NULL VALUE
COMP .        Nexus Energy                             :COMPANY
WELL .        Crux-3                                   :WELL
FLD  .        Crux                                     :FIELD
LOC  .        Easting: 656981.7mE                      :LOCATION
CNTY .        Sedco-703                                :COUNTY
STAT .        Northern Territory                       :STATE
CTRY .        Australia                                :COUNTRY
API  .                                                 :API NUMBER
UWI  .                                                 :UNIQUE WELL ID
DATE .        31-Dec-2007                              :LOG DATE {DD-MMM-YYYY}
SRVC .        Schlumberger                             :SERVICE COMPANY
LATI .DEG     12*57'32.63" S                           :LATITUDE
LONG .DEG     124*26'50.07" E                          :LONGITUDE
GDAT .                                                 :GeoDetic Datum
#-----------------------------------------------------------------------------
~PARAMETER INFORMATION
#MNEM.UNIT    VALUE                      DESCRIPTION
#---- -----   --------------------       ------------------------
RUN  .          1                        :RUN NUMBER
PDAT .        LAT                        :Permanent Datum
EPD  .M           0.000000               :Elevation of Permanent Datum above Mean Sea Level
EPD  .M           0.000000               :Elevation of tool zero above Mean Sea Level
LMF  .          DF                       :Logging Measured From (Name of Logging Elevation Reference)
APD  .M          26.400000               :Elevation of Depth Reference (LMF) above Permanent Datum
#-----------------------------------------------------------------------------
~CURVE INFORMATION
#MNEM.UNIT   API CODE                                  DESCRIPTION
#---- -----  --------                                  -----------------------
TIME .S                                                :TIME {F10.1}
TENS_SL.LBF                                            :Cable Tension {F13.4}
DEPT_SL..1IN                                           :Station logging depth {F13.4}
PDEP_XPT.M                                             :XPT Probe Depth {F13.4}
MTEP_SAP.DEGC                                          :Sapphire Gauge Manometer Temperature {F13.4}
MTEP_HYD.DEGC                                          :Hydrostatic Sapphire Gauge Manometer Temperature {F13.4}
PCO_HYD.PSI                                            :Hydrostatic Sapphire Dynamic Compensation {F13.4}
PND_HYD.PSI                                            :Hydrostatic Sapphire Pressure Without Dynamic Compensation {F13.4}
CP_HYD.PSI                                             :Hydrostatic Sapphire Pressure With Dynamic Compensation {F13.4}
MTEP_QG.DEGC                                           :CQG Manometer Temperature {F13.4}
PTNO_XPT.                                              :XPT Pretest Number {I11}
ETIM_XPT.S                                             :Elapsed Logging Time {F13.4}
PCO_SAP.PSI                                            :Sapphire Dynamic Compensation {F13.4}
PND_SAP.PSI                                            :Sapphire Pressure Without Dynamic Compensation {F13.4}
CP_SAP.PSI                                             :Sapphire Pressure With Dynamic Compensation {F13.4}
QNDP .PSI                                              :CQG Pressure Without Dynamic Compensation {F13.4}
QCP  .PSI                                              :CQG Pressure With Dynamic Compensation {F13.4}
QPCO .PSI                                              :CQG Dynamic Compensation {F13.4}
#-----------------------------------------------------------------------------
# 
#     TIME      TENS_SL      DEPT_SL      PDEP_XPT     MTEP_SAP     MTEP_HYD     PCO_HYD      PND_HYD       CP_HYD      MTEP_QG       PTNO_XPT       ETIM_XPT     PCO_SAP      PND_SAP       CP_SAP        QNDP         QCP          QPCO
#
~A  
# ...
    7122.0    4961.3385 1526236.0000    3875.0305     129.2243     129.7252      -0.0492    6300.7846    6300.7353     129.9590         19     210.0105      -0.0447    5601.3537    5601.3088    5599.2351    5599.1125      -0.1227
    7123.0    4898.6010 1526236.0000    3875.0305     129.2223     129.7243      -0.0467    6300.7247    6300.6780     129.9587         19     211.0105      -0.0459    5601.2686    5601.2228    5599.2430    5599.1188      -0.1244
    7124.0    4861.7980 1526236.0000    3875.0305     129.2210     129.7235      -0.0459    6300.8985    6300.8526     129.9581         19     212.0105      -0.0475    5601.3623    5601.3150    5599.2370    5599.1112      -0.1257
    7125.0    4936.0655 1526236.0000    3875.0305     129.2195     129.7222      -0.0468    6300.9017    6300.8548     129.9578         19     213.0105      -0.0484    5601.3116    5601.2632    5599.2284    5599.1014      -0.1270
    7126.0    4848.5670 1526236.0000    3875.0305     129.2205     129.7220      -0.0487    6300.9831    6300.9346     129.9575         19     214.0105      -0.0483    5601.2639    5601.2156    5599.2355    5599.1068      -0.1288
    7127.0    4902.0840 1526236.0000    3875.0305     129.2182     129.7205      -0.0505    6300.9198    6300.8692     129.9569         19     215.0105      -0.0484    5601.3373    5601.2890    5599.2298    5599.0996      -0.1304
    7128.0    4910.7140 1526236.0000    3875.0305     129.2180     129.7195      -0.0521    6300.8125    6300.7603     129.9566         19     216.0105      -0.0487    5601.3272    5601.2784    5599.2323    5599.1004      -0.1317
    7129.0    4978.1050 1526236.0000    3875.0305     129.2160     129.7191      -0.0536    6300.8210    6300.7676     129.9562         19     217.0105      -0.0487    5601.3316    5601.2829    5599.2285    5599.0957      -0.1327
    7130.0    4988.1365 1526236.0000    3875.0305     129.2169     129.7185      -0.0550    6300.8203    6300.7652     129.9556         19     218.0105      -0.0475    5601.3048    5601.2573    5599.2317    5599.0981      -0.1337
    7131.0    5001.1260 1526236.0000    3875.0305     129.2142     129.7157      -0.0563    6300.7126    6300.6565     129.9557         19     219.0105      -0.0463    5601.2956    5601.2492    5599.2280    5599.0933      -0.1345
    7132.0    5012.7375 1526236.0000    3875.0305     129.2138     129.7164      -0.0567    6300.7321    6300.6754     129.9549         19     220.0105      -0.0460    5601.3082    5601.2623    5599.2243    5599.0884      -0.1358
    7133.0    4987.5590 1526236.0000    3875.0305     129.2128     129.7144      -0.0568    6300.5857    6300.5291     129.9545         19     221.0105      -0.0467    5601.2534    5601.2067    5599.2250    5599.0878      -0.1373
    7134.0    4945.1810 1526236.0000    3875.0305     129.2130     129.7142      -0.0569    6300.8753    6300.8186     129.9541         19     222.0105      -0.0491    5601.3738    5601.3249    5599.2319    5599.0932      -0.1387
    7135.0    4867.8845 1526236.0000    3875.0305     129.2129     129.7117      -0.0575    6300.7895    6300.7319     129.9536         19     223.0105      -0.0520    5601.3493    5601.2972    5599.2248    5599.0850      -0.1398
    7136.0    4857.3360 1526236.0000    3875.0305     129.2100     129.7109      -0.0584    6300.7298    6300.6714     129.9533         19     224.0105      -0.0543    5601.2284    5601.1742    5599.2261    5599.0856      -0.1406
    7137.0    4888.4330 1526236.0000    3875.0305     129.2119     129.7104      -0.0591    6300.8971    6300.8380     129.9528         19     225.0105      -0.0558    5601.4185    5601.3627    5599.2297    5599.0840      -0.1456
    7138.0    4835.0630 1526236.0000    3875.0305     129.2075     129.7101      -0.0587    6300.9317    6300.8731     129.9522         19     226.0105      -0.0717    5601.1575    5601.0858    5599.2247    5599.0423      -0.1823
    7139.0    4841.1260 1526236.0000    3875.0305     129.2074     129.7073      -0.0561    6300.8633    6300.8072     129.9520         19     227.0105      -0.1268    5601.1814    5601.0546    5599.2187    5598.9312      -0.2875
    7140.0    4853.5565 1526236.0000    3875.0305     129.2064     129.7080      -0.0520    6300.8126    6300.7604     129.9516         19     228.0105      -0.2294    5601.2546    5601.0253    5599.2233    5598.7527      -0.4707
    7141.0    4906.8190 1526236.0000    3875.0305     129.2058     129.7055      -0.0476    6300.8277    6300.7802     129.9509         19     229.0105      -0.3550    5601.2752    5600.9201    5599.2222    5598.5274      -0.6945
    7142.0    4984.2100 1526236.0000    3875.0305     129.2053     129.7058      -0.0447    6300.9072    6300.8626     129.9505         19     230.0105      -0.4610    5601.2257    5600.7646    5599.2193    5598.3153      -0.9039
    7143.0    5003.9055 1526236.0000    3875.0305     129.1863     129.7058      -0.0441    6300.7842    6300.7402     129.9448         19     231.0105      -0.5109    5480.1911    5479.6804    5480.6693    5479.6167      -1.0527
    7144.0    4995.1050 1526236.0000    3875.0305     129.1640     129.7043      -0.0458    6300.8146    6300.7689     129.9381         20     232.0105      -0.4682    5368.6280    5368.1598    5369.6046    5368.5202      -1.0845
    7145.0    5004.6640 1526236.0000    3875.0305     129.1525     129.7035      -0.0483    6300.8010    6300.7528     129.9347         20     233.0105      -0.3124    5325.4482    5325.1359    5326.5677    5325.6070      -0.9607
    7146.0    4972.2650 1526236.0000    3875.0305     129.1461     129.7027      -0.0495    6300.7531    6300.7038     129.9313         20     234.0105      -0.0650    5298.2901    5298.2251    5299.3716    5298.6697      -0.7020
    7147.0    4902.6955 1526236.0000    3875.0305     129.1443     129.7017      -0.0491    6300.7875    6300.7383     129.9274         20     235.0105       0.1992    5281.5312    5281.7302    5282.1862    5281.7879      -0.3982
    7148.0    4874.3570 1526236.0000    3875.0305     129.1525     129.6995      -0.0490    6300.7612    6300.7124     129.9280         20     236.0105       0.4017    5349.0873    5349.4889    5347.8094    5347.6786      -0.1306
    7149.0    4907.8845 1526236.0000    3875.0305     129.1841     129.6997      -0.0499    6300.8710    6300.8212     129.9320         20     237.0105       0.5053    5493.3820    5493.8872    5490.2687    5490.3367       0.0678
    7150.0    4897.3150 1526236.0000    3875.0305     129.1982     129.6986      -0.0511    6300.8306    6300.7796     129.9326         20     238.0105       0.5041    5540.4545    5540.9585    5536.7386    5536.9231       0.1845
    7151.0    4927.2520 1526236.0000    3875.0305     129.2042     129.6992      -0.0529    6300.8544    6300.8014     129.9325         20     239.0105       0.4146    5560.7880    5561.2026    5556.9856    5557.2033       0.2177
    7152.0    4951.1260 1526236.0000    3875.0305     129.2095     129.6970      -0.0570    6300.8109    6300.7537     129.9329         20     240.0105       0.2743    5572.3459    5572.6203    5568.7637    5568.9586       0.1951
    7153.0    4962.7060 1526236.0000    3875.0305     129.2082     129.6957      -0.0622    6300.7989    6300.7368     129.9331         20     241.0105       0.1361    5578.3364    5578.4725    5574.8640    5575.0323       0.1681
    7154.0    4934.3910 1526236.0000    3875.0305     129.2088     129.6952      -0.0644    6300.8181    6300.7536     129.9339         20     242.0105       0.0352    5582.5104    5582.5455    5579.2312    5579.3962       0.1648
    7155.0    4876.6325 1526236.0000    3875.0305     129.2066     129.6936      -0.0617    6300.8369    6300.7754     129.9341         20     243.0105      -0.0257    5585.3895    5585.3637    5582.3036    5582.4785       0.1750
    7156.0    4841.7270 1526236.0000    3875.0305     129.2066     129.6921      -0.0565    6300.7188    6300.6622     129.9351         20     244.0105      -0.0595    5587.2935    5587.2338    5584.2992    5584.4782       0.1790
