~VERSION INFORMATION
VERS.           2.0   :CWLS Log ASCII Standard - VERSION 2.0
WRAP.           NO    :One Line per depth step
PROD.  Schlumberger   :LAS Producer
PROG.  DLIS to ASCII 2.2                               :LAS Program name and version
CREA.        2020/10/30 12:18                          :LAS Creation date {YYYY/MM/DD hh:mm}
SOURCE.     XPT_HRLA_TLD_MCFL_064LTP.DLIS              :DLIS File Name
FILE-ID.     XPT_HRLA_TLD_MCFL_064LTP                  :File Identification Number
#--------------------------------------------------
~WELL INFORMATION
#MNEM.UNIT      DATA             DESCRIPTION
#---- ------ --------------   -----------------------------
STRT .S         1332.0       :START TIME      
STOP .S         1827.0       :STOP TIME      
STEP .S            1.0       :STEP     
NULL .          -999.25      :NULL VALUE
COMP .        Nexus Energy                             :COMPANY
WELL .        Crux-3                                   :WELL
FLD  .        Crux                                     :FIELD
LOC  .        Easting: 656981.7mE                      :LOCATION
CNTY .        Sedco-703                                :COUNTY
STAT .        Northern Territory                       :STATE
CTRY .        Australia                                :COUNTRY
API  .                                                 :API NUMBER
UWI  .                                                 :UNIQUE WELL ID
DATE .        31-Dec-2007                              :LOG DATE {DD-MMM-YYYY}
SRVC .        Schlumberger                             :SERVICE COMPANY
LATI .DEG     12*57'32.63" S                           :LATITUDE
LONG .DEG     124*26'50.07" E                          :LONGITUDE
GDAT .                                                 :GeoDetic Datum
#-----------------------------------------------------------------------------
~PARAMETER INFORMATION
#MNEM.UNIT    VALUE                      DESCRIPTION
#---- -----   --------------------       ------------------------
RUN  .          1                        :RUN NUMBER
PDAT .        LAT                        :Permanent Datum
EPD  .M           0.000000               :Elevation of Permanent Datum above Mean Sea Level
EPD  .M           0.000000               :Elevation of tool zero above Mean Sea Level
LMF  .          DF                       :Logging Measured From (Name of Logging Elevation Reference)
APD  .M          26.400000               :Elevation of Depth Reference (LMF) above Permanent Datum
#-----------------------------------------------------------------------------
~CURVE INFORMATION
#MNEM.UNIT   API CODE                                  DESCRIPTION
#---- -----  --------                                  -----------------------
TIME .S                                                :TIME {F10.1}
TENS_SL.LBF                                            :Cable Tension {F13.4}
DEPT_SL..1IN                                           :Station logging depth {F13.4}
PDEP_XPT.M                                             :XPT Probe Depth {F13.4}
MTEP_SAP.DEGC                                          :Sapphire Gauge Manometer Temperature {F13.4}
MTEP_HYD.DEGC                                          :Hydrostatic Sapphire Gauge Manometer Temperature {F13.4}
PCO_HYD.PSI                                            :Hydrostatic Sapphire Dynamic Compensation {F13.4}
PND_HYD.PSI                                            :Hydrostatic Sapphire Pressure Without Dynamic Compensation {F13.4}
CP_HYD.PSI                                             :Hydrostatic Sapphire Pressure With Dynamic Compensation {F13.4}
MTEP_QG.DEGC                                           :CQG Manometer Temperature {F13.4}
PTNO_XPT.                                              :XPT Pretest Number {I11}
ETIM_XPT.S                                             :Elapsed Logging Time {F13.4}
PCO_SAP.PSI                                            :Sapphire Dynamic Compensation {F13.4}
PND_SAP.PSI                                            :Sapphire Pressure Without Dynamic Compensation {F13.4}
CP_SAP.PSI                                             :Sapphire Pressure With Dynamic Compensation {F13.4}
QNDP .PSI                                              :CQG Pressure Without Dynamic Compensation {F13.4}
QCP  .PSI                                              :CQG Pressure With Dynamic Compensation {F13.4}
QPCO .PSI                                              :CQG Dynamic Compensation {F13.4}
#-----------------------------------------------------------------------------
# 
#     TIME      TENS_SL      DEPT_SL      PDEP_XPT     MTEP_SAP     MTEP_HYD     PCO_HYD      PND_HYD       CP_HYD      MTEP_QG       PTNO_XPT       ETIM_XPT     PCO_SAP      PND_SAP       CP_SAP        QNDP         QCP          QPCO
#
~A  
# ...
    1682.0    4866.5061 1496483.0000    3799.4575     128.1635     128.5753      -0.0921    6181.8857    6181.7935     129.2185         29     350.1646      -0.1031    5573.4140    5573.3107    5572.1137    5571.6626      -0.4510
    1683.0    4863.5061 1496483.0000    3799.4575     128.1630     128.5739      -0.0907    6181.8960    6181.8054     129.2171         29     351.1646      -0.0997    5573.5042    5573.4047    5572.1166    5571.6664      -0.4502
    1684.0    4847.5008 1496483.0000    3799.4575     128.1612     128.5704      -0.0898    6181.9057    6181.8158     129.2155         29     352.1646      -0.0965    5573.4425    5573.3462    5572.1212    5571.6724      -0.4490
    1685.0    4780.9755 1496483.0000    3799.4575     128.1568     128.5715      -0.0895    6181.9949    6181.9056     129.2142         29     353.1646      -0.0959    5573.4467    5573.3509    5572.1298    5571.6815      -0.4483
    1686.0    4784.0858 1496483.0000    3799.4575     128.1574     128.5688      -0.0901    6181.9947    6181.9046     129.2130         29     354.1646      -0.0974    5573.5045    5573.4070    5572.1333    5571.6851      -0.4482
    1687.0    4747.8476 1496483.0000    3799.4575     128.1537     128.5665      -0.0918    6182.0846    6181.9928     129.2113         29     355.1646      -0.0986    5573.4594    5573.3607    5572.1403    5571.6920      -0.4483
    1688.0    4748.5850 1496483.0000    3799.4575     128.1535     128.5663      -0.0932    6182.1494    6182.0562     129.2100         29     356.1646      -0.0985    5573.4693    5573.3708    5572.1424    5571.6936      -0.4486
    1689.0    4790.0666 1496483.0000    3799.4575     128.1503     128.5646      -0.0940    6182.0581    6181.9641     129.2084         29     357.1646      -0.0975    5573.4999    5573.4026    5572.1407    5571.6912      -0.4495
    1690.0    4835.9388 1496483.0000    3799.4575     128.1497     128.5618      -0.0949    6181.9880    6181.8933     129.2068         29     358.1646      -0.0963    5573.5162    5573.4199    5572.1406    5571.6900      -0.4506
    1691.0    4861.4939 1496483.0000    3799.4575     128.1471     128.5601      -0.0947    6181.9873    6181.8927     129.2057         29     359.1646      -0.0949    5573.5786    5573.4839    5572.1416    5571.6904      -0.4512
    1692.0    4853.7932 1496483.0000    3799.4575     128.1460     128.5593      -0.0918    6181.9082    6181.8164     129.2042         29     360.1646      -0.0947    5573.4482    5573.3535    5572.1497    5571.6981      -0.4514
    1693.0    4792.9456 1496483.0000    3799.4575     128.1460     128.5578      -0.0874    6182.0044    6181.9169     129.2027         29     361.1646      -0.0959    5573.5603    5573.4646    5572.1523    5571.7011      -0.4512
    1694.0    4747.9878 1496483.0000    3799.4575     128.1412     128.5540      -0.0851    6181.9033    6181.8183     129.2016         29     362.1646      -0.0979    5573.4795    5573.3817    5572.1588    5571.7077      -0.4510
    1695.0    4753.6585 1496483.0000    3799.4575     128.1421     128.5553      -0.0852    6182.0666    6181.9814     129.2001         29     363.1646      -0.0995    5573.5376    5573.4382    5572.1617    5571.7108      -0.4509
    1696.0    4769.8408 1496483.0000    3799.4575     128.1386     128.5517      -0.0851    6181.9951    6181.9101     129.1984         29     364.1646      -0.1005    5573.4540    5573.3534    5572.1688    5571.7176      -0.4510
    1697.0    4839.6095 1496483.0000    3799.4575     128.1369     128.5509      -0.0844    6182.0431    6181.9587     129.1974         29     365.1646      -0.1014    5573.5102    5573.4086    5572.1676    5571.7165      -0.4511
    1698.0    4857.0735 1496483.0000    3799.4575     128.1349     128.5486      -0.0845    6181.9629    6181.8784     129.1957         29     366.1646      -0.1010    5573.4895    5573.3885    5572.1786    5571.7272      -0.4513
    1699.0    4825.8476 1496483.0000    3799.4575     128.1346     128.5479      -0.0865    6181.8996    6181.8132     129.1946         29     367.1646      -0.0987    5573.6289    5573.5302    5572.1764    5571.7248      -0.4519
    1700.0    4816.8721 1496483.0000    3799.4575     128.1318     128.5469      -0.0879    6181.8754    6181.7875     129.1930         29     368.1646      -0.0951    5573.5061    5573.4111    5572.1802    5571.7277      -0.4524
    1701.0    4789.8055 1496483.0000    3799.4575     128.1301     128.5439      -0.0872    6181.9735    6181.8864     129.1917         29     369.1646      -0.0927    5573.5300    5573.4373    5572.1907    5571.7381      -0.4526
    1702.0    4734.1524 1496483.0000    3799.4575     128.1279     128.5442      -0.0857    6182.0911    6182.0056     129.1902         29     370.1646      -0.0927    5573.5550    5573.4623    5572.1928    5571.7397      -0.4529
    1703.0    4740.3292 1496483.0000    3799.4575     128.1268     128.5404      -0.0847    6181.9012    6181.8163     129.1888         29     371.1646      -0.0939    5573.5461    5573.4522    5572.2000    5571.7469      -0.4532
    1704.0    4738.8721 1496483.0000    3799.4575     128.1244     128.5401      -0.0840    6182.1294    6182.0455     129.1875         29     372.1646      -0.0949    5573.5130    5573.4183    5572.2059    5571.7531      -0.4528
    1705.0    4729.0911 1496483.0000    3799.4575     128.1245     128.5389      -0.0833    6182.1339    6182.0504     129.1861         29     373.1646      -0.0956    5573.6991    5573.6034    5572.2044    5571.7526      -0.4516
    1706.0    4771.0299 1496483.0000    3799.4575     128.1210     128.5368      -0.0845    6182.0311    6181.9465     129.1846         29     374.1646      -0.0963    5573.5919    5573.4957    5572.2060    5571.7555      -0.4505
    1707.0    4831.7741 1496483.0000    3799.4575     128.1207     128.5352      -0.0880    6182.0007    6181.9127     129.1832         29     375.1646      -0.0968    5573.5867    5573.4901    5572.1896    5571.7394      -0.4501
    1708.0    4857.8109 1496483.0000    3799.4575     128.1177     128.5341      -0.0907    6182.0164    6181.9257     129.1814         29     376.1646      -0.0962    5573.4607    5573.3645    5572.1937    5571.7435      -0.4500
    1709.0    4867.3292 1496483.0000    3799.4575     128.1148     128.5333      -0.0893    6181.9677    6181.8786     129.1803         29     377.1646      -0.0944    5573.4683    5573.3738    5572.1993    5571.7496      -0.4496
    1710.0    4864.0612 1496483.0000    3799.4575     128.1149     128.5296      -0.0848    6181.8818    6181.7972     129.1791         29     378.1646      -0.0925    5573.5586    5573.4661    5572.2024    5571.7532      -0.4494
    1711.0    4826.1592 1496483.0000    3799.4575     128.1130     128.5280      -0.0810    6181.8999    6181.8187     129.1777         29     379.1646      -0.0919    5573.4892    5573.3974    5572.2070    5571.7569      -0.4502
    1712.0    4761.4939 1496483.0000    3799.4575     128.1099     128.5268      -0.0791    6181.9590    6181.8800     129.1763         29     380.1646      -0.0926    5573.4858    5573.3930    5572.2162    5571.7650      -0.4514
    1713.0    4757.9089 1496483.0000    3799.4575     128.1097     128.5266      -0.0785    6182.0364    6181.9578     129.1747         29     381.1646      -0.0932    5573.6465    5573.5533    5572.2142    5571.7617      -0.4524
    1714.0    4726.5061 1496483.0000    3799.4575     128.1080     128.5262      -0.0797    6182.1214    6182.0419     129.1732         29     382.1646      -0.0931    5573.5515    5573.4582    5572.2216    5571.7694      -0.4522
    1715.0    4731.7374 1496483.0000    3799.4575     128.1082     128.5243      -0.0839    6182.1637    6182.0798     129.1721         29     383.1646      -0.0938    5573.6099    5573.5161    5572.2263    5571.7742      -0.4521
    1716.0    4783.3469 1496483.0000    3799.4575     128.1035     128.5213      -0.0895    6182.0210    6181.9313     129.1706         29     384.1646      -0.0961    5573.6848    5573.5889    5572.2310    5571.7789      -0.4522
