~VERSION INFORMATION
VERS.           2.0   :CWLS Log ASCII Standard - VERSION 2.0
WRAP.           NO    :One Line per depth step
PROD.  Schlumberger   :LAS Producer
PROG.  DLIS to ASCII 2.2                               :LAS Program name and version
CREA.        2020/10/30 12:18                          :LAS Creation date {YYYY/MM/DD hh:mm}
SOURCE.     XPT_HRLA_TLD_MCFL_048LTP.DLIS              :DLIS File Name
FILE-ID.     XPT_HRLA_TLD_MCFL_048LTP                  :File Identification Number
#--------------------------------------------------
~WELL INFORMATION
#MNEM.UNIT      DATA             DESCRIPTION
#---- ------ --------------   -----------------------------
STRT .S           91.0       :START TIME      
STOP .S          545.0       :STOP TIME      
STEP .S            1.0       :STEP     
NULL .          -999.25      :NULL VALUE
COMP .        Nexus Energy                             :COMPANY
WELL .        Crux-3                                   :WELL
FLD  .        Crux                                     :FIELD
LOC  .        Easting: 656981.7mE                      :LOCATION
CNTY .        Sedco-703                                :COUNTY
STAT .        Northern Territory                       :STATE
CTRY .        Australia                                :COUNTRY
API  .                                                 :API NUMBER
UWI  .                                                 :UNIQUE WELL ID
DATE .        31-Dec-2007                              :LOG DATE {DD-MMM-YYYY}
SRVC .        Schlumberger                             :SERVICE COMPANY
LATI .DEG     12*57'32.63" S                           :LATITUDE
LONG .DEG     124*26'50.07" E                          :LONGITUDE
GDAT .                                                 :GeoDetic Datum
#-----------------------------------------------------------------------------
~PARAMETER INFORMATION
#MNEM.UNIT    VALUE                      DESCRIPTION
#---- -----   --------------------       ------------------------
RUN  .          1                        :RUN NUMBER
PDAT .        LAT                        :Permanent Datum
EPD  .M           0.000000               :Elevation of Permanent Datum above Mean Sea Level
EPD  .M           0.000000               :Elevation of tool zero above Mean Sea Level
LMF  .          DF                       :Logging Measured From (Name of Logging Elevation Reference)
APD  .M          26.400000               :Elevation of Depth Reference (LMF) above Permanent Datum
#-----------------------------------------------------------------------------
~CURVE INFORMATION
#MNEM.UNIT   API CODE                                  DESCRIPTION
#---- -----  --------                                  -----------------------
TIME .S                                                :TIME {F10.1}
TENS_SL.LBF                                            :Cable Tension {F13.4}
DEPT_SL..1IN                                           :Station logging depth {F13.4}
PDEP_XPT.M                                             :XPT Probe Depth {F13.4}
MTEP_SAP.DEGC                                          :Sapphire Gauge Manometer Temperature {F13.4}
MTEP_HYD.DEGC                                          :Hydrostatic Sapphire Gauge Manometer Temperature {F13.4}
PCO_HYD.PSI                                            :Hydrostatic Sapphire Dynamic Compensation {F13.4}
PND_HYD.PSI                                            :Hydrostatic Sapphire Pressure Without Dynamic Compensation {F13.4}
CP_HYD.PSI                                             :Hydrostatic Sapphire Pressure With Dynamic Compensation {F13.4}
MTEP_QG.DEGC                                           :CQG Manometer Temperature {F13.4}
PTNO_XPT.                                              :XPT Pretest Number {I11}
ETIM_XPT.S                                             :Elapsed Logging Time {F13.4}
PCO_SAP.PSI                                            :Sapphire Dynamic Compensation {F13.4}
PND_SAP.PSI                                            :Sapphire Pressure Without Dynamic Compensation {F13.4}
CP_SAP.PSI                                             :Sapphire Pressure With Dynamic Compensation {F13.4}
QNDP .PSI                                              :CQG Pressure Without Dynamic Compensation {F13.4}
QCP  .PSI                                              :CQG Pressure With Dynamic Compensation {F13.4}
QPCO .PSI                                              :CQG Dynamic Compensation {F13.4}
#-----------------------------------------------------------------------------
# 
#     TIME      TENS_SL      DEPT_SL      PDEP_XPT     MTEP_SAP     MTEP_HYD     PCO_HYD      PND_HYD       CP_HYD      MTEP_QG       PTNO_XPT       ETIM_XPT     PCO_SAP      PND_SAP       CP_SAP        QNDP         QCP          QPCO
#
~A  
# ...
     476.0    4667.8700 1445909.0000    3671.0000     122.1425     122.7027       0.0167    5977.9008    5977.9174     122.7088         12     384.8206      -0.0011    5529.6464    5529.6452    5526.9751    5527.0385       0.0635
     477.0    4706.8519 1445909.0000    3671.0000     122.1425     122.7038       0.0162    5977.8201    5977.8362     122.7091         12     385.8206      -0.0020    5529.5732    5529.5712    5526.9698    5527.0328       0.0632
     478.0    4791.4975 1445909.0000    3671.0000     122.1406     122.7031       0.0150    5977.8005    5977.8155     122.7095         12     386.8206      -0.0006    5529.6353    5529.6347    5526.9688    5527.0318       0.0628
     479.0    4801.4350 1445909.0000    3671.0000     122.1414     122.7049       0.0137    5977.8315    5977.8453     122.7098         12     387.8206       0.0017    5529.6967    5529.6985    5526.9660    5527.0286       0.0627
     480.0    4804.9237 1445909.0000    3671.0000     122.1407     122.7025       0.0119    5977.6738    5977.6855     122.7099         12     388.8206       0.0045    5529.6180    5529.6225    5526.9681    5527.0306       0.0625
     481.0    4808.4619 1445909.0000    3671.0000     122.1427     122.7027       0.0100    5977.5571    5977.5672     122.7099         12     389.8206       0.0083    5529.6656    5529.6740    5526.9734    5527.0357       0.0623
     482.0    4808.1794 1445909.0000    3671.0000     122.1424     122.7048       0.0100    5977.7111    5977.7212     122.7100         12     390.8206       0.0130    5529.6396    5529.6525    5526.9760    5527.0380       0.0621
     483.0    4725.1169 1445909.0000    3671.0000     122.1415     122.7039       0.0120    5977.6499    5977.6617     122.7103         12     391.8206       0.0161    5529.6538    5529.6700    5526.9707    5527.0327       0.0621
     484.0    4731.6187 1445909.0000    3671.0000     122.1430     122.7045       0.0137    5977.7912    5977.8048     122.7105         12     392.8206       0.0152    5529.5429    5529.5581    5526.9765    5527.0390       0.0625
     485.0    4695.1481 1445909.0000    3671.0000     122.1421     122.7046       0.0132    5977.8577    5977.8710     122.7108         12     393.8206       0.0139    5529.5734    5529.5874    5526.9745    5527.0397       0.0652
     486.0    4662.2019 1445909.0000    3671.0000     122.1455     122.7042       0.0112    5977.8876    5977.8988     122.7108         12     394.8206       0.0165    5529.8268    5529.8435    5526.9749    5527.0469       0.0722
     487.0    4698.8519 1445909.0000    3671.0000     122.1450     122.7065       0.0101    5977.9074    5977.9175     122.7112         12     395.8206       0.0223    5529.8289    5529.8513    5526.9690    5527.0525       0.0833
     488.0    4729.3363 1445909.0000    3671.0000     122.1434     122.7054       0.0101    5977.8364    5977.8466     122.7114         12     396.8206       0.0283    5529.7016    5529.7299    5526.9721    5527.0716       0.0993
     489.0    4791.4438 1445909.0000    3671.0000     122.1452     122.7046       0.0099    5977.7968    5977.8065     122.7116         12     397.8206       0.0643    5529.7669    5529.8310    5526.9714    5527.1387       0.1671
     490.0    4787.5875 1445909.0000    3671.0000     122.1452     122.7067       0.0103    5977.6825    5977.6927     122.7120         12     398.8206       0.1772    5537.0588    5537.2359    5534.1735    5534.5279       0.3544
     491.0    4769.2288 1445909.0000    3671.0000     122.1482     122.7055       0.0122    5977.5076    5977.5196     122.7129         12     399.8206       0.3650    5548.3414    5548.7065    5545.4236    5546.0817       0.6581
     492.0    4778.3094 1445909.0000    3671.0000     122.1447     122.7065       0.0151    5977.4941    5977.5093     122.7127         12     400.8206       0.5575    5538.9074    5539.4647    5536.1560    5537.1450       0.9892
     493.0    4792.4888 1445909.0000    3671.0000     122.1479     122.7056       0.0173    5977.4982    5977.5155     122.7133         12     401.8206       0.6730    5541.0641    5541.7371    5538.5790    5539.8305       1.2515
     494.0    4787.6144 1445909.0000    3671.0000     122.1830     122.7063       0.0176    5977.5476    5977.5652     122.7251         12     402.8206       0.6962    5811.1172    5811.8132    5802.5043    5803.9394       1.4353
     495.0    4727.7356 1445909.0000    3671.0000     122.2228     122.7077       0.0162    5977.6812    5977.6972     122.7345         12     403.8206       0.6341    5979.7377    5980.3716    5971.6421    5973.1800       1.5381
     496.0    4727.3094 1445909.0000    3671.0000     122.2258     122.7069       0.0140    5977.6729    5977.6868     122.7372         12     404.8206       0.4824    5979.2443    5979.7268    5971.8312    5973.3561       1.5248
     497.0    4699.6369 1445909.0000    3671.0000     122.2250     122.7075       0.0116    5977.7392    5977.7507     122.7405         12     405.8206       0.2529    5978.8762    5979.1292    5972.0340    5973.4180       1.3841
     498.0    4672.4844 1445909.0000    3671.0000     122.2202     122.7077       0.0097    5977.8609    5977.8706     122.7439         12     406.8206       0.0154    5978.3673    5978.3827    5972.2710    5973.4651       1.1942
     499.0    4655.6906 1445909.0000    3671.0000     122.2158     122.7069       0.0085    5977.6729    5977.6812     122.7480         12     407.8206      -0.1474    5977.9048    5977.7574    5972.4736    5973.5219       1.0483
     500.0    4650.5381 1445909.0000    3671.0000     122.2109     122.7083       0.0093    5977.9034    5977.9126     122.7513         12     408.8206      -0.2180    5977.4417    5977.2238    5972.5411    5973.5005       0.9596
     501.0    4683.6456 1445909.0000    3671.0000     122.2072     122.7070       0.0116    5977.8510    5977.8628     122.7542         12     409.8206      -0.2310    5977.1690    5976.9380    5972.6827    5973.5691       0.8864
     502.0    4763.2150 1445909.0000    3671.0000     122.2010     122.7092       0.0138    5977.8760    5977.8898     122.7573         12     410.8206      -0.2266    5976.8468    5976.6202    5972.7492    5973.5458       0.7965
     503.0    4793.7712 1445909.0000    3671.0000     122.1986     122.7079       0.0139    5977.8107    5977.8245     122.7595         12     411.8206      -0.2155    5976.6519    5976.4365    5972.8206    5973.5194       0.6988
     504.0    4812.5919 1445909.0000    3671.0000     122.1936     122.7099       0.0120    5977.7020    5977.7141     122.7619         12     412.8206      -0.2001    5976.3032    5976.1029    5972.7401    5973.3416       0.6014
     505.0    4794.6637 1445909.0000    3671.0000     122.1909     122.7105       0.0098    5977.6513    5977.6611     122.7634         12     413.8206      -0.1828    5976.2801    5976.0972    5972.8565    5973.3657       0.5091
     506.0    4776.8700 1445909.0000    3671.0000     122.1879     122.7092       0.0084    5977.6519    5977.6602     122.7649         12     414.8206      -0.1654    5976.2817    5976.1163    5972.9856    5973.4095       0.4240
     507.0    4775.6412 1445909.0000    3671.0000     122.1836     122.7092       0.0084    5977.6968    5977.7051     122.7660         12     415.8206      -0.1486    5976.1786    5976.0301    5973.0631    5973.4103       0.3472
     508.0    4733.3275 1445909.0000    3671.0000     122.1837     122.7101       0.0096    5977.7064    5977.7159     122.7670         12     416.8206      -0.1311    5976.1809    5976.0498    5973.1024    5973.3808       0.2786
     509.0    4677.2244 1445909.0000    3671.0000     122.1797     122.7092       0.0117    5977.7568    5977.7684     122.7677         12     417.8206      -0.1135    5976.0899    5975.9763    5973.2087    5973.4269       0.2182
     510.0    4664.5381 1445909.0000    3671.0000     122.1776     122.7092       0.0139    5977.7609    5977.7747     122.7683         12     418.8206      -0.0980    5976.2440    5976.1461    5973.3478    5973.5138       0.1659
