~VERSION INFORMATION
VERS.           2.0   :CWLS Log ASCII Standard - VERSION 2.0
WRAP.           NO    :One Line per depth step
PROD.  Schlumberger   :LAS Producer
PROG.  DLIS to ASCII 2.2                               :LAS Program name and version
CREA.        2020/10/30 12:18                          :LAS Creation date {YYYY/MM/DD hh:mm}
SOURCE.     XPT_HRLA_TLD_MCFL_046LTP.DLIS              :DLIS File Name
FILE-ID.     XPT_HRLA_TLD_MCFL_046LTP                  :File Identification Number
#--------------------------------------------------
~WELL INFORMATION
#MNEM.UNIT      DATA             DESCRIPTION
#---- ------ --------------   -----------------------------
STRT .S         4617.0       :START TIME      
STOP .S         5507.0       :STOP TIME      
STEP .S            1.0       :STEP     
NULL .          -999.25      :NULL VALUE
COMP .        Nexus Energy                             :COMPANY
WELL .        Crux-3                                   :WELL
FLD  .        Crux                                     :FIELD
LOC  .        Easting: 656981.7mE                      :LOCATION
CNTY .        Sedco-703                                :COUNTY
STAT .        Northern Territory                       :STATE
CTRY .        Australia                                :COUNTRY
API  .                                                 :API NUMBER
UWI  .                                                 :UNIQUE WELL ID
DATE .        31-Dec-2007                              :LOG DATE {DD-MMM-YYYY}
SRVC .        Schlumberger                             :SERVICE COMPANY
LATI .DEG     12*57'32.63" S                           :LATITUDE
LONG .DEG     124*26'50.07" E                          :LONGITUDE
GDAT .                                                 :GeoDetic Datum
#-----------------------------------------------------------------------------
~PARAMETER INFORMATION
#MNEM.UNIT    VALUE                      DESCRIPTION
#---- -----   --------------------       ------------------------
RUN  .          1                        :RUN NUMBER
PDAT .        LAT                        :Permanent Datum
EPD  .M           0.000000               :Elevation of Permanent Datum above Mean Sea Level
EPD  .M           0.000000               :Elevation of tool zero above Mean Sea Level
LMF  .          DF                       :Logging Measured From (Name of Logging Elevation Reference)
APD  .M          26.400000               :Elevation of Depth Reference (LMF) above Permanent Datum
#-----------------------------------------------------------------------------
~CURVE INFORMATION
#MNEM.UNIT   API CODE                                  DESCRIPTION
#---- -----  --------                                  -----------------------
TIME .S                                                :TIME {F10.1}
TENS_SL.LBF                                            :Cable Tension {F13.4}
DEPT_SL..1IN                                           :Station logging depth {F13.4}
PDEP_XPT.M                                             :XPT Probe Depth {F13.4}
MTEP_SAP.DEGC                                          :Sapphire Gauge Manometer Temperature {F13.4}
MTEP_HYD.DEGC                                          :Hydrostatic Sapphire Gauge Manometer Temperature {F13.4}
PCO_HYD.PSI                                            :Hydrostatic Sapphire Dynamic Compensation {F13.4}
PND_HYD.PSI                                            :Hydrostatic Sapphire Pressure Without Dynamic Compensation {F13.4}
CP_HYD.PSI                                             :Hydrostatic Sapphire Pressure With Dynamic Compensation {F13.4}
MTEP_QG.DEGC                                           :CQG Manometer Temperature {F13.4}
PTNO_XPT.                                              :XPT Pretest Number {I11}
ETIM_XPT.S                                             :Elapsed Logging Time {F13.4}
PCO_SAP.PSI                                            :Sapphire Dynamic Compensation {F13.4}
PND_SAP.PSI                                            :Sapphire Pressure Without Dynamic Compensation {F13.4}
CP_SAP.PSI                                             :Sapphire Pressure With Dynamic Compensation {F13.4}
QNDP .PSI                                              :CQG Pressure Without Dynamic Compensation {F13.4}
QCP  .PSI                                              :CQG Pressure With Dynamic Compensation {F13.4}
QPCO .PSI                                              :CQG Dynamic Compensation {F13.4}
#-----------------------------------------------------------------------------
# 
#     TIME      TENS_SL      DEPT_SL      PDEP_XPT     MTEP_SAP     MTEP_HYD     PCO_HYD      PND_HYD       CP_HYD      MTEP_QG       PTNO_XPT       ETIM_XPT     PCO_SAP      PND_SAP       CP_SAP        QNDP         QCP          QPCO
#
~A  
# ...
    5457.0    4719.3820 1443523.0000    3664.9392     121.9398     122.4984       0.0038    5967.8449    5967.8489     122.5685         10     839.6870      -0.0234    5965.9606    5965.9371    5963.4218    5963.3462      -0.0754
    5458.0    4697.1380 1443523.0000    3664.9392     121.9395     122.4989       0.0027    5967.8544    5967.8570     122.5683         10     840.6870      -0.0200    5966.0716    5966.0517    5963.5002    5963.4176      -0.0825
    5459.0    4697.2440 1443523.0000    3664.9392     121.9395     122.4999       0.0046    5967.8643    5967.8690     122.5680         10     841.6870      -0.0179    5966.0480    5966.0303    5963.4920    5963.4037      -0.0884
    5460.0    4692.7560 1443523.0000    3664.9392     121.9386     122.4991       0.0064    5967.9159    5967.9222     122.5677         10     842.6870      -0.0179    5965.9804    5965.9623    5963.4895    5963.3968      -0.0926
    5461.0    4765.9440 1443523.0000    3664.9392     121.9392     122.4983       0.0062    5967.8251    5967.8313     122.5673         10     843.6870      -0.0194    5965.9486    5965.9291    5963.4077    5963.3122      -0.0956
    5462.0    4818.1750 1443523.0000    3664.9392     121.9379     122.4994       0.0054    5967.7583    5967.7637     122.5672         10     844.6870      -0.0201    5965.9546    5965.9346    5963.4025    5963.3047      -0.0978
    5463.0    4833.5570 1443523.0000    3664.9392     121.9369     122.4995       0.0064    5967.7433    5967.7496     122.5667         10     845.6870      -0.0181    5965.8151    5965.7970    5963.3212    5963.2216      -0.0995
    5464.0    4822.5730 1443523.0000    3664.9392     121.9359     122.4992       0.0096    5967.6304    5967.6399     122.5665         10     846.6870      -0.0139    5965.7787    5965.7648    5963.3048    5963.2048      -0.1001
    5465.0    4807.7560 1443523.0000    3664.9392     121.9363     122.4996       0.0133    5967.6411    5967.6544     122.5660         10     847.6870      -0.0099    5965.8576    5965.8478    5963.3272    5963.2279      -0.0994
    5466.0    4753.1620 1443523.0000    3664.9392     121.9361     122.4987       0.0154    5967.6416    5967.6572     122.5656         10     848.6870      -0.0061    5965.8993    5965.8934    5963.3756    5963.2775      -0.0982
    5467.0    4721.7560 1443523.0000    3664.9392     121.9372     122.4990       0.0156    5967.7701    5967.7858     122.5654         10     849.6870      -0.0019    5965.9265    5965.9245    5963.4105    5963.3135      -0.0970
    5468.0    4696.7030 1443523.0000    3664.9392     121.9368     122.5001       0.0145    5967.7847    5967.7994     122.5651         10     850.6870       0.0014    5965.9955    5965.9968    5963.4416    5963.3457      -0.0959
    5469.0    4723.4110 1443523.0000    3664.9392     121.9365     122.5018       0.0131    5967.8848    5967.8980     122.5649         10     851.6870       0.0026    5966.0451    5966.0475    5963.4806    5963.3859      -0.0946
    5470.0    4742.7480 1443523.0000    3664.9392     121.9363     122.5008       0.0118    5967.8148    5967.8263     122.5644         10     852.6870       0.0023    5965.9928    5965.9952    5963.4806    5963.3877      -0.0928
    5471.0    4801.0210 1443523.0000    3664.9392     121.9374     122.5009       0.0104    5967.9348    5967.9452     122.5642         10     853.6870       0.0026    5966.0126    5966.0151    5963.4660    5963.3750      -0.0909
    5472.0    4835.9310 1443523.0000    3664.9392     121.9361     122.4999       0.0090    5967.8049    5967.8137     122.5639         10     854.6870       0.0036    5965.8146    5965.8180    5963.3480    5963.2591      -0.0890
    5473.0    4857.8620 1443523.0000    3664.9392     121.9367     122.5001       0.0084    5967.7088    5967.7173     122.5635         10     855.6870       0.0036    5965.8338    5965.8376    5963.2838    5963.1967      -0.0871
    5474.0    4861.8780 1443523.0000    3664.9392     121.9375     122.5023       0.0106    5967.6883    5967.6987     122.5635         10     856.6870       0.0029    5965.8208    5965.8237    5963.3112    5963.2264      -0.0847
    5475.0    4825.6500 1443523.0000    3664.9392     121.9363     122.5021       0.0140    5967.7686    5967.7827     122.5631         10     857.6870       0.0021    5965.8488    5965.8507    5963.3249    5963.2428      -0.0823
    5476.0    4754.3530 1443523.0000    3664.9392     121.9370     122.5016       0.0153    5967.7035    5967.7186     122.5629         10     858.6870       0.0016    5965.8200    5965.8215    5963.3091    5963.2290      -0.0802
    5477.0    4735.8700 1443523.0000    3664.9392     121.9366     122.5010       0.0132    5967.7945    5967.8075     122.5627         10     859.6870       0.0009    5965.9156    5965.9166    5963.4049    5963.3263      -0.0786
    5478.0    4763.0450 1443523.0000    3664.9392     121.9356     122.5035       0.0114    5967.8994    5967.9106     122.5622         10     860.6870       0.0003    5966.0536    5966.0541    5963.4816    5963.4044      -0.0771
    5479.0    4757.5120 1443523.0000    3664.9392     121.9365     122.5034       0.0124    5967.9395    5967.9518     122.5621         10     861.6870       0.0007    5966.0482    5966.0489    5963.4709    5963.3954      -0.0756
    5480.0    4752.0610 1443523.0000    3664.9392     121.9383     122.5030       0.0141    5967.8005    5967.8146     122.5619         10     862.6870       0.0022    5966.0142    5966.0165    5963.4053    5963.3314      -0.0739
    5481.0    4796.9680 1443523.0000    3664.9392     121.9372     122.5035       0.0140    5967.8432    5967.8574     122.5617         10     863.6870       0.0033    5965.8771    5965.8805    5963.3742    5963.3019      -0.0721
    5482.0    4828.6790 1443523.0000    3664.9392     121.9367     122.5029       0.0129    5967.7764    5967.7894     122.5613         10     864.6870       0.0033    5965.8846    5965.8878    5963.3458    5963.2757      -0.0703
    5483.0    4830.5650 1443523.0000    3664.9392     121.9379     122.5036       0.0132    5967.7842    5967.7974     122.5613         10     865.6870       0.0028    5965.8985    5965.9014    5963.2903    5963.2221      -0.0683
    5484.0    4829.0000 1443523.0000    3664.9392     121.9384     122.5037       0.0141    5967.7819    5967.7961     122.5609         10     866.6870       0.0030    5965.8696    5965.8726    5963.2877    5963.2213      -0.0665
    5485.0    4837.2440 1443523.0000    3664.9392     121.9372     122.5031       0.0145    5967.7191    5967.7336     122.5607         10     867.6870       0.0043    5965.8858    5965.8903    5963.3039    5963.2396      -0.0645
    5486.0    4833.4430 1443523.0000    3664.9392     121.9382     122.5044       0.0139    5967.7324    5967.7463     122.5605         10     868.6870       0.0060    5965.8898    5965.8960    5963.2985    5963.2363      -0.0623
    5487.0    4800.4590 1443523.0000    3664.9392     121.9384     122.5037       0.0132    5967.6675    5967.6807     122.5604         10     869.6870       0.0067    5965.8334    5965.8403    5963.3189    5963.2593      -0.0598
    5488.0    4755.3980 1443523.0000    3664.9392     121.9360     122.5049       0.0118    5967.7892    5967.8008     122.5599         10     870.6870       0.0064    5965.9081    5965.9145    5963.3417    5963.2842      -0.0575
    5489.0    4738.2520 1443523.0000    3664.9392     121.9395     122.5052       0.0096    5967.7814    5967.7909     122.5600         10     871.6870       0.0070    5965.9469    5965.9541    5963.3750    5963.3192      -0.0559
    5490.0    4763.7930 1443523.0000    3664.9392     121.9375     122.5054       0.0088    5967.9388    5967.9476     122.5597         10     872.6870       0.0079    5966.0377    5966.0455    5963.4491    5963.3940      -0.0550
    5491.0    4786.3050 1443523.0000    3664.9392     121.9364     122.5058       0.0095    5967.8665    5967.8760     122.5597         10     873.6870       0.0068    5965.9420    5965.9486    5963.4196    5963.3654      -0.0541
