~VERSION INFORMATION
VERS.           2.0   :CWLS Log ASCII Standard - VERSION 2.0
WRAP.           NO    :One Line per depth step
PROD.  Schlumberger   :LAS Producer
PROG.  DLIS to ASCII 2.2                               :LAS Program name and version
CREA.        2020/10/30 12:18                          :LAS Creation date {YYYY/MM/DD hh:mm}
SOURCE.     XPT_HRLA_TLD_MCFL_040LTP.DLIS              :DLIS File Name
FILE-ID.     XPT_HRLA_TLD_MCFL_040LTP                  :File Identification Number
#--------------------------------------------------
~WELL INFORMATION
#MNEM.UNIT      DATA             DESCRIPTION
#---- ------ --------------   -----------------------------
STRT .S          916.0       :START TIME      
STOP .S         1395.0       :STOP TIME      
STEP .S            1.0       :STEP     
NULL .          -999.25      :NULL VALUE
COMP .        Nexus Energy                             :COMPANY
WELL .        Crux-3                                   :WELL
FLD  .        Crux                                     :FIELD
LOC  .        Easting: 656981.7mE                      :LOCATION
CNTY .        Sedco-703                                :COUNTY
STAT .        Northern Territory                       :STATE
CTRY .        Australia                                :COUNTRY
API  .                                                 :API NUMBER
UWI  .                                                 :UNIQUE WELL ID
DATE .        31-Dec-2007                              :LOG DATE {DD-MMM-YYYY}
SRVC .        Schlumberger                             :SERVICE COMPANY
LATI .DEG     12*57'32.63" S                           :LATITUDE
LONG .DEG     124*26'50.07" E                          :LONGITUDE
GDAT .                                                 :GeoDetic Datum
#-----------------------------------------------------------------------------
~PARAMETER INFORMATION
#MNEM.UNIT    VALUE                      DESCRIPTION
#---- -----   --------------------       ------------------------
RUN  .          1                        :RUN NUMBER
PDAT .        LAT                        :Permanent Datum
EPD  .M           0.000000               :Elevation of Permanent Datum above Mean Sea Level
EPD  .M           0.000000               :Elevation of tool zero above Mean Sea Level
LMF  .          DF                       :Logging Measured From (Name of Logging Elevation Reference)
APD  .M          26.400000               :Elevation of Depth Reference (LMF) above Permanent Datum
#-----------------------------------------------------------------------------
~CURVE INFORMATION
#MNEM.UNIT   API CODE                                  DESCRIPTION
#---- -----  --------                                  -----------------------
TIME .S                                                :TIME {F10.1}
TENS_SL.LBF                                            :Cable Tension {F13.4}
DEPT_SL..1IN                                           :Station logging depth {F13.4}
PDEP_XPT.M                                             :XPT Probe Depth {F13.4}
MTEP_SAP.DEGC                                          :Sapphire Gauge Manometer Temperature {F13.4}
MTEP_HYD.DEGC                                          :Hydrostatic Sapphire Gauge Manometer Temperature {F13.4}
PCO_HYD.PSI                                            :Hydrostatic Sapphire Dynamic Compensation {F13.4}
PND_HYD.PSI                                            :Hydrostatic Sapphire Pressure Without Dynamic Compensation {F13.4}
CP_HYD.PSI                                             :Hydrostatic Sapphire Pressure With Dynamic Compensation {F13.4}
MTEP_QG.DEGC                                           :CQG Manometer Temperature {F13.4}
PTNO_XPT.                                              :XPT Pretest Number {I11}
ETIM_XPT.S                                             :Elapsed Logging Time {F13.4}
PCO_SAP.PSI                                            :Sapphire Dynamic Compensation {F13.4}
PND_SAP.PSI                                            :Sapphire Pressure Without Dynamic Compensation {F13.4}
CP_SAP.PSI                                             :Sapphire Pressure With Dynamic Compensation {F13.4}
QNDP .PSI                                              :CQG Pressure Without Dynamic Compensation {F13.4}
QCP  .PSI                                              :CQG Pressure With Dynamic Compensation {F13.4}
QPCO .PSI                                              :CQG Dynamic Compensation {F13.4}
#-----------------------------------------------------------------------------
# 
#     TIME      TENS_SL      DEPT_SL      PDEP_XPT     MTEP_SAP     MTEP_HYD     PCO_HYD      PND_HYD       CP_HYD      MTEP_QG       PTNO_XPT       ETIM_XPT     PCO_SAP      PND_SAP       CP_SAP        QNDP         QCP          QPCO
#
~A  
# ...
    1091.0    4695.7738 1419728.0000    3604.5000     119.1273     119.6968       0.0054    5871.5517    5871.5572     119.6714          5     174.8453       0.0276    5506.3163    5506.3439    5503.5946    5503.7422       0.1478
    1092.0    4672.1782 1419728.0000    3604.5000     119.1283     119.6955       0.0039    5871.6031    5871.6070     119.6719          5     175.8453       0.0292    5506.3077    5506.3369    5503.5932    5503.7391       0.1460
    1093.0    4668.8453 1419728.0000    3604.5000     119.1314     119.6947       0.0026    5871.5947    5871.5972     119.6723          5     176.8453       0.0260    5506.5846    5506.6108    5503.5934    5503.7376       0.1443
    1094.0    4703.6552 1419728.0000    3604.5000     119.1332     119.6949       0.0020    5871.5373    5871.5392     119.6729          5     177.8453       0.0196    5506.8236    5506.8431    5503.5946    5503.7373       0.1425
    1095.0    4758.1793 1419728.0000    3604.5000     119.1340     119.6955       0.0032    5871.4936    5871.4966     119.6733          5     178.8453       0.0092    5506.8653    5506.8745    5503.5873    5503.7279       0.1407
    1096.0    4760.2380 1419728.0000    3604.5000     119.1330     119.6969       0.0060    5871.5586    5871.5644     119.6737          5     179.8453      -0.0032    5506.6439    5506.6407    5503.5831    5503.7220       0.1388
    1097.0    4750.5475 1419728.0000    3604.5000     119.1316     119.6962       0.0088    5871.5508    5871.5595     119.6743          5     180.8453      -0.0104    5506.5647    5506.5541    5503.5818    5503.7191       0.1375
    1098.0    4771.8218 1419728.0000    3604.5000     119.1312     119.6961       0.0096    5871.4309    5871.4406     119.6745          5     181.8453      -0.0074    5506.5255    5506.5180    5503.5731    5503.7097       0.1365
    1099.0    4717.6777 1419728.0000    3604.5000     119.1307     119.6968       0.0096    5871.4971    5871.5067     119.6751          5     182.8453       0.0038    5506.4891    5506.4930    5503.5743    5503.7098       0.1354
    1100.0    4676.5710 1419728.0000    3604.5000     119.1300     119.6965       0.0099    5871.5540    5871.5637     119.6754          5     183.8453       0.0161    5506.3799    5506.3959    5503.5737    5503.7076       0.1339
    1101.0    4666.7738 1419728.0000    3604.5000     119.1302     119.6976       0.0096    5871.6068    5871.6165     119.6758          5     184.8453       0.0240    5506.4680    5506.4921    5503.5721    5503.7045       0.1325
    1102.0    4673.6073 1419728.0000    3604.5000     119.1323     119.6971       0.0078    5871.5605    5871.5683     119.6762          5     185.8453       0.0248    5506.6221    5506.6468    5503.5733    5503.7049       0.1317
    1103.0    4682.6073 1419728.0000    3604.5000     119.1343     119.6962       0.0053    5871.6347    5871.6402     119.6768          5     186.8453       0.0190    5506.7958    5506.8148    5503.5680    5503.6985       0.1307
    1104.0    4736.4055 1419728.0000    3604.5000     119.1323     119.6988       0.0040    5871.6120    5871.6158     119.6770          5     187.8453       0.0100    5506.6852    5506.6951    5503.5697    5503.6990       0.1292
    1105.0    4744.3095 1419728.0000    3604.5000     119.1344     119.6966       0.0026    5871.5260    5871.5287     119.6776          5     188.8453       0.0040    5506.6416    5506.6455    5503.5650    5503.6922       0.1271
    1106.0    4762.5955 1419728.0000    3604.5000     119.1337     119.6966       0.0002    5871.4715    5871.4717     119.6780          5     189.8453       0.0032    5506.5263    5506.5297    5503.5638    5503.6890       0.1253
    1107.0    4761.7738 1419728.0000    3604.5000     119.1320     119.6977      -0.0019    5871.4478    5871.4458     119.6783          5     190.8453       0.0033    5506.3147    5506.3180    5503.5644    5503.6883       0.1239
    1108.0    4751.7023 1419728.0000    3604.5000     119.1315     119.6981      -0.0024    5871.4515    5871.4491     119.6789          5     191.8453       0.0019    5506.3607    5506.3624    5503.5660    5503.6884       0.1224
    1109.0    4721.2615 1419728.0000    3604.5000     119.1336     119.6969      -0.0022    5871.4291    5871.4266     119.6793          5     192.8453       0.0030    5506.5309    5506.5341    5503.5652    5503.6859       0.1206
    1110.0    4688.9520 1419728.0000    3604.5000     119.1349     119.6956      -0.0019    5871.5119    5871.5100     119.6798          5     193.8453       0.0079    5506.7243    5506.7323    5503.5681    5503.6877       0.1195
    1111.0    4656.1067 1419728.0000    3604.5000     119.1342     119.6977       0.0001    5871.5685    5871.5685     119.6800          5     194.8453       0.0102    5506.4182    5506.4285    5503.5642    5503.6834       0.1191
    1112.0    4656.0715 1419728.0000    3604.5000     119.1320     119.6969       0.0030    5871.5695    5871.5727     119.6805          5     195.8453       0.0073    5506.2149    5506.2224    5503.5669    5503.6861       0.1189
    1113.0    4650.2380 1419728.0000    3604.5000     119.1330     119.6973       0.0045    5871.6384    5871.6428     119.6808          5     196.8453       0.0044    5506.4461    5506.4505    5503.5674    5503.6860       0.1184
    1114.0    4697.1793 1419728.0000    3604.5000     119.1355     119.6977       0.0038    5871.6104    5871.6140     119.6812          5     197.8453       0.0058    5506.6197    5506.6256    5503.5650    5503.6820       0.1171
    1115.0    4739.8100 1419728.0000    3604.5000     119.1322     119.6977       0.0032    5871.5074    5871.5107     119.6817          5     198.8453       0.0081    5506.2793    5506.2875    5503.5587    5503.6745       0.1157
    1116.0    4759.5240 1419728.0000    3604.5000     119.1333     119.6977       0.0044    5871.5917    5871.5962     119.6819          5     199.8453       0.0080    5506.2861    5506.2939    5503.5637    5503.6783       0.1145
    1117.0    4757.7738 1419728.0000    3604.5000     119.1361     119.6971       0.0061    5871.5164    5871.5225     119.6825          5     200.8453       0.0087    5506.6706    5506.6792    5503.5602    5503.6737       0.1133
    1118.0    4691.9158 1419728.0000    3604.5000     119.1348     119.6969       0.0070    5871.3948    5871.4016     119.6826          5     201.8453       0.0118    5506.2370    5506.2490    5503.5634    5503.6757       0.1122
    1119.0    4670.7023 1419728.0000    3604.5000     119.1339     119.6977       0.0076    5871.4503    5871.4577     119.6831          5     202.8453       0.0155    5506.3546    5506.3703    5503.5581    5503.6694       0.1113
    1120.0    4652.0950 1419728.0000    3604.5000     119.1366     119.6985       0.0082    5871.6934    5871.7017     119.6835          5     203.8453       0.0173    5506.6928    5506.7102    5503.5600    5503.6709       0.1109
    1121.0    4634.6308 1419728.0000    3604.5000     119.1347     119.6991       0.0080    5871.5815    5871.5894     119.6835          5     204.8453       0.0170    5506.1975    5506.2145    5503.5594    5503.6698       0.1102
    1122.0    4703.0010 1419728.0000    3604.5000     119.1364     119.6984       0.0061    5871.5144    5871.5206     119.6839          5     205.8453       0.0149    5506.6016    5506.6166    5503.5632    5503.6720       0.1089
    1123.0    4737.1313 1419728.0000    3604.5000     119.1375     119.6985       0.0035    5871.6338    5871.6372     119.6846          5     206.8453       0.0111    5506.4038    5506.4148    5503.5614    5503.6691       0.1077
    1124.0    4779.8815 1419728.0000    3604.5000     119.1351     119.6984       0.0022    5871.5705    5871.5726     119.6850          5     207.8453       0.0063    5506.2912    5506.2973    5503.5558    5503.6629       0.1071
    1125.0    4787.8453 1419728.0000    3604.5000     119.1382     119.6978       0.0032    5871.3830    5871.3861     119.6849          5     208.8453       0.0025    5506.5468    5506.5492    5503.5540    5503.6603       0.1063
