~VERSION INFORMATION
VERS.           2.0   :CWLS Log ASCII Standard - VERSION 2.0
WRAP.           NO    :One Line per depth step
PROD.  Schlumberger   :LAS Producer
PROG.  DLIS to ASCII 2.2                               :LAS Program name and version
CREA.        2020/10/30 12:18                          :LAS Creation date {YYYY/MM/DD hh:mm}
SOURCE.     XPT_HRLA_TLD_MCFL_064LTP.DLIS              :DLIS File Name
FILE-ID.     XPT_HRLA_TLD_MCFL_064LTP                  :File Identification Number
#--------------------------------------------------
~WELL INFORMATION
#MNEM.UNIT      DATA             DESCRIPTION
#---- ------ --------------   -----------------------------
STRT .S         1332.0       :START TIME      
STOP .S         1827.0       :STOP TIME      
STEP .S            1.0       :STEP     
NULL .          -999.25      :NULL VALUE
COMP .        Nexus Energy                             :COMPANY
WELL .        Crux-3                                   :WELL
FLD  .        Crux                                     :FIELD
LOC  .        Easting: 656981.7mE                      :LOCATION
CNTY .        Sedco-703                                :COUNTY
STAT .        Northern Territory                       :STATE
CTRY .        Australia                                :COUNTRY
API  .                                                 :API NUMBER
UWI  .                                                 :UNIQUE WELL ID
DATE .        31-Dec-2007                              :LOG DATE {DD-MMM-YYYY}
SRVC .        Schlumberger                             :SERVICE COMPANY
LATI .DEG     12*57'32.63" S                           :LATITUDE
LONG .DEG     124*26'50.07" E                          :LONGITUDE
GDAT .                                                 :GeoDetic Datum
#-----------------------------------------------------------------------------
~PARAMETER INFORMATION
#MNEM.UNIT    VALUE                      DESCRIPTION
#---- -----   --------------------       ------------------------
RUN  .          1                        :RUN NUMBER
PDAT .        LAT                        :Permanent Datum
EPD  .M           0.000000               :Elevation of Permanent Datum above Mean Sea Level
EPD  .M           0.000000               :Elevation of tool zero above Mean Sea Level
LMF  .          DF                       :Logging Measured From (Name of Logging Elevation Reference)
APD  .M          26.400000               :Elevation of Depth Reference (LMF) above Permanent Datum
#-----------------------------------------------------------------------------
~CURVE INFORMATION
#MNEM.UNIT   API CODE                                  DESCRIPTION
#---- -----  --------                                  -----------------------
TIME .S                                                :TIME {F10.1}
TENS_SL.LBF                                            :Cable Tension {F13.4}
DEPT_SL..1IN                                           :Station logging depth {F13.4}
PDEP_XPT.M                                             :XPT Probe Depth {F13.4}
MTEP_SAP.DEGC                                          :Sapphire Gauge Manometer Temperature {F13.4}
MTEP_HYD.DEGC                                          :Hydrostatic Sapphire Gauge Manometer Temperature {F13.4}
PCO_HYD.PSI                                            :Hydrostatic Sapphire Dynamic Compensation {F13.4}
PND_HYD.PSI                                            :Hydrostatic Sapphire Pressure Without Dynamic Compensation {F13.4}
CP_HYD.PSI                                             :Hydrostatic Sapphire Pressure With Dynamic Compensation {F13.4}
MTEP_QG.DEGC                                           :CQG Manometer Temperature {F13.4}
PTNO_XPT.                                              :XPT Pretest Number {I11}
ETIM_XPT.S                                             :Elapsed Logging Time {F13.4}
PCO_SAP.PSI                                            :Sapphire Dynamic Compensation {F13.4}
PND_SAP.PSI                                            :Sapphire Pressure Without Dynamic Compensation {F13.4}
CP_SAP.PSI                                             :Sapphire Pressure With Dynamic Compensation {F13.4}
QNDP .PSI                                              :CQG Pressure Without Dynamic Compensation {F13.4}
QCP  .PSI                                              :CQG Pressure With Dynamic Compensation {F13.4}
QPCO .PSI                                              :CQG Dynamic Compensation {F13.4}
#-----------------------------------------------------------------------------
# 
#     TIME      TENS_SL      DEPT_SL      PDEP_XPT     MTEP_SAP     MTEP_HYD     PCO_HYD      PND_HYD       CP_HYD      MTEP_QG       PTNO_XPT       ETIM_XPT     PCO_SAP      PND_SAP       CP_SAP        QNDP         QCP          QPCO
#
~A  
# ...
    1752.0    4743.0490 1496483.0000    3799.4575     128.0447     128.4687      -0.0772    6182.0294    6181.9522     129.1197         29     420.1646      -0.0912    5573.7232    5573.6321    5572.3049    5571.8556      -0.4492
    1753.0    4731.3959 1496483.0000    3799.4575     128.0424     128.4702      -0.0779    6182.0932    6182.0150     129.1181         29     421.1646      -0.0923    5573.7740    5573.6817    5572.3047    5571.8564      -0.4484
    1754.0    4788.3224 1496483.0000    3799.4575     128.0409     128.4673      -0.0754    6182.0654    6181.9900     129.1172         29     422.1646      -0.0924    5573.7675    5573.6752    5572.3086    5571.8608      -0.4478
    1755.0    4860.3415 1496483.0000    3799.4575     128.0380     128.4656      -0.0720    6181.9795    6181.9076     129.1157         29     423.1646      -0.0909    5573.6669    5573.5758    5572.3098    5571.8626      -0.4471
    1756.0    4852.7198 1496483.0000    3799.4575     128.0368     128.4649      -0.0693    6182.0905    6182.0211     129.1143         29     424.1646      -0.0894    5573.6877    5573.5983    5572.3078    5571.8611      -0.4466
    1757.0    4829.3538 1496483.0000    3799.4575     128.0373     128.4654      -0.0677    6182.0394    6181.9717     129.1125         29     425.1646      -0.0896    5573.7151    5573.6256    5572.3142    5571.8674      -0.4466
    1758.0    4821.8231 1496483.0000    3799.4575     128.0342     128.4606      -0.0677    6181.8959    6181.8282     129.1114         29     426.1646      -0.0918    5573.7531    5573.6613    5572.3181    5571.8711      -0.4472
    1759.0    4813.3239 1496483.0000    3799.4575     128.0338     128.4619      -0.0697    6182.0653    6181.9956     129.1102         29     427.1646      -0.0946    5573.7477    5573.6531    5572.3210    5571.8733      -0.4479
    1760.0    4758.0544 1496483.0000    3799.4575     128.0307     128.4592      -0.0721    6182.0536    6181.9816     129.1085         29     428.1646      -0.0974    5573.6618    5573.5645    5572.3248    5571.8761      -0.4486
    1761.0    4803.5061 1496483.0000    3799.4575     128.0282     128.4585      -0.0736    6182.1422    6182.0687     129.1073         29     429.1646      -0.0985    5573.7027    5573.6041    5572.3259    5571.8772      -0.4486
    1762.0    4794.4150 1496483.0000    3799.4575     128.0264     128.4589      -0.0740    6182.2183    6182.1441     129.1059         29     430.1646      -0.0964    5573.6634    5573.5671    5572.3313    5571.8830      -0.4481
    1763.0    4762.3170 1496483.0000    3799.4575     128.0258     128.4554      -0.0747    6182.2150    6182.1401     129.1043         29     431.1646      -0.0914    5573.7021    5573.6108    5572.3331    5571.8857      -0.4475
    1764.0    4767.3538 1496483.0000    3799.4575     128.0239     128.4546      -0.0759    6182.1716    6182.0956     129.1029         29     432.1646      -0.0864    5573.7308    5573.6445    5572.3366    5571.8888      -0.4475
    1765.0    4766.4081 1496483.0000    3799.4575     128.0219     128.4537      -0.0770    6182.1359    6182.0588     129.1015         29     433.1646      -0.0839    5573.6573    5573.5733    5572.3335    5571.8857      -0.4476
    1766.0    4812.7251 1496483.0000    3799.4575     128.0214     128.4523      -0.0779    6182.0881    6182.0104     129.0997         29     434.1646      -0.0829    5573.7660    5573.6831    5572.3349    5571.8876      -0.4473
    1767.0    4859.1401 1496483.0000    3799.4575     128.0188     128.4512      -0.0785    6182.1589    6182.0803     129.0989         29     435.1646      -0.0821    5573.6564    5573.5741    5572.3394    5571.8922      -0.4471
    1768.0    4864.2381 1496483.0000    3799.4575     128.0187     128.4491      -0.0783    6182.0204    6181.9422     129.0973         29     436.1646      -0.0817    5573.8374    5573.7559    5572.3458    5571.8985      -0.4472
    1769.0    4832.6952 1496483.0000    3799.4575     128.0159     128.4461      -0.0767    6181.9125    6181.8355     129.0960         29     437.1646      -0.0829    5573.7070    5573.6244    5572.3382    5571.8909      -0.4474
    1770.0    4817.8721 1496483.0000    3799.4575     128.0155     128.4462      -0.0740    6181.9693    6181.8951     129.0946         29     438.1646      -0.0840    5573.7067    5573.6228    5572.3439    5571.8969      -0.4470
    1771.0    4793.4395 1496483.0000    3799.4575     128.0128     128.4445      -0.0710    6181.9710    6181.9001     129.0931         29     439.1646      -0.0841    5573.6606    5573.5766    5572.3502    5571.9034      -0.4466
    1772.0    4754.2802 1496483.0000    3799.4575     128.0116     128.4438      -0.0696    6182.0347    6181.9649     129.0915         29     440.1646      -0.0841    5573.6626    5573.5786    5572.3509    5571.9046      -0.4464
    1773.0    4778.9632 1496483.0000    3799.4575     128.0103     128.4426      -0.0695    6182.0724    6182.0031     129.0904         29     441.1646      -0.0840    5573.8161    5573.7321    5572.3541    5571.9081      -0.4461
    1774.0    4798.2802 1496483.0000    3799.4575     128.0085     128.4409      -0.0708    6182.1555    6182.0847     129.0890         29     442.1646      -0.0834    5573.7091    5573.6255    5572.3594    5571.9141      -0.4452
    1775.0    4820.4939 1496483.0000    3799.4575     128.0067     128.4391      -0.0724    6182.2500    6182.1776     129.0876         29     443.1646      -0.0822    5573.7982    5573.7161    5572.3603    5571.9156      -0.4446
    1776.0    4833.0421 1496483.0000    3799.4575     128.0064     128.4380      -0.0733    6182.0573    6181.9840     129.0862         29     444.1646      -0.0823    5573.7547    5573.6724    5572.3567    5571.9123      -0.4443
    1777.0    4874.4518 1496483.0000    3799.4575     128.0045     128.4377      -0.0733    6182.0537    6181.9805     129.0848         29     445.1646      -0.0843    5573.7710    5573.6866    5572.3575    5571.9137      -0.4439
    1778.0    4821.7198 1496483.0000    3799.4575     128.0053     128.4361      -0.0730    6182.0972    6182.0243     129.0834         29     446.1646      -0.0860    5573.8452    5573.7592    5572.3645    5571.9212      -0.4432
    1779.0    4803.9510 1496483.0000    3799.4575     128.0013     128.4342      -0.0730    6181.9830    6181.9100     129.0821         29     447.1646      -0.0866    5573.7591    5573.6724    5572.3593    5571.9161      -0.4431
    1780.0    4824.8231 1496483.0000    3799.4575     128.0004     128.4338      -0.0724    6181.8351    6181.7628     129.0807         29     448.1646      -0.0865    5573.7125    5573.6261    5572.3651    5571.9213      -0.4436
    1781.0    4818.1348 1496483.0000    3799.4575     127.9981     128.4321      -0.0723    6182.0452    6181.9729     129.0793         29     449.1646      -0.0858    5573.7950    5573.7091    5572.3694    5571.9256      -0.4439
    1782.0    4770.0789 1496483.0000    3799.4575     127.9965     128.4306      -0.0735    6182.0993    6182.0258     129.0779         29     450.1646      -0.0844    5573.8016    5573.7174    5572.3664    5571.9226      -0.4440
    1783.0    4799.9089 1496483.0000    3799.4575     127.9949     128.4271      -0.0751    6182.0095    6181.9343     129.0766         29     451.1646      -0.0826    5573.8041    5573.7215    5572.3694    5571.9251      -0.4442
    1784.0    4761.2626 1496483.0000    3799.4575     127.9939     128.4298      -0.0745    6182.3248    6182.2502     129.0751         29     452.1646      -0.0818    5573.7368    5573.6553    5572.3761    5571.9317      -0.4442
    1785.0    4727.4326 1496483.0000    3799.4575     127.9923     128.4262      -0.0722    6182.1733    6182.1011     129.0739         29     453.1646      -0.0820    5573.8729    5573.7908    5572.3739    5571.9300      -0.4439
    1786.0    4770.3101 1496483.0000    3799.4575     127.9902     128.4254      -0.0709    6182.1086    6182.0377     129.0723         29     454.1646      -0.0827    5573.8455    5573.7630    5572.3797    5571.9358      -0.4437
